%time,field.header.seq,field.header.stamp,field.pose.pose.position.x,field.pose.pose.position.y,field.pose.pose.position.z,field.pose.pose.orientation.x,field.pose.pose.orientation.y,field.pose.pose.orientation.z,field.pose.pose.orientation.w,field.twist.twist.linear.x,field.twist.twist.linear.y,field.twist.twist.linear.z,field.twist.twist.angular.x,field.twist.twist.angular.y,field.twist.twist.angular.z
1609054403667495728,49,1609054403667495728,0.0169916282598,-0.0106635602303,0.00156276189335,-0.000307036507642,-0.000295726581846,-0.00015530594007,0.999999897077,0.0,0.0,0.0,0.0,0.0,0.0
1609054403761391163,50,1609054403761391163,0.0228713840161,-0.0145467941834,-0.000102195779463,0.000418695864261,0.000212121795473,-0.000234062655099,0.999999862456,0.0,0.0,0.0,0.0,0.0,0.0
1609054403873744249,51,1609054403873744249,0.0165242413789,-0.0225040273285,-0.000696031581517,8.40847911824e-05,-0.000294181325184,4.56443283631e-05,0.999999952152,0.0,0.0,0.0,0.0,0.0,0.0
1609054403967506409,52,1609054403967506409,0.0136160743529,-0.0283592968561,-0.000792776750439,9.22555030062e-05,0.000265139208493,3.43514453915e-05,0.999999960005,0.0,0.0,0.0,0.0,0.0,0.0
1609054404061492682,53,1609054404061492682,0.0216000316778,-0.0183053613229,-0.000561352902922,3.63427266026e-05,-0.000237190454344,-2.43855116012e-05,0.999999970913,0.0,0.0,0.0,0.0,0.0,0.0
1609054404173678637,54,1609054404173678637,0.011959820763,-0.0122949698992,5.68916538532e-05,0.0001473839637,-0.000161472725182,-7.91897724125e-05,0.999999972967,0.0,0.0,0.0,0.0,0.0,0.0
1609054404267392397,55,1609054404267392397,0.0209771700473,-0.0190038477727,-0.000305609070407,-0.000166737396873,-9.02749917702e-05,-4.07255034536e-05,0.999999981195,0.0,0.0,0.0,0.0,0.0,0.0
1609054404361479521,56,1609054404361479521,0.00648277377511,-0.0140036182573,-0.0021981395905,4.43602663493e-05,0.000344898255027,7.33147032327e-05,0.999999936851,0.0,0.0,0.0,0.0,0.0,0.0
1609054404473576784,57,1609054404473576784,0.0199440672705,-0.0153995018499,-0.000823930911295,-0.000102959784382,4.89785056846e-05,-0.000227625133289,0.999999967594,0.0,0.0,0.0,0.0,0.0,0.0
1609054404567915678,58,1609054404567915678,0.0135872411538,-0.0162535709224,-0.000948453251488,-4.89282545372e-05,-0.000103701118868,-4.97256065019e-05,0.99999999219,0.0,0.0,0.0,0.0,0.0,0.0
1609054404661333084,59,1609054404661333084,0.0148001356273,-0.0157534463914,-0.00143203811525,0.000122622274564,0.000532943364749,-3.55692881278e-05,0.999999849835,0.0,0.0,0.0,0.0,0.0,0.0
1609054404773445129,60,1609054404773445129,0.0191123602132,-0.0128312093103,-0.000306816693686,-0.000335270792232,8.31954038463e-06,-0.000118396384373,0.999999936753,0.0,0.0,0.0,0.0,0.0,0.0
1609054404867273808,61,1609054404867273808,0.018657491554,-0.00882254374887,0.00102361745486,1.85528105771e-05,-0.000234929335157,-0.000131826833111,0.999999963543,0.0,0.0,0.0,0.0,0.0,0.0
1609054404961496830,62,1609054404961496830,0.0174799760436,-0.00848341223185,-0.000589092877164,-0.000182872930786,5.24918345113e-05,-0.000101064214674,0.999999976794,0.0,0.0,0.0,0.0,0.0,0.0
1609054405073533297,63,1609054405073533297,0.0143949864235,-0.0098604950712,-0.00132663102832,2.90797933666e-06,8.41011417603e-06,-3.38349323063e-05,0.999999999388,0.0,0.0,0.0,0.0,0.0,0.0
1609054405167301416,64,1609054405167301416,0.0208026902572,-0.00799493350976,0.00133526368085,6.60242177612e-05,-0.000115818790145,-9.43357954873e-05,0.999999986664,0.0,0.0,0.0,0.0,0.0,0.0
1609054405261336088,65,1609054405261336088,0.0155884481456,-0.0107185302591,-0.00201331040096,-0.000173163571159,0.000136132002389,-0.000210743640566,0.999999953535,0.0,0.0,0.0,0.0,0.0,0.0
1609054405374491930,66,1609054405374491930,0.0219396628364,-0.00654426499038,-0.000848616946931,3.31260618133e-05,3.12056212406e-05,-0.000295511477127,0.999999955301,0.0,0.0,0.0,0.0,0.0,0.0
1609054405467295170,67,1609054405467295170,0.0168145082245,-0.00672667850543,0.00080137291473,-0.000325761482853,-0.000274116284927,-0.000129620524153,0.999999900969,0.0,0.0,0.0,0.0,0.0,0.0
1609054405561595678,68,1609054405561595678,0.00912906444586,-0.0180858217726,-1.46945624638e-05,9.47957332612e-05,-0.000246490913317,-0.00016750355055,0.999999951099,0.0,0.0,0.0,0.0,0.0,0.0
1609054405674577475,69,1609054405674577475,0.0189208886876,-0.0125288858501,0.00121978655986,0.000136216225659,0.000102788772377,-9.29952726693e-05,0.999999981116,0.0,0.0,0.0,0.0,0.0,0.0
1609054405767358780,70,1609054405767358780,0.0101967438536,-0.00795539475637,-0.00122135138751,-0.000223041277216,7.65725956782e-06,-7.2532105839e-05,0.999999972467,0.0,0.0,0.0,0.0,0.0,0.0
1609054405862248659,71,1609054405862248659,0.0158215274391,-0.0192167533208,-0.00122110947443,-0.00017038844521,-0.000221009140156,-0.000173192640248,0.999999946064,0.0,0.0,0.0,0.0,0.0,0.0
1609054405973615646,72,1609054405973615646,0.0116035707104,-0.0112266856107,0.000366101850746,-7.29634036444e-05,-8.64011201766e-05,-1.11899259272e-05,0.999999993543,0.0,0.0,0.0,0.0,0.0,0.0
1609054406067150831,73,1609054406067150831,0.0219112431347,-0.0130431852742,-0.00165543670241,-0.000126083225,0.000523284317116,-0.000173084679579,0.999999840159,0.0,0.0,0.0,0.0,0.0,0.0
1609054406161258936,74,1609054406161258936,0.0147795932321,-0.016304425142,-0.00219860767344,0.000113866261844,-0.000314726637869,0.00013030462656,0.999999935501,0.0,0.0,0.0,0.0,0.0,0.0
1609054406274150848,75,1609054406274150848,0.0123133017595,-0.0105864763267,0.000842912917537,-0.000196357111067,-0.000539930883765,-0.000248821575331,0.999999804003,0.0,0.0,0.0,0.0,0.0,0.0
1609054406367122889,76,1609054406367122889,0.00982668098275,-0.0105628774965,0.00152975510688,-9.28311470189e-05,-0.000505930501287,-5.69751991727e-05,0.999999866085,0.0,0.0,0.0,0.0,0.0,0.0
1609054406463082075,77,1609054406463082075,0.0129906592001,-0.0237155233481,-0.000438766345397,0.00029850610963,-0.000207101092927,-3.84027630786e-05,0.999999933264,0.0,0.0,0.0,0.0,0.0,0.0
1609054406559400082,78,1609054406559400082,0.00915243103093,-0.0146892358459,-0.00188858249364,0.000142988342313,-0.000414341288613,-6.38581423901e-05,0.999999901899,0.0,0.0,0.0,0.0,0.0,0.0
1609054406668809175,79,1609054406668809175,0.0177082743407,-0.00602194229499,-0.00115078603019,-0.000141929740997,7.04362372868e-05,4.23472941059e-06,0.999999987438,0.0,0.0,0.0,0.0,0.0,0.0
1609054406762711525,80,1609054406762711525,0.0206196696891,-0.0138874018895,0.000260590514992,-5.65123946707e-05,-0.000286700553856,-0.000201985806874,0.999999936905,0.0,0.0,0.0,0.0,0.0,0.0
1609054406859551668,81,1609054406859551668,0.02149062629,-0.00488404790857,-0.00132768023178,0.000173823098485,-0.000139607982739,-0.000101461101059,0.99999997,0.0,0.0,0.0,0.0,0.0,0.0
1609054406968643427,82,1609054406968643427,0.0261071697441,-0.0171800786666,0.000979118178877,0.000109168592154,0.000183111946214,0.000222518398808,0.999999952519,0.0,0.0,0.0,0.0,0.0,0.0
1609054407062545300,83,1609054407062545300,0.02251251459,-0.0219957568031,-0.000528354338282,0.000171290243798,-7.49381690659e-05,-0.000111757078902,0.999999976277,0.0,0.0,0.0,0.0,0.0,0.0
1609054407159109831,84,1609054407159109831,0.0155571052463,-0.0125298754433,0.000489581505793,-0.00011460540231,-0.00041827601246,-0.000172439973632,0.999999891088,0.0,0.0,0.0,0.0,0.0,0.0
1609054407269333124,85,1609054407269333124,0.0136148016913,-0.0174746315131,0.000570605751031,0.00018057606556,-0.000535474728175,7.3483440664e-06,0.999999840303,0.0,0.0,0.0,0.0,0.0,0.0
1609054407363734007,86,1609054407363734007,0.0215499872024,-0.00834419459261,0.00198240444202,-3.54496223492e-05,0.000178230456911,-0.000224012913197,0.999999958398,0.0,0.0,0.0,0.0,0.0,0.0
1609054407459258795,87,1609054407459258795,0.0193047910098,-0.0095737687776,-0.000323859954888,-0.000193771256698,-0.000207170410373,-0.00014209027319,0.999999949672,0.0,0.0,0.0,0.0,0.0,0.0
1609054407568443298,88,1609054407568443298,0.0129968539509,-0.0043655913706,-0.000929332581134,4.6162433829e-05,-0.000129940151186,-0.000131928217508,0.99999998179,0.0,0.0,0.0,0.0,0.0,0.0
1609054407662591219,89,1609054407662591219,0.0133588448579,-0.00728487154027,-0.000713550341446,-1.55499625802e-05,8.68939838452e-05,-0.000230814411275,0.999999969466,0.0,0.0,0.0,0.0,0.0,0.0
1609054407759235382,90,1609054407759235382,0.0281276575637,-0.021555534615,0.000128051832223,8.71673896368e-05,0.000170039027399,-0.000232577502559,0.999999954698,0.0,0.0,0.0,0.0,0.0,0.0
1609054407868831873,91,1609054407868831873,0.0152203133637,-0.0188892640785,-0.00138258342711,9.02343920481e-05,-9.35890068057e-05,-3.44123344862e-05,0.999999990957,0.0,0.0,0.0,0.0,0.0,0.0
1609054407962866545,92,1609054407962866545,0.0151850869598,-0.016902684094,0.00125526331275,0.000108881893353,-0.00020892736683,-0.000169989080089,0.999999957799,0.0,0.0,0.0,0.0,0.0,0.0
1609054408059130907,93,1609054408059130907,0.0204018724023,-0.0214806487283,-0.000241638515088,-1.36363125715e-05,-0.000174851135591,-0.000210774562037,0.999999962408,0.0,0.0,0.0,0.0,0.0,0.0
1609054408168604136,94,1609054408168604136,0.00674233990126,-0.0200149059756,-0.0013263919299,-7.79281209043e-05,0.000217949455914,3.03826256199e-05,0.999999972751,0.0,0.0,0.0,0.0,0.0,0.0
1609054408262886286,95,1609054408262886286,0.0264246610329,-0.0102957452377,-0.00113826788233,0.000146617488705,-4.64825821172e-05,-0.000163555167308,0.999999974796,0.0,0.0,0.0,0.0,0.0,0.0
1609054408359160185,96,1609054408359160185,0.00843313420626,-0.0107690285899,-0.00100474691343,-0.000145369822535,-0.00013068394199,-0.00014644097628,0.999999970172,0.0,0.0,0.0,0.0,0.0,0.0
1609054408468926907,97,1609054408468926907,0.0252216811828,-0.0168875189805,-0.00119780071148,-9.47295089241e-05,5.93549181593e-05,-6.78389327356e-05,0.999999991451,0.0,0.0,0.0,0.0,0.0,0.0
1609054408562790871,98,1609054408562790871,0.0119639415556,-0.0168184889699,-0.000702725637161,-1.80150435686e-05,4.84208716765e-05,-1.33724787511e-05,0.999999998576,0.0,0.0,0.0,0.0,0.0,0.0
1609054408659123421,99,1609054408659123421,0.0211394382647,-0.00671010088371,-0.000904734676442,-0.000119835198784,-1.34131876811e-05,-9.92153800838e-05,0.999999987808,0.0,0.0,0.0,0.0,0.0,0.0
1609054408768761396,100,1609054408768761396,0.0149118305979,-0.0224268308236,-0.000581968055733,2.55689238547e-05,2.94416161766e-05,-7.55433002184e-05,0.999999996386,0.0,0.0,0.0,0.0,0.0,0.0
1609054408862689972,101,1609054408862689972,0.0123377518478,-0.0136644747847,-0.000411565110571,6.66488364088e-05,-0.000142590151379,8.99228144356e-05,0.99999998357,0.0,0.0,0.0,0.0,0.0,0.0
1609054408958965540,102,1609054408958965540,0.0167548086846,-0.0129238612522,0.000550634298466,0.000321734533169,-0.000244159129188,-0.000114859171331,0.99999991184,0.0,0.0,0.0,0.0,0.0,0.0
1609054409068454504,103,1609054409068454504,0.0210719510478,-0.0174520928021,-9.46653760762e-05,0.000595459628775,-0.000243382128019,0.000120443756517,0.999999785843,0.0,0.0,0.0,0.0,0.0,0.0
1609054409162940025,104,1609054409162940025,0.0212481294042,-0.0167384786649,-0.00139652934949,-0.000435388297644,6.5822247691e-05,-0.000216686986989,0.999999879576,0.0,0.0,0.0,0.0,0.0,0.0
1609054409259214640,105,1609054409259214640,0.0231264575976,-0.0249834755607,0.000966223389531,5.95376318903e-05,-6.73044588415e-05,6.42500121973e-05,0.999999993899,0.0,0.0,0.0,0.0,0.0,0.0
1609054409368637562,106,1609054409368637562,0.0308611121503,-0.0105151937967,-0.000152970345899,9.25972206607e-05,0.000461256641193,-9.65322301907e-05,0.999999884675,0.0,0.0,0.0,0.0,0.0,0.0
1609054409462863445,107,1609054409462863445,0.0231057090406,-0.0123068060273,-0.00219348481453,4.10773019987e-06,0.0002912705783,-7.20886574812e-05,0.999999954974,0.0,0.0,0.0,0.0,0.0,0.0
1609054409559236765,108,1609054409559236765,0.0222011047684,-0.0329973426641,-0.001147632413,0.000265320508204,-0.000325750498055,2.51175706722e-06,0.999999911743,0.0,0.0,0.0,0.0,0.0,0.0
1609054409669027567,109,1609054409669027567,0.0248638689422,-0.0133972773917,-0.0010687382171,-0.00021482566328,9.55800574735e-05,1.54973555372e-05,0.999999972237,0.0,0.0,0.0,0.0,0.0,0.0
1609054409763786554,110,1609054409763786554,0.0195232254144,-0.0132487060235,0.000574688305215,0.000687705301684,-0.000445295007887,1.79071321958e-05,0.999999664227,0.0,0.0,0.0,0.0,0.0,0.0
1609054409859276295,111,1609054409859276295,0.0267129768404,-0.0133831163178,-0.00101331901199,-5.79668205123e-05,0.00036839880765,-4.51834026164e-05,0.99999992944,0.0,0.0,0.0,0.0,0.0,0.0
1609054409968606710,112,1609054409968606710,0.0330921706514,-0.0160805151017,-9.27360798532e-05,1.69310505067e-05,0.000224267993146,0.000119597592957,0.999999967557,0.0,0.0,0.0,0.0,0.0,0.0
1609054410064834356,113,1609054410064834356,0.0284753332998,-0.0114075126955,-0.000975376191991,-4.84824107569e-05,0.000320460474477,-9.26615900225e-05,0.999999943184,0.0,0.0,0.0,0.0,0.0,0.0
1609054410158784389,114,1609054410158784389,0.0243119113223,-0.00842844211628,-0.00102949658317,-6.32723602452e-05,-0.000161217470149,-0.000123873069543,0.999999977331,0.0,0.0,0.0,0.0,0.0,0.0
1609054410268425226,115,1609054410268425226,0.0304252773027,-0.0130465926794,-0.00162559825167,-6.86446624497e-05,-0.000112840201146,-0.000159926009617,0.999999978489,0.0,0.0,0.0,0.0,0.0,0.0
1609054410362285852,116,1609054410362285852,0.0209947789871,-0.0174062463357,-0.00144133626079,0.000168338127285,0.00011260990682,7.79272533146e-05,0.999999976454,0.0,0.0,0.0,0.0,0.0,0.0
1609054410458904743,117,1609054410458904743,0.0249510402985,-0.0148637705536,-0.00132639202055,-2.42264710361e-05,-0.000511192479784,-7.45801074991e-05,0.999999866267,0.0,0.0,0.0,0.0,0.0,0.0
1609054410568568230,118,1609054410568568230,0.0222811013433,-0.0224460888519,-0.00192254041142,0.00012383508125,-5.78027838317e-05,3.20556728826e-05,0.999999990148,0.0,0.0,0.0,0.0,0.0,0.0
1609054410662791491,119,1609054410662791491,0.0232031928078,-0.0220924125708,-0.0016456935224,-0.000167750376474,-0.000153819235776,-0.000125672207389,0.999999966203,0.0,0.0,0.0,0.0,0.0,0.0
1609054410758918762,120,1609054410758918762,0.0217008418745,-0.0191107942179,-0.00291683046564,-0.0004506015186,-0.000225374583479,-0.00022127800283,0.9999998486,0.0,0.0,0.0,0.0,0.0,0.0
1609054410868296385,121,1609054410868296385,0.0202767951818,-0.00648634842192,-0.00169413248798,0.000278973735471,-2.70480110337e-05,0.000152971502983,0.999999949021,0.0,0.0,0.0,0.0,0.0,0.0
1609054410962547302,122,1609054410962547302,0.0274811430881,-0.0214692775487,-0.00210520351425,-3.20600022004e-05,2.353211134e-05,-0.000225340406473,0.99999997382,0.0,0.0,0.0,0.0,0.0,0.0
1609054411059254408,123,1609054411059254408,0.0182830067167,-0.021761735668,-0.00149205766879,-4.4818227594e-05,-0.000413378656694,-9.10841143542e-05,0.999999909407,0.0,0.0,0.0,0.0,0.0,0.0
1609054411169037104,124,1609054411169037104,0.0229110030793,-0.0239024199188,-0.000155388331764,-6.73670398961e-05,-0.000352273593591,3.47887048686e-06,0.999999935676,0.0,0.0,0.0,0.0,0.0,0.0
1609054411263201714,125,1609054411263201714,0.022632576099,-0.0120304856895,-0.000488130000755,-6.39190858715e-05,0.000356769351985,7.7621389476e-05,0.999999931302,0.0,0.0,0.0,0.0,0.0,0.0
1609054411359087229,126,1609054411359087229,0.0243432901033,-0.0260750140293,-7.40786302981e-05,0.000267818316084,-0.000267788825792,-1.2844818774e-05,0.999999928199,0.0,0.0,0.0,0.0,0.0,0.0
1609054411468455315,127,1609054411468455315,0.0294813231738,-0.0114437518921,-0.00202274902418,1.65344747426e-05,4.1894779016e-05,0.00018580302607,0.999999981724,0.0,0.0,0.0,0.0,0.0,0.0
1609054411562402725,128,1609054411562402725,0.02116158358,-0.00750074702373,-0.00125457898819,3.49371583779e-05,-0.000229989027251,-5.48173356546e-05,0.99999997144,0.0,0.0,0.0,0.0,0.0,0.0
1609054411659335136,129,1609054411659335136,0.0242838046582,-0.0203226511958,-0.0024432374455,0.000155321427782,0.000169652425463,4.98282410756e-05,0.999999972305,0.0,0.0,0.0,0.0,0.0,0.0
1609054411768463373,130,1609054411768463373,0.022769925242,-0.0192522285626,-0.00169167468447,2.76869885188e-05,-0.00044736179133,0.00014573699433,0.999999888931,0.0,0.0,0.0,0.0,0.0,0.0
1609054411862406015,131,1609054411862406015,0.0219597075946,-0.0142756600367,-0.00101914752418,-0.000133120062255,-2.18064573978e-06,3.06594766561e-05,0.999999990667,0.0,0.0,0.0,0.0,0.0,0.0
1609054411959164381,132,1609054411959164381,0.0265252615279,-0.0180683090536,-0.00313241504206,-0.000100147736836,3.57906678084e-05,-6.00938965973e-05,0.999999992539,0.0,0.0,0.0,0.0,0.0,0.0
1609054412069110632,133,1609054412069110632,0.0229936406175,-0.0226242100842,-0.00133153926426,0.00027239528579,0.000183758633065,1.69613041856e-05,0.999999945873,0.0,0.0,0.0,0.0,0.0,0.0
1609054412165400028,134,1609054412165400028,0.0217526317055,-0.0191265799401,-0.00184155161774,0.000113285677677,0.000107176850445,5.92415032708e-05,0.999999986085,0.0,0.0,0.0,0.0,0.0,0.0
1609054412260230780,135,1609054412260230780,0.0323799778578,-0.0222637597168,-0.00100182488047,0.000123002727349,0.000184792054444,-0.000114480661763,0.999999968808,0.0,0.0,0.0,0.0,0.0,0.0
1609054412370381355,136,1609054412370381355,0.0274091337794,0.00196574630711,-0.000692321982106,-0.000413843212594,0.000288809062532,-0.000153850075759,0.999999860827,0.0,0.0,0.0,0.0,0.0,0.0
1609054412464720011,137,1609054412464720011,0.0311121307323,-0.00521791071296,-0.00125132946335,0.000250058699835,0.000357472396048,-2.41054534836e-05,0.999999904552,0.0,0.0,0.0,0.0,0.0,0.0
1609054412559495926,138,1609054412559495926,0.0215733506073,-0.00769942528012,0.000325505828623,-0.000146068248069,-8.69588377016e-05,-6.67551856191e-05,0.999999983323,0.0,0.0,0.0,0.0,0.0,0.0
1609054412671982288,139,1609054412671982288,0.0282860673045,-0.0245525950761,-0.00190201617461,0.000442828776204,-0.000102865771633,-6.42010104067e-05,0.9999998946,0.0,0.0,0.0,0.0,0.0,0.0
1609054412772087336,140,1609054412772087336,0.0216891404801,-0.0150069771948,-0.0024830586804,0.000211376278739,-0.000192348583435,0.000109579611857,0.999999953157,0.0,0.0,0.0,0.0,0.0,0.0
1609054412867722988,141,1609054412867722988,0.0275921294371,-0.0174742303787,-0.00247669593637,-0.000357048035983,7.98822516955e-05,-0.000136885859498,0.999999923699,0.0,0.0,0.0,0.0,0.0,0.0
1609054412959221125,142,1609054412959221125,0.0161270007157,-0.0133830055977,-0.00187006333784,-3.83286946233e-06,-0.000593771719392,-0.000174141124676,0.999999808548,0.0,0.0,0.0,0.0,0.0,0.0
1609054413071641922,143,1609054413071641922,0.0199415306199,-0.016431461304,-0.00230431981201,0.000226478719924,-0.000125911659332,0.000145730269035,0.999999955808,0.0,0.0,0.0,0.0,0.0,0.0
1609054413168034792,144,1609054413168034792,0.0323003937173,-0.027470583966,-0.000425597812045,0.000151324165407,-9.4442846308e-05,0.000149114642668,0.999999972973,0.0,0.0,0.0,0.0,0.0,0.0
1609054413259433985,145,1609054413259433985,0.0275362740307,-0.0167512994294,-0.00115929757821,-0.000242451896565,0.00013216943661,-0.000266739424164,0.999999926299,0.0,0.0,0.0,0.0,0.0,0.0
1609054413371543646,146,1609054413371543646,0.023504505591,-0.0137981781639,-0.00079880415791,5.34672486494e-05,0.000235583824484,-3.53312836977e-05,0.999999970197,0.0,0.0,0.0,0.0,0.0,0.0
1609054413465514183,147,1609054413465514183,0.0255861285728,-0.0227880713969,-0.00114183988674,-0.000247821748959,-0.000104638413096,-0.00018946765979,0.999999945869,0.0,0.0,0.0,0.0,0.0,0.0
1609054413558970213,148,1609054413558970213,0.0176681327079,-0.021369699386,0.00216918710611,-0.000173125356176,-0.000652240442012,5.12354719789e-05,0.999999770992,0.0,0.0,0.0,0.0,0.0,0.0
1609054413672212124,149,1609054413672212124,0.0325925377982,-0.00980689895996,-0.000768398076222,5.74289941037e-05,-0.000103347771253,-0.000396570949389,0.999999914376,0.0,0.0,0.0,0.0,0.0,0.0
1609054413765676737,150,1609054413765676737,0.0216786692012,-0.0163606031583,-0.00133277295494,0.000341877760818,0.000137275549066,2.74165581035e-05,0.999999931762,0.0,0.0,0.0,0.0,0.0,0.0
1609054413859589815,151,1609054413859589815,0.0174601833425,-0.0103822515316,-0.00137009214108,-0.000316617872419,-0.000595466000641,-0.000131111586665,0.999999763992,0.0,0.0,0.0,0.0,0.0,0.0
1609054413971652746,152,1609054413971652746,0.0222196298051,-0.0231649008391,-0.00138838121383,0.000948217366989,-0.000378397121122,0.000215849217437,0.999999455554,0.0,0.0,0.0,0.0,0.0,0.0
1609054414067266941,153,1609054414067266941,0.028567246253,-0.0223560480018,-0.00121854175735,-6.4853527089e-05,0.000244740838843,-0.000139896126087,0.999999958163,0.0,0.0,0.0,0.0,0.0,0.0
1609054414159121752,154,1609054414159121752,0.0330004688549,-0.0148750679031,-0.000195906574615,-0.000165413261094,-0.00024625317229,-8.5574208123e-05,0.999999952337,0.0,0.0,0.0,0.0,0.0,0.0
1609054414271600962,155,1609054414271600962,0.027872650252,-0.0143010108886,-0.00218478232869,0.000424021627919,0.00014843098444,0.000105275510206,0.999999893546,0.0,0.0,0.0,0.0,0.0,0.0
1609054414365254164,156,1609054414365254164,0.0215835469409,-0.0197504501087,-0.00206268245198,-0.000101570773306,-0.000190417361238,0.00010394635006,0.99999997131,0.0,0.0,0.0,0.0,0.0,0.0
1609054414462148905,157,1609054414462148905,0.0246652405695,-0.00766655075378,-0.00206497745334,-7.9678917833e-05,-0.00014416195245,0.000149127512714,0.999999975315,0.0,0.0,0.0,0.0,0.0,0.0
1609054414558851242,158,1609054414558851242,0.0214157517721,-0.0133793853517,6.28814665451e-05,2.77557536404e-05,-0.000152150475714,5.74607977697e-05,0.999999986389,0.0,0.0,0.0,0.0,0.0,0.0
1609054414668603182,159,1609054414668603182,0.0219679403755,-0.020558668187,-0.00275067443994,0.000293151903983,0.000232185378821,7.47623675436e-06,0.999999930048,0.0,0.0,0.0,0.0,0.0,0.0
1609054414762166023,160,1609054414762166023,0.0197357703278,-0.00609103102858,-0.000758602197866,-5.19759734348e-05,-0.000372382585973,7.5802077227e-05,0.999999926442,0.0,0.0,0.0,0.0,0.0,0.0
1609054414860432863,161,1609054414860432863,0.021173823947,-0.0181029353351,0.000760767869426,-5.72510748827e-05,0.000183342965615,-0.000199370142629,0.99999996168,0.0,0.0,0.0,0.0,0.0,0.0
1609054414969217300,162,1609054414969217300,0.023632286047,-0.0106301399391,-0.00229702019722,-0.000173998799467,-2.21688083203e-05,-0.000183594362044,0.999999967763,0.0,0.0,0.0,0.0,0.0,0.0
1609054415062453270,163,1609054415062453270,0.0244022128413,-0.0114643804491,-0.000881662706402,0.000282847988494,-4.57534499568e-05,0.000119998945004,0.999999951752,0.0,0.0,0.0,0.0,0.0,0.0
1609054415159574032,164,1609054415159574032,0.0271770995764,-0.0169353219119,-0.00209389669519,0.000128684904241,0.000290773079889,6.70789022215e-05,0.999999947196,0.0,0.0,0.0,0.0,0.0,0.0
1609054415269281864,165,1609054415269281864,0.0183018769809,-0.0131314600826,0.000367628897822,5.15967544632e-05,-0.000286168583335,2.66791855823e-05,0.999999957367,0.0,0.0,0.0,0.0,0.0,0.0
1609054415362461805,166,1609054415362461805,0.0187926480987,-0.0158116945646,-0.0023763296081,-0.000198498893988,-0.000279420452752,3.26570993936e-05,0.999999940728,0.0,0.0,0.0,0.0,0.0,0.0
1609054415459398270,167,1609054415459398270,0.0211157655003,-0.00835525140257,-0.00101008522799,-0.000283701019983,-0.000241793539823,-0.000130864249796,0.999999921962,0.0,0.0,0.0,0.0,0.0,0.0
1609054415568372726,168,1609054415568372726,0.0273705640428,-0.0093118034449,-0.00244627117158,-3.41582899784e-05,3.89960327003e-05,-6.70082229864e-05,0.999999996411,0.0,0.0,0.0,0.0,0.0,0.0
1609054415666883707,169,1609054415666883707,0.0259488902138,-0.00593493354673,-0.00195370217583,-4.04652671366e-05,-0.000210676813761,-0.000168244974017,0.999999962836,0.0,0.0,0.0,0.0,0.0,0.0
1609054415760653973,170,1609054415760653973,0.0194285801921,-0.0250015031437,-0.00117704608267,0.00017296411905,9.51454174713e-05,-0.000198746669016,0.999999960765,0.0,0.0,0.0,0.0,0.0,0.0
1609054415874499798,171,1609054415874499798,0.0279568824539,-0.0116729260098,0.00107895351485,0.000134476526699,-0.000234970114845,0.000126885891285,0.999999955303,0.0,0.0,0.0,0.0,0.0,0.0
1609054415967223644,172,1609054415967223644,0.0315726299666,-0.0222891311332,-0.00193460073369,-4.89144426593e-05,0.000237386827603,5.51260693445e-05,0.999999969108,0.0,0.0,0.0,0.0,0.0,0.0
1609054416060900927,173,1609054416060900927,0.0171052301969,-0.0176661834502,-0.0012576416962,0.000103263451747,-0.000148424254403,-0.000183822434979,0.999999966758,0.0,0.0,0.0,0.0,0.0,0.0
1609054416177806377,174,1609054416177806377,0.0203915339308,-0.00529329063351,-0.00183606172023,-3.81144571757e-05,0.000325459495603,0.000128352017119,0.999999938075,0.0,0.0,0.0,0.0,0.0,0.0
1609054416270380974,175,1609054416270380974,0.0170049019375,-0.0079333513188,0.000231559522162,-0.000100722114129,-0.000110419854562,-0.000165938092811,0.999999975064,0.0,0.0,0.0,0.0,0.0,0.0
1609054416364276648,176,1609054416364276648,0.0300751941342,-0.0160979564139,-0.00155112062015,3.36287436373e-05,0.000234900004451,4.68595949059e-05,0.999999970748,0.0,0.0,0.0,0.0,0.0,0.0
1609054416460371494,177,1609054416460371494,0.0224028173671,-0.0164987293257,-0.000794619334939,0.000179613875015,-0.000308794706192,7.32055653117e-05,0.999999933513,0.0,0.0,0.0,0.0,0.0,0.0
1609054416570194721,178,1609054416570194721,0.0220599884607,-0.0173584099097,-0.00214970948695,-9.75142368211e-05,3.53886003457e-05,-5.04981352996e-05,0.999999993344,0.0,0.0,0.0,0.0,0.0,0.0
1609054416664018393,179,1609054416664018393,0.024211748882,-0.00816285517414,-0.0010271419499,-5.32079393741e-05,-0.000513556494401,-0.000206085719446,0.999999845479,0.0,0.0,0.0,0.0,0.0,0.0
1609054416761210203,180,1609054416761210203,0.0287917228163,-0.0127111294512,-0.000852156024834,-7.07127438958e-05,-0.000163335085176,1.37052378328e-05,0.999999984067,0.0,0.0,0.0,0.0,0.0,0.0
1609054416872062922,181,1609054416872062922,0.0242532806436,-0.0240154463433,-0.00119097094115,0.000280276939291,-0.000180262030048,0.00010797167824,0.999999938646,0.0,0.0,0.0,0.0,0.0,0.0
1609054416965483904,182,1609054416965483904,0.0221720561344,-0.00615111325589,-0.00305556723837,5.08063772991e-05,0.000215509622867,0.000105389038649,0.999999969934,0.0,0.0,0.0,0.0,0.0,0.0
1609054417060499907,183,1609054417060499907,0.0240898043495,-0.0264506125148,-0.00027727012758,0.000250870384684,-0.000251528604891,-3.84046534905e-05,0.999999936161,0.0,0.0,0.0,0.0,0.0,0.0
1609054417171416044,184,1609054417171416044,0.0225890483224,-0.0128300293011,-0.0018499514123,0.000666117032812,-0.000365435235772,0.000159225384267,0.999999698696,0.0,0.0,0.0,0.0,0.0,0.0
1609054417265791178,185,1609054417265791178,0.0339137708513,-0.0179121024325,-0.00219804113743,0.000224979405292,-1.07039552338e-05,-0.00019549300976,0.999999955526,0.0,0.0,0.0,0.0,0.0,0.0
1609054417361926317,186,1609054417361926317,0.0176190675395,-0.0163702694234,-0.00146743340865,-0.000160569855843,-0.000361370054103,-1.50137484384e-05,0.999999921702,0.0,0.0,0.0,0.0,0.0,0.0
1609054417472058773,187,1609054417472058773,0.0219787751314,-0.0214487414078,-0.00171205720716,0.000110305754956,0.00012233366286,1.40890756858e-05,0.999999986334,0.0,0.0,0.0,0.0,0.0,0.0
1609054417566003084,188,1609054417566003084,0.0308439419907,-0.0104676391978,-0.00121576757878,0.000110424696445,-1.05376511177e-05,-6.07914862416e-05,0.999999992,0.0,0.0,0.0,0.0,0.0,0.0
1609054417660468817,189,1609054417660468817,0.0256866905969,-0.0141134017603,-0.00181337940867,0.000137688442338,-0.000344267409082,-4.6901072162e-05,0.999999930161,0.0,0.0,0.0,0.0,0.0,0.0
1609054417770445108,190,1609054417770445108,0.0232626981156,-0.0202931580799,-0.00152301974804,0.000150960298386,8.95899501784e-05,-0.000137331029751,0.999999975162,0.0,0.0,0.0,0.0,0.0,0.0
1609054417864468336,191,1609054417864468336,0.0230060763705,-0.0075251025258,-0.00182937666353,-0.00014770120931,0.00024757468948,-0.000208553548625,0.999999936698,0.0,0.0,0.0,0.0,0.0,0.0
1609054417959754229,192,1609054417959754229,0.0211894561248,-0.0122848761867,-0.000974647207678,-1.16127529876e-05,-0.000464427076543,-2.37807710603e-06,0.999999892083,0.0,0.0,0.0,0.0,0.0,0.0
1609054418070196390,193,1609054418070196390,0.0204879775932,-0.011374558426,-0.00251375449282,-0.000230437425028,0.000202490927127,1.91149817159e-05,0.999999952765,0.0,0.0,0.0,0.0,0.0,0.0
1609054418164486408,194,1609054418164486408,0.0274392642822,-0.0171688873576,-0.000547657627623,-0.000119142507155,-0.00012651993514,-7.23012820935e-06,0.999999984873,0.0,0.0,0.0,0.0,0.0,0.0
1609054418259320259,195,1609054418259320259,0.0292663729368,-0.0185159506028,-0.00260033930285,-7.81309716477e-05,-0.000133080953511,1.61837991157e-05,0.999999987962,0.0,0.0,0.0,0.0,0.0,0.0
1609054418370117426,196,1609054418370117426,0.0277849161986,-0.0108328271918,-0.000955614691616,-0.000149801854824,4.91802026215e-05,-0.000133916255155,0.999999978604,0.0,0.0,0.0,0.0,0.0,0.0
1609054418464111090,197,1609054418464111090,0.0182030378879,-0.0129498712929,-0.00104452114643,0.000101336334927,3.73079214909e-05,-6.58409489412e-05,0.999999992002,0.0,0.0,0.0,0.0,0.0,0.0
1609054418559254169,198,1609054418559254169,0.0239117950282,0.000588994579157,-0.00161134112484,3.63665076775e-05,0.000237382763635,-7.69994935521e-05,0.999999968199,0.0,0.0,0.0,0.0,0.0,0.0
1609054418669648170,199,1609054418669648170,0.020588212996,-0.00148597681402,0.000214988644626,-0.000344141076709,-0.000193725584657,-0.000252995237455,0.999999890015,0.0,0.0,0.0,0.0,0.0,0.0
1609054418763825417,200,1609054418763825417,0.0326450409789,-0.0141296383679,-7.78074920897e-05,0.00031924422594,0.000354792559587,-3.98426725994e-05,0.999999885309,0.0,0.0,0.0,0.0,0.0,0.0
1609054418858804464,201,1609054418858804464,0.0259550770876,-0.028785202755,-0.000225593726322,0.000244881326849,-0.000289935356285,-0.000117817873912,0.999999921045,0.0,0.0,0.0,0.0,0.0,0.0
1609054418969802141,202,1609054418969802141,0.0252760967864,-0.0229491884026,-0.000986098903449,6.72359318976e-05,-5.12460403347e-05,-4.80804231135e-05,0.999999995271,0.0,0.0,0.0,0.0,0.0,0.0
1609054419063722134,203,1609054419063722134,0.0255946720778,-0.00445684426338,1.24567838701e-05,0.000164074428743,4.27455350609e-05,0.000117395084445,0.999999978735,0.0,0.0,0.0,0.0,0.0,0.0
1609054419159015417,204,1609054419159015417,0.024823526611,-0.0029764767858,-0.00185443307753,-6.708191634e-05,0.000432589310801,-0.000119244464853,0.999999897074,0.0,0.0,0.0,0.0,0.0,0.0
1609054419270012617,205,1609054419270012617,0.0273202688688,-0.0153764795462,-0.000238745811574,0.000337202656913,-0.000416682979476,7.45624383717e-05,0.999999853555,0.0,0.0,0.0,0.0,0.0,0.0
1609054419363985538,206,1609054419363985538,0.0259279600763,-0.0181101695173,-0.00284555169044,0.00020735429449,0.000304500565485,-2.84997745372e-05,0.999999931736,0.0,0.0,0.0,0.0,0.0,0.0
1609054419459335089,207,1609054419459335089,0.0330898695233,-0.0042897849604,-0.000998441555346,-0.000335591028773,0.000605118793976,3.8062204696e-05,0.999999759881,0.0,0.0,0.0,0.0,0.0,0.0
1609054419570042372,208,1609054419570042372,0.0176732846364,-0.0126031647754,-0.000638674861116,-0.000658563189087,-0.000203009763203,-0.000287603779349,0.999999721183,0.0,0.0,0.0,0.0,0.0,0.0
1609054419663929224,209,1609054419663929224,0.0299728326123,-0.0087501770092,-0.00240024449674,-0.000227765955303,-0.000553046751989,6.22331540356e-05,0.999999819194,0.0,0.0,0.0,0.0,0.0,0.0
1609054419759082556,210,1609054419759082556,0.0221935594801,-0.00761067345979,-0.000634781148293,-0.00010091585818,-0.000257445405049,-4.2842974097e-05,0.999999960851,0.0,0.0,0.0,0.0,0.0,0.0
1609054419869924068,211,1609054419869924068,0.0354908722142,-0.0223144683165,-0.000127567465154,-0.000132828087165,7.58454989364e-05,-5.02021124189e-05,0.999999987042,0.0,0.0,0.0,0.0,0.0,0.0
1609054419963737488,212,1609054419963737488,0.0341759185034,-0.0137106481896,-0.00167710212404,0.000240395697062,0.000387700706217,3.43472749667e-05,0.999999895359,0.0,0.0,0.0,0.0,0.0,0.0
1609054420058952332,213,1609054420058952332,0.0257497376717,-0.0137899489786,-0.00228401135771,4.4733367317e-05,-0.00036309653435,3.62838783952e-05,0.999999932422,0.0,0.0,0.0,0.0,0.0,0.0
1609054420170028448,214,1609054420170028448,0.0284642962345,-0.00939448523457,-0.00102061492726,2.20668827228e-05,-0.000217908626175,8.39347599406e-05,0.999999972492,0.0,0.0,0.0,0.0,0.0,0.0
1609054420263888836,215,1609054420263888836,0.0331286590762,-0.00585030847761,0.000521187014954,-2.84890556129e-05,-0.00010725675338,-0.000176664151231,0.999999978237,0.0,0.0,0.0,0.0,0.0,0.0
1609054420359045267,216,1609054420359045267,0.0286946337783,-0.010005663357,-9.55663432816e-05,-5.42377557104e-05,9.25152408629e-05,-1.89312271457e-05,0.99999999407,0.0,0.0,0.0,0.0,0.0,0.0
1609054420469975233,217,1609054420469975233,0.0326237794612,-0.00532450312005,-0.000533026813176,-2.16998319373e-05,-9.38601833019e-05,-7.31689339732e-05,0.999999992683,0.0,0.0,0.0,0.0,0.0,0.0
1609054420563678026,218,1609054420563678026,0.021637575513,-0.0139305192749,-0.000700353379085,0.00014596069381,-0.000671218240326,-0.000304627954727,0.999999717682,0.0,0.0,0.0,0.0,0.0,0.0
1609054420658852339,219,1609054420658852339,0.0292446523451,-0.00689887146691,-0.00178592504219,-0.000201584683026,0.000222113132273,-4.2526638856e-05,0.99999995411,0.0,0.0,0.0,0.0,0.0,0.0
1609054420770562887,220,1609054420770562887,0.0224197459689,-0.0135742771239,-0.00071632408312,0.000122009602268,-1.17849180065e-05,-3.51956085577e-05,0.999999991868,0.0,0.0,0.0,0.0,0.0,0.0
1609054420864519835,221,1609054420864519835,0.0225744128987,-0.0152179279098,-0.000950809839001,-3.24868641437e-05,-0.000382435267344,3.44896409115e-05,0.999999925749,0.0,0.0,0.0,0.0,0.0,0.0
1609054420959661722,222,1609054420959661722,0.024595166804,-0.014927065216,-0.00159663626461,-0.000191456618891,-3.24863482202e-05,-5.56904269262e-05,0.999999979594,0.0,0.0,0.0,0.0,0.0,0.0
1609054421070539713,223,1609054421070539713,0.0246157737981,-0.0129807402252,-0.00113634853631,5.83239572408e-05,-0.000187456132314,1.81875524858e-05,0.999999980564,0.0,0.0,0.0,0.0,0.0,0.0
1609054421165136337,224,1609054421165136337,0.0337890223228,-0.0121403129987,-0.00140753618447,-0.000192497585796,0.000232960833136,-0.000181597316208,0.999999937848,0.0,0.0,0.0,0.0,0.0,0.0
1609054421259689093,225,1609054421259689093,0.0235357805671,-0.00809605564037,0.000257992514372,-0.000230360990292,-0.000743434186596,-0.000101125212638,0.999999692006,0.0,0.0,0.0,0.0,0.0,0.0
1609054421370332003,226,1609054421370332003,0.0158315378503,-0.017355302919,-0.000413565220967,0.000128344343225,-0.000471097238696,0.000243621386317,0.999999851122,0.0,0.0,0.0,0.0,0.0,0.0
1609054421464591265,227,1609054421464591265,0.0244411809911,-0.00618205858338,0.000773952251437,-0.000237460466875,-9.62189550231e-05,5.33934415141e-05,0.999999965752,0.0,0.0,0.0,0.0,0.0,0.0
1609054421559391737,228,1609054421559391737,0.0284040725522,-0.0184149099785,-0.00126182494538,0.000106804238315,0.000493846378223,-7.84759779942e-05,0.999999869275,0.0,0.0,0.0,0.0,0.0,0.0
1609054421670470476,229,1609054421670470476,0.0330364040294,-0.0122809499821,-0.00145668720856,-1.86252033571e-05,0.000152329655899,-0.000124043482467,0.999999980531,0.0,0.0,0.0,0.0,0.0,0.0
1609054421764627934,230,1609054421764627934,0.0244815237303,-0.00975866649407,-0.000514065237912,0.000160635986937,-4.52130515899e-05,-7.48048758664e-05,0.999999983278,0.0,0.0,0.0,0.0,0.0,0.0
1609054421859828711,231,1609054421859828711,0.0186941648961,-0.0147887216866,-0.000801817698538,0.000142392557559,-0.000220468911958,5.98636502364e-05,0.999999963767,0.0,0.0,0.0,0.0,0.0,0.0
1609054421970602274,232,1609054421970602274,0.0262410322859,-0.0106538401555,-0.00263500493369,-0.00013802484202,0.000405993690381,5.02801540569e-06,0.999999908046,0.0,0.0,0.0,0.0,0.0,0.0
1609054422064452410,233,1609054422064452410,0.0299316166537,-0.00817619950688,-0.000809167730728,-0.00035506396152,-0.000212881881102,-0.000161749855373,0.999999901224,0.0,0.0,0.0,0.0,0.0,0.0
1609054422159576654,234,1609054422159576654,0.0294112801513,-0.0149624331584,-0.00263470739632,-0.000111749545619,0.000250445488537,4.47890435492e-05,0.999999961391,0.0,0.0,0.0,0.0,0.0,0.0
1609054422270252705,235,1609054422270252705,0.0292740049297,-0.0164218933711,-0.000651257451905,0.000217198995445,0.000169640705756,0.000104461266068,0.999999956567,0.0,0.0,0.0,0.0,0.0,0.0
1609054422364330292,236,1609054422364330292,0.0194656872126,-0.0150875593363,-0.00155131079548,-0.000330105994706,-0.000229380402869,-0.000197087896595,0.999999899785,0.0,0.0,0.0,0.0,0.0,0.0
1609054422459209919,237,1609054422459209919,0.0252791998293,-0.0153000260569,0.000175678010695,9.67688811264e-05,0.00021053237165,-5.28146592185e-05,0.999999971761,0.0,0.0,0.0,0.0,0.0,0.0
1609054422570088387,238,1609054422570088387,0.0242827053626,-0.00878643900501,0.000129818840602,-0.000160321367346,-0.000283704806522,-0.000142606374055,0.999999936736,0.0,0.0,0.0,0.0,0.0,0.0
1609054422664035797,239,1609054422664035797,0.0267442229107,-0.0177540298495,-0.000551582859292,0.000174841858208,0.000128702093102,0.000165624213038,0.999999962717,0.0,0.0,0.0,0.0,0.0,0.0
1609054422759145975,240,1609054422759145975,0.0279997911101,-0.0266316371261,-0.00161576929194,0.000310990567476,0.000118048866378,7.41868473776e-05,0.999999941923,0.0,0.0,0.0,0.0,0.0,0.0
1609054422870306253,241,1609054422870306253,0.0256616139608,-0.0185905802098,-0.00154441443374,-0.000377289002855,-0.000140122459348,-2.07688487277e-06,0.999999919007,0.0,0.0,0.0,0.0,0.0,0.0
1609054422964282036,242,1609054422964282036,0.036563605421,-0.0167859725168,-0.00160794502251,-0.000281434999762,9.2950293681e-05,-0.000116133697355,0.999999949334,0.0,0.0,0.0,0.0,0.0,0.0
1609054423059458971,243,1609054423059458971,0.0244317798053,-0.0107660752013,-0.00204957238366,0.000164963093847,0.000363304137251,8.08100640257e-05,0.999999917133,0.0,0.0,0.0,0.0,0.0,0.0
1609054423170310259,244,1609054423170310259,0.0230160854788,-0.0220937112082,-0.00113454516191,0.000215675071272,-0.000165684571429,-4.25123804875e-05,0.999999962113,0.0,0.0,0.0,0.0,0.0,0.0
1609054423264266491,245,1609054423264266491,0.0261997252942,-0.00623030354654,-0.00112568273226,5.73143120333e-05,0.000322669923363,0.000104098810747,0.999999940881,0.0,0.0,0.0,0.0,0.0,0.0
1609054423359496355,246,1609054423359496355,0.0218381430076,-0.0205235250813,0.00113291252652,4.5944143108e-05,-0.000478199013245,0.00011143482187,0.999999878398,0.0,0.0,0.0,0.0,0.0,0.0
1609054423470298767,247,1609054423470298767,0.035380418511,-0.00910776000076,-0.000133384073114,8.32829997527e-05,-6.21029737227e-05,-0.000101749029271,0.999999989427,0.0,0.0,0.0,0.0,0.0,0.0
1609054423564407110,248,1609054423564407110,0.0243704382264,-0.0240518475126,-0.000586701642609,-2.8575653896e-05,-0.000299524719229,4.18717385884e-05,0.999999953857,0.0,0.0,0.0,0.0,0.0,0.0
1609054423659315348,249,1609054423659315348,0.028515232942,-0.0156894577998,-0.00243385495977,-7.86009403095e-05,0.000274893608393,-6.88671646127e-05,0.999999956756,0.0,0.0,0.0,0.0,0.0,0.0
1609054423770085812,250,1609054423770085812,0.0280583970539,-0.0287920583752,-0.000513623209409,0.000226588747582,-0.000464829092963,-8.72921325847e-05,0.999999862486,0.0,0.0,0.0,0.0,0.0,0.0
1609054423863925219,251,1609054423863925219,0.0222860420653,-0.00707143860494,-0.00177100409567,-6.32432523931e-06,0.000494915815911,2.75039197225e-06,0.999999877505,0.0,0.0,0.0,0.0,0.0,0.0
1609054423959342003,252,1609054423959342003,0.0316055831758,-0.00488684587986,-0.00314212494088,-0.000377555261986,0.000335888782116,8.01301125332e-05,0.999999869105,0.0,0.0,0.0,0.0,0.0,0.0
1609054424069988251,253,1609054424069988251,0.0313624403465,-0.0268782745884,-0.0017466902385,3.61849607386e-05,-0.0001731430689,-0.000105277065724,0.999999978814,0.0,0.0,0.0,0.0,0.0,0.0
1609054424163917303,254,1609054424163917303,0.0277979410547,-0.0163660186896,-0.000235123486808,0.000128612883388,-3.60783938167e-05,-0.000129302879446,0.999999982719,0.0,0.0,0.0,0.0,0.0,0.0
1609054424259054899,255,1609054424259054899,0.0290508955468,-0.018522652764,-0.00100456957415,-0.000300372037461,3.10601566922e-06,-0.000210902279008,0.999999932643,0.0,0.0,0.0,0.0,0.0,0.0
1609054424370056152,256,1609054424370056152,0.0272556285212,-0.0181857637118,0.000250800730453,-0.000256946888891,-7.71230424701e-05,-0.000125056541642,0.999999956195,0.0,0.0,0.0,0.0,0.0,0.0
1609054424464001179,257,1609054424464001179,0.0337933668646,-0.0250500025026,-0.000297624870816,0.000248398386182,0.000132750647279,5.25522394706e-05,0.999999958957,0.0,0.0,0.0,0.0,0.0,0.0
1609054424559176922,258,1609054424559176922,0.028455490925,-0.0262935165182,-0.00188530859811,0.000110766504377,-0.000101349816157,1.38178422643e-05,0.999999988634,0.0,0.0,0.0,0.0,0.0,0.0
1609054424670102119,259,1609054424670102119,0.0222019760405,-0.0168832708399,-4.24134289344e-05,-0.00023741421273,-0.000274651097426,-0.00014403596874,0.999999923727,0.0,0.0,0.0,0.0,0.0,0.0
1609054424764034748,260,1609054424764034748,0.0285192493719,-0.00689967544811,-0.000565073489052,0.0003868359916,-5.97998747198e-05,0.00011408528761,0.999999916883,0.0,0.0,0.0,0.0,0.0,0.0
1609054424859049320,261,1609054424859049320,0.0282544255304,-0.0188539647094,-0.00111331732626,-0.000103325639361,5.14848425325e-05,-5.00012727812e-05,0.999999992086,0.0,0.0,0.0,0.0,0.0,0.0
1609054424970034122,262,1609054424970034122,0.0307727051684,-0.00963741059071,-0.000977501728149,-0.000222997879309,-0.000311127653493,-3.2558774842e-05,0.999999926206,0.0,0.0,0.0,0.0,0.0,0.0
1609054425063878298,263,1609054425063878298,0.0301754216247,-0.011064847108,0.000364831357962,-0.000101602739913,-0.000460585262476,9.74484254285e-05,0.999999884021,0.0,0.0,0.0,0.0,0.0,0.0
1609054425159103155,264,1609054425159103155,0.0287689730709,-0.0292823633075,-0.00214430729495,0.000207347605312,0.000122084677271,0.000211524760011,0.99999994868,0.0,0.0,0.0,0.0,0.0,0.0
1609054425270055532,265,1609054425270055532,0.0284460221008,-0.00926363445638,-0.000941940016142,-2.746923249e-05,0.000406747427706,1.55798410627e-05,0.999999916779,0.0,0.0,0.0,0.0,0.0,0.0
1609054425363741636,266,1609054425363741636,0.0324003511417,-0.0087046364499,-0.00198370185905,-1.55077660593e-05,-0.000237394725424,6.25354198282e-05,0.999999969746,0.0,0.0,0.0,0.0,0.0,0.0
1609054425459070206,267,1609054425459070206,0.0322838083344,-0.00916147127647,-0.00187995769271,0.0001453832757,3.91866501438e-05,9.71160392754e-05,0.999999983948,0.0,0.0,0.0,0.0,0.0,0.0
1609054425570206404,268,1609054425570206404,0.0316174618608,-0.0130780551839,-0.0010875997145,0.000469116226594,0.000239223127017,-2.2522483928e-05,0.999999861097,0.0,0.0,0.0,0.0,0.0,0.0
1609054425663785696,269,1609054425663785696,0.0369677991797,-0.0103258916161,-0.00332670908359,-0.000392138936643,-3.91599382434e-05,5.6715542334e-06,0.99999992233,0.0,0.0,0.0,0.0,0.0,0.0
1609054425759110451,270,1609054425759110451,0.0286156039869,-0.0068357678863,-0.00271822856328,-4.91616916274e-05,0.000249083759149,-2.67682676645e-05,0.999999967412,0.0,0.0,0.0,0.0,0.0,0.0
1609054425870002985,271,1609054425870002985,0.027247456194,-0.017059941314,-0.00103431342534,5.96979113351e-06,-0.000117626408517,-6.51245646158e-05,0.999999990943,0.0,0.0,0.0,0.0,0.0,0.0
1609054425963974237,272,1609054425963974237,0.0264458782282,-0.0153992327995,-0.00158824358021,1.99112519043e-05,-0.00014461648306,8.67954851108e-05,0.999999985578,0.0,0.0,0.0,0.0,0.0,0.0
1609054426058978558,273,1609054426058978558,0.0213825571965,-0.00546293832996,-0.000232965310016,0.000339359983991,-0.000298255073494,7.59254970777e-05,0.999999895057,0.0,0.0,0.0,0.0,0.0,0.0
1609054426169999599,274,1609054426169999599,0.0346067916144,-0.0176424711893,-0.00135628095682,3.82188741922e-05,5.63569698533e-06,5.18030303284e-05,0.999999997912,0.0,0.0,0.0,0.0,0.0,0.0
1609054426263942003,275,1609054426263942003,0.0306990367757,-0.0191337254204,-0.000805147200178,-0.000295878582662,7.98100164444e-05,0.000141297588457,0.99999994306,0.0,0.0,0.0,0.0,0.0,0.0
1609054426359135628,276,1609054426359135628,0.0367691145203,-0.012655281054,-0.00166370838905,0.000352648066046,-1.24706941829e-05,-2.50983497841e-05,0.999999937427,0.0,0.0,0.0,0.0,0.0,0.0
1609054426469990492,277,1609054426469990492,0.0396258373275,-0.0118613700156,0.000331128461263,0.000126560958171,0.000403733341075,0.000134746608323,0.999999901412,0.0,0.0,0.0,0.0,0.0,0.0
1609054426563951492,278,1609054426563951492,0.0257580557441,-0.0111951343041,-0.00088781667834,-1.69957943156e-05,-2.48717327567e-05,-0.000227827531154,0.999999973593,0.0,0.0,0.0,0.0,0.0,0.0
1609054426658741951,279,1609054426658741951,0.0252076604813,-0.0142502456642,0.000510832705269,-0.000254664535822,-0.000531090516046,-4.01198547024e-05,0.999999825739,0.0,0.0,0.0,0.0,0.0,0.0
1609054426770044088,280,1609054426770044088,0.0261409351488,-0.0122367009603,-0.00176087500696,0.000185418490366,0.000217196218104,2.76953264656e-05,0.999999958839,0.0,0.0,0.0,0.0,0.0,0.0
1609054426863754034,281,1609054426863754034,0.025772417393,-0.0100005383415,3.78879326138e-05,6.93730050782e-05,0.000315765238805,8.3624086056e-05,0.999999944243,0.0,0.0,0.0,0.0,0.0,0.0
1609054426958931923,282,1609054426958931923,0.0224036551891,-0.0165168945394,-0.00187893329384,6.58723710828e-05,-0.000226125963244,3.14427436428e-06,0.999999972259,0.0,0.0,0.0,0.0,0.0,0.0
1609054427069769382,283,1609054427069769382,0.0327548317812,-0.0182563136671,-0.00234498688654,-0.000234521543133,5.26176683218e-05,4.72453221214e-05,0.999999969999,0.0,0.0,0.0,0.0,0.0,0.0
1609054427163532019,284,1609054427163532019,0.0209603854966,-0.00887148138063,-0.00199797021393,-0.00015689266057,6.55274957738e-05,-5.72504717529e-05,0.999999983906,0.0,0.0,0.0,0.0,0.0,0.0
1609054427258726835,285,1609054427258726835,0.0275159623417,-0.015089586258,5.81667859188e-05,6.68581097957e-05,-0.000189786518055,-1.88112932376e-05,0.999999979578,0.0,0.0,0.0,0.0,0.0,0.0
1609054427369786263,286,1609054427369786263,0.0208531273569,-0.00555961475431,-0.00072386441969,-0.000514656729254,-0.000239760219351,-0.000100638055587,0.999999833757,0.0,0.0,0.0,0.0,0.0,0.0
1609054427463493824,287,1609054427463493824,0.0327616970832,-0.0219740822822,-0.000714481244428,0.000376139869147,4.48415480364e-05,0.000121462004414,0.999999920877,0.0,0.0,0.0,0.0,0.0,0.0
1609054427558803320,288,1609054427558803320,0.0257221341694,-0.0114042237619,-0.00214476145571,0.000141210733804,0.000370740881157,-9.00816924573e-05,0.999999917248,0.0,0.0,0.0,0.0,0.0,0.0
1609054427669877291,289,1609054427669877291,0.0347262748289,-0.017223667809,-0.00142156224297,-0.000550733438592,0.000298476167239,-3.80157306917e-05,0.999999803079,0.0,0.0,0.0,0.0,0.0,0.0
1609054427763384342,290,1609054427763384342,0.0411527599405,-0.0162039874985,-8.45497534137e-05,-1.58389102347e-05,-3.43963644495e-05,-3.49995444774e-05,0.99999999867,0.0,0.0,0.0,0.0,0.0,0.0
1609054427859019041,291,1609054427859019041,0.016307847742,-0.0161136614246,-0.000826819341477,0.000130526457505,-0.000391482526048,0.000182001705571,0.99999989829,0.0,0.0,0.0,0.0,0.0,0.0
1609054427969795227,292,1609054427969795227,0.0288783359451,-0.0156155038904,-3.66113840964e-05,0.0001365095829,0.000227377266872,5.41176639193e-05,0.999999963368,0.0,0.0,0.0,0.0,0.0,0.0
1609054428064557314,293,1609054428064557314,0.0344131803044,-0.0130800541577,-0.00240245148346,-0.000176519953107,-4.02628621248e-05,1.55556728544e-05,0.999999983489,0.0,0.0,0.0,0.0,0.0,0.0
1609054428159039497,294,1609054428159039497,0.0300148778458,-0.0152885500023,-0.0015916435834,0.0001665140202,0.000697452561591,0.000112736468816,0.999999736561,0.0,0.0,0.0,0.0,0.0,0.0
1609054428269650459,295,1609054428269650459,0.0343359655214,0.00177140861279,-0.00135412538505,0.000116221904194,0.000264501799457,-0.000149216316921,0.999999947133,0.0,0.0,0.0,0.0,0.0,0.0
1609054428363430500,296,1609054428363430500,0.0267587912779,-0.0204686116938,-0.000623602523692,0.00032016161036,-0.00019590443429,-5.8796874494e-05,0.99999992783,0.0,0.0,0.0,0.0,0.0,0.0
1609054428458909988,297,1609054428458909988,0.0347744032234,-0.0264039150479,-0.00289893518913,-2.99795604697e-05,2.96021192603e-05,3.04534106953e-06,0.999999999108,0.0,0.0,0.0,0.0,0.0,0.0
1609054428569565773,298,1609054428569565773,0.0168797138181,-0.0100009255688,-0.00170139539781,0.000204782883137,-0.000325316559957,-0.000215135371913,0.999999902975,0.0,0.0,0.0,0.0,0.0,0.0
1609054428663282871,299,1609054428663282871,0.0282785624217,-0.00513086339138,-0.00126853111725,-0.000120467193493,0.000310840215096,-2.92950959145e-05,0.999999944004,0.0,0.0,0.0,0.0,0.0,0.0
1609054428758571625,300,1609054428758571625,0.0299530451453,-0.0163817096258,0.000146553983849,0.000238935930404,-0.000176869314437,-0.000109648114841,0.999999949802,0.0,0.0,0.0,0.0,0.0,0.0
1609054428869471788,301,1609054428869471788,0.0271918495491,-0.0136672229457,-0.00121893943419,9.64026348279e-05,-3.23162506336e-06,-5.27976628056e-05,0.999999993954,0.0,0.0,0.0,0.0,0.0,0.0
1609054428963313580,302,1609054428963313580,0.0321466189049,-0.0064174026163,-0.00174648395452,-0.000156632226342,8.26922224536e-05,4.89099713563e-05,0.999999983118,0.0,0.0,0.0,0.0,0.0,0.0
1609054429058798790,303,1609054429058798790,0.0268933428566,-0.00806688620555,-0.00128992343628,7.23732306688e-05,0.000446741089632,-0.000181452665412,0.999999881129,0.0,0.0,0.0,0.0,0.0,0.0
1609054429169764280,304,1609054429169764280,0.0247288135442,-0.0188318716812,-0.000487012008988,-0.000137250857437,-0.00046617553231,5.9848384474e-05,0.99999988013,0.0,0.0,0.0,0.0,0.0,0.0
1609054429263825178,305,1609054429263825178,0.0306623210812,-0.0156895356559,-0.00168335036351,2.62682401889e-05,-3.0421875963e-05,7.45614714523e-05,0.999999996412,0.0,0.0,0.0,0.0,0.0,0.0
1609054429358830214,306,1609054429358830214,0.0264111544263,-0.029935350453,-0.00187865042863,0.000161764000062,0.000398989028971,0.000132569387111,0.999999898532,0.0,0.0,0.0,0.0,0.0,0.0
1609054429469820499,307,1609054429469820499,0.028965116948,-0.0157451544957,-0.00115109569168,3.93245519944e-05,7.29819145362e-05,2.43704099004e-06,0.99999999656,0.0,0.0,0.0,0.0,0.0,0.0
1609054429563561440,308,1609054429563561440,0.0205159279957,-0.022551278067,-0.00223951241768,0.000350981701111,-0.000453338282044,2.27210878504e-05,0.99999983539,0.0,0.0,0.0,0.0,0.0,0.0
1609054429658920050,309,1609054429658920050,0.032291071065,-0.0173651499258,-0.00134126018785,4.56260462007e-05,0.000225258698823,0.000155058156911,0.999999961567,0.0,0.0,0.0,0.0,0.0,0.0
1609054429769555569,310,1609054429769555569,0.0244088753328,-0.0210898828548,-0.000179211006592,0.000281547114061,-4.87451523898e-05,2.89598337422e-05,0.999999958758,0.0,0.0,0.0,0.0,0.0,0.0
1609054429863430977,311,1609054429863430977,0.0283932620091,-0.0211404001064,-0.00228056349259,5.57424021442e-05,-4.16857757542e-05,-5.19149296871e-05,0.99999999623,0.0,0.0,0.0,0.0,0.0,0.0
1609054429959448576,312,1609054429959448576,0.0244027085669,-0.00836805785224,-0.00138324498383,-0.000169451829597,0.000125384920737,-7.30675496699e-05,0.999999975113,0.0,0.0,0.0,0.0,0.0,0.0
1609054430070038319,313,1609054430070038319,0.0226647243646,-0.0259741091211,-0.00142134715224,5.29935372643e-05,-0.000157363484729,9.44623578267e-05,0.999999981752,0.0,0.0,0.0,0.0,0.0,0.0
1609054430163857222,314,1609054430163857222,0.0327251357843,-0.0203841081603,-0.00125964011848,-0.000181138876107,-0.000271508694314,3.55523000161e-05,0.999999946104,0.0,0.0,0.0,0.0,0.0,0.0
1609054430258804560,315,1609054430258804560,0.0350640838602,-0.0134980188636,-0.000678851544527,6.97621496214e-05,-0.000228656893499,2.52355494356e-05,0.999999971106,0.0,0.0,0.0,0.0,0.0,0.0
1609054430369770527,316,1609054430369770527,0.0270546013513,-0.0194916933052,-0.00252284795752,0.000173789412467,-0.000252228438295,6.25993136311e-05,0.999999951129,0.0,0.0,0.0,0.0,0.0,0.0
1609054430463466406,317,1609054430463466406,0.0286941048996,-0.0175122664846,-0.000228955049763,-0.000128772791288,0.000386793135286,2.26466377236e-05,0.999999916647,0.0,0.0,0.0,0.0,0.0,0.0
1609054430558634520,318,1609054430558634520,0.0255850271946,-0.0101589816449,-0.00126664583181,-0.000120487445904,-0.000107148644868,-2.21870002969e-05,0.999999986754,0.0,0.0,0.0,0.0,0.0,0.0
1609054430669348001,319,1609054430669348001,0.0273109460648,-0.00926907697621,-0.00298427263164,5.88493021697e-05,-6.65580400713e-05,-4.21469460715e-05,0.999999995165,0.0,0.0,0.0,0.0,0.0,0.0
1609054430763450146,320,1609054430763450146,0.0317736801343,-0.00969410462939,-0.00288545629631,0.000131416404037,5.24278376377e-05,-6.85280311919e-05,0.999999987642,0.0,0.0,0.0,0.0,0.0,0.0
1609054430858603716,321,1609054430858603716,0.0269495292801,-0.02552772909,-0.00107041199795,0.000354902175131,-1.59183301774e-05,1.08565277553e-05,0.999999936836,0.0,0.0,0.0,0.0,0.0,0.0
1609054430969798326,322,1609054430969798326,0.0335638959445,-0.0167051735737,-0.00351740091301,-2.05733259601e-05,0.000195949865094,-2.43750469827e-05,0.999999980293,0.0,0.0,0.0,0.0,0.0,0.0
1609054431063582659,323,1609054431063582659,0.0342428831963,-0.0158285254866,-0.00279367287727,-8.13110977513e-05,0.000274175599347,-7.36209698169e-05,0.999999956398,0.0,0.0,0.0,0.0,0.0,0.0
1609054431158975840,324,1609054431158975840,0.0277236240538,-0.023862294017,0.000937715557793,5.86075903982e-05,-8.85058587163e-05,-0.000108593437832,0.999999988469,0.0,0.0,0.0,0.0,0.0,0.0
1609054431270025015,325,1609054431270025015,0.0285419500586,-0.00862163705761,-0.00247265895838,-7.24754088997e-05,0.000363679600415,0.000132971304938,0.999999922401,0.0,0.0,0.0,0.0,0.0,0.0
1609054431363705635,326,1609054431363705635,0.0207939917849,-0.0164009944357,-0.00129767755135,-0.00011402710077,-0.000176710970629,-3.63869580587e-05,0.999999977223,0.0,0.0,0.0,0.0,0.0,0.0
1609054431459053516,327,1609054431459053516,0.0303521655067,-0.00642110013038,-0.00209385769212,-1.28510189826e-05,0.000362821903949,-2.70481357876e-05,0.999999933731,0.0,0.0,0.0,0.0,0.0,0.0
1609054431570143461,328,1609054431570143461,0.0355289079271,-0.0211479979439,-0.00116844036871,0.000108181364472,1.91614204306e-05,-0.000103156654032,0.999999988644,0.0,0.0,0.0,0.0,0.0,0.0
1609054431663699389,329,1609054431663699389,0.0277195945753,-0.0138562306399,-0.0029958321556,-3.37161638197e-05,-2.51649009528e-07,0.000106060773357,0.999999993807,0.0,0.0,0.0,0.0,0.0,0.0
1609054431758923292,330,1609054431758923292,0.0334628445293,-0.0256176799385,-0.00174356980489,0.000153199483333,0.000239277613718,3.73788111879e-05,0.999999958939,0.0,0.0,0.0,0.0,0.0,0.0
1609054431869878054,331,1609054431869878054,0.042992086381,-0.0100982258229,0.000388708156939,0.000226604023379,-0.000243747403498,-9.85537452566e-05,0.999999939762,0.0,0.0,0.0,0.0,0.0,0.0
1609054431963661671,332,1609054431963661671,0.0320563074539,-0.00757509222916,-0.00211847177656,-0.000246936904737,-0.000627099447976,-3.35913748039e-05,0.99999977232,0.0,0.0,0.0,0.0,0.0,0.0
1609054432058907032,333,1609054432058907032,0.0272113214597,-0.00467382041298,-0.000186481404799,0.000176970108959,3.37406895812e-05,-0.000120615900183,0.999999976497,0.0,0.0,0.0,0.0,0.0,0.0
1609054432169985294,334,1609054432169985294,0.019928327227,-0.0172900631776,-0.00376268180066,-0.000169024603405,0.000187369929574,-3.96294136153e-05,0.999999967376,0.0,0.0,0.0,0.0,0.0,0.0
1609054432263644457,335,1609054432263644457,0.0378288651238,-0.0211522033099,-0.000398574970616,2.98749191084e-06,0.000213513411106,-0.000118736702548,0.999999970152,0.0,0.0,0.0,0.0,0.0,0.0
1609054432359347343,336,1609054432359347343,0.0276339504393,-0.0203638813462,-0.00165114038546,0.000148548744836,-0.00047911313933,0.000133220184154,0.999999865318,0.0,0.0,0.0,0.0,0.0,0.0
1609054432469973326,337,1609054432469973326,0.0313984249551,-0.016703130168,-0.00369978442994,-0.000309219501143,-0.000185318805983,5.50009149472e-06,0.999999935005,0.0,0.0,0.0,0.0,0.0,0.0
1609054432563478470,338,1609054432563478470,0.0360479124008,-0.0198751657004,-0.000915582027956,-0.00010375887842,-0.000270467887111,1.24232760806e-05,0.999999957963,0.0,0.0,0.0,0.0,0.0,0.0
1609054432658759356,339,1609054432658759356,0.0336591041997,-0.0148589176809,-0.000764432909933,-6.68491804105e-05,-0.00014729326892,0.000126530542524,0.999999978912,0.0,0.0,0.0,0.0,0.0,0.0
1609054432769861221,340,1609054432769861221,0.0290127535087,-0.0192149087067,-0.00136639082866,0.000205857033081,7.12720831572e-05,1.05319456196e-05,0.999999976216,0.0,0.0,0.0,0.0,0.0,0.0
1609054432863534212,341,1609054432863534212,0.0330851966643,-0.0114227978448,-0.00462234973099,-0.000220143233348,0.000328837781522,0.000126655134338,0.99999991368,0.0,0.0,0.0,0.0,0.0,0.0
1609054432958740473,342,1609054432958740473,0.0368640780205,-0.0202408623086,-0.000703496564794,0.000240120736044,-0.000161558838076,1.245783775e-05,0.999999958042,0.0,0.0,0.0,0.0,0.0,0.0
1609054433069976807,343,1609054433069976807,0.0369280943595,-0.0174190015743,-0.00253337544833,-8.41935580396e-05,8.77605570552e-05,-0.000117011773028,0.999999985758,0.0,0.0,0.0,0.0,0.0,0.0
1609054433163552999,344,1609054433163552999,0.0346175137535,-0.0254612709027,0.0003155472218,0.000407648507077,0.000477101381464,-0.000116877689845,0.999999796268,0.0,0.0,0.0,0.0,0.0,0.0
1609054433258788586,345,1609054433258788586,0.0186992430929,-0.011750164895,-0.000147958949282,0.00011118281042,-0.00046481014012,3.64024849132e-05,0.999999885132,0.0,0.0,0.0,0.0,0.0,0.0
1609054433370133162,346,1609054433370133162,0.0252263234661,-0.016136281417,-0.00244625704258,5.30822508884e-05,-0.000177377466415,0.000128347250091,0.999999974623,0.0,0.0,0.0,0.0,0.0,0.0
1609054433463714838,347,1609054433463714838,0.0315618481106,-0.0142685578833,-0.00114175046633,-3.89431593987e-05,4.22484192393e-05,-9.24019847674e-06,0.999999998306,0.0,0.0,0.0,0.0,0.0,0.0
1609054433558340073,348,1609054433558340073,0.0376436841584,-0.027639228319,-0.000849869152713,8.38782330239e-05,0.000177593320826,0.000108148638086,0.999999974864,0.0,0.0,0.0,0.0,0.0,0.0
1609054433669966698,349,1609054433669966698,0.0389701004472,-0.0176866309695,-0.000699713567753,2.391986309e-06,-4.06472668479e-05,0.000129056788718,0.999999990843,0.0,0.0,0.0,0.0,0.0,0.0
1609054433763217449,350,1609054433763217449,0.0338139152414,-0.00960941407481,-0.000580471717858,-0.000125872811187,-5.53509204206e-05,-7.8696086614e-05,0.999999987449,0.0,0.0,0.0,0.0,0.0,0.0
1609054433858493805,351,1609054433858493805,0.0310293949591,-0.0137447963421,-0.0011077007379,-0.000114091581279,-0.000169920306806,-2.21718235955e-06,0.999999979052,0.0,0.0,0.0,0.0,0.0,0.0
1609054433969532728,352,1609054433969532728,0.0300386233145,-0.016354834337,-0.0031377061569,0.000240669317721,0.000244408948546,5.74392960378e-05,0.999999939521,0.0,0.0,0.0,0.0,0.0,0.0
1609054434063239813,353,1609054434063239813,0.0250221147456,-0.0137089314802,-0.00160354501535,-0.000135644596365,0.000102118137226,0.000273992853765,0.99999994805,0.0,0.0,0.0,0.0,0.0,0.0
1609054434158254862,354,1609054434158254862,0.03079252614,-0.000820623734374,-2.37408330442e-05,-0.000154622443513,0.000145347468639,-1.51765389003e-05,0.999999977367,0.0,0.0,0.0,0.0,0.0,0.0
1609054434269777775,355,1609054434269777775,0.0295408548691,-0.0229828846076,-0.00166342040389,9.57923961229e-05,-0.000253285716357,0.000243779093444,0.99999993362,0.0,0.0,0.0,0.0,0.0,0.0
1609054434363345623,356,1609054434363345623,0.0289385888224,-0.0186398701437,-0.00116933539748,-7.16284224472e-05,-0.000200979374709,0.000113058577288,0.999999970847,0.0,0.0,0.0,0.0,0.0,0.0
1609054434458718300,357,1609054434458718300,0.0310407923036,-0.0128862823346,-0.00186107632885,0.000364720304211,0.000100852751663,4.64967220729e-05,0.999999927322,0.0,0.0,0.0,0.0,0.0,0.0
1609054434570358276,358,1609054434570358276,0.0390065169935,-0.0138791648237,-0.00122816250114,-5.60858347757e-05,3.81832767995e-05,-7.18482278207e-06,0.999999997672,0.0,0.0,0.0,0.0,0.0,0.0
1609054434663195610,359,1609054434663195610,0.0298715415169,-0.00997465111197,-0.00155929964803,0.000274935635448,-9.18107205531e-05,5.64018982409e-05,0.999999956399,0.0,0.0,0.0,0.0,0.0,0.0
1609054434758611441,360,1609054434758611441,0.0286904509367,-0.0194927598302,-0.000384148297548,-2.54844817839e-05,3.9628316354e-05,7.45799546097e-05,0.999999996108,0.0,0.0,0.0,0.0,0.0,0.0
1609054434869754314,361,1609054434869754314,0.0292405460523,-0.00553831596827,-0.0010504294149,-0.000308595602949,-0.000134167143856,-0.000133249918416,0.999999934506,0.0,0.0,0.0,0.0,0.0,0.0
1609054434963961124,362,1609054434963961124,0.0293902818078,-0.0226304442814,-0.00165313296057,-0.000100035396902,-4.87725213468e-05,9.38400987534e-05,0.999999989404,0.0,0.0,0.0,0.0,0.0,0.0
1609054435058277130,363,1609054435058277130,0.0350430477594,-0.00670358306678,-0.00209452316238,7.99222944362e-05,0.000132171013294,-2.82212950442e-05,0.999999987673,0.0,0.0,0.0,0.0,0.0,0.0
