%time,field.header.seq,field.header.stamp,field.pose.pose.position.x,field.pose.pose.position.y,field.pose.pose.position.z,field.pose.pose.orientation.x,field.pose.pose.orientation.y,field.pose.pose.orientation.z,field.pose.pose.orientation.w,field.twist.twist.linear.x,field.twist.twist.linear.y,field.twist.twist.linear.z,field.twist.twist.angular.x,field.twist.twist.angular.y,field.twist.twist.angular.z
1609054403642928839,49,1609054403642928839,-0.006821856386,0.00524012964405,0.0233378628398,0.000171749813464,-0.000302878254405,0.000307112310964,0.999999892224,0.0,0.0,0.0,0.0,0.0,0.0
1609054403736700773,50,1609054403736700773,-0.00770538859755,0.0070077652653,0.0226578447033,-1.67445999376e-05,-0.000134903617757,0.000277478664193,0.999999952263,0.0,0.0,0.0,0.0,0.0,0.0
1609054403849075079,51,1609054403849075079,-0.00407697783148,0.0060306361356,0.0275394644945,-0.00103771024071,-6.95459203189e-05,0.000220674950983,0.999999434812,0.0,0.0,0.0,0.0,0.0,0.0
1609054403942874432,52,1609054403942874432,-0.00540799905688,0.0116906741903,0.0258459713687,-0.000835360954756,-0.000244038724912,0.000188538412912,0.999999603535,0.0,0.0,0.0,0.0,0.0,0.0
1609054404036915779,53,1609054404036915779,-0.00257303454004,0.00728181853635,0.0450640137921,-0.0013896511735,0.000164261068257,0.000319069239742,0.999998970041,0.0,0.0,0.0,0.0,0.0,0.0
1609054404150105715,54,1609054404150105715,-7.63999688122e-05,0.00383545956022,0.0325436284852,0.000697242659141,0.000161407566333,0.000227052187664,0.999999718124,0.0,0.0,0.0,0.0,0.0,0.0
1609054404243243217,55,1609054404243243217,-0.000767532860247,0.0089804839185,0.0249218948955,-0.00136029498875,-0.000132303086683,7.08432313726e-05,0.999999063537,0.0,0.0,0.0,0.0,0.0,0.0
1609054404337178946,56,1609054404337178946,-0.00378365008645,0.0100854371803,0.0421208351172,0.000447222966743,-0.000209052900627,0.0004772418986,0.999999764264,0.0,0.0,0.0,0.0,0.0,0.0
1609054404449433565,57,1609054404449433565,-0.00788050602437,0.00791822208138,0.0340341022933,-0.000704733680106,-6.08024801511e-05,0.000411165195847,0.999999665298,0.0,0.0,0.0,0.0,0.0,0.0
1609054404543116331,58,1609054404543116331,-0.00370611069978,0.00719135108294,0.028112532336,0.000286678740794,0.000326444950243,0.000429295088071,0.999999813477,0.0,0.0,0.0,0.0,0.0,0.0
1609054404636799574,59,1609054404636799574,-0.00391569892579,0.00401482690318,0.0216682714466,0.000377452439012,-2.08312746836e-05,0.000373516332183,0.999999858791,0.0,0.0,0.0,0.0,0.0,0.0
1609054404749238968,60,1609054404749238968,0.00449616719547,0.0049706960627,0.0236165810545,-0.00118495690855,-0.000315677004808,0.000364906628505,0.999999181534,0.0,0.0,0.0,0.0,0.0,0.0
1609054404843033791,61,1609054404843033791,-0.0155539690756,0.00672435699546,0.0479963160731,-0.000205532214514,-0.000144532733506,0.000515136315651,0.999999835751,0.0,0.0,0.0,0.0,0.0,0.0
1609054404936570168,62,1609054404936570168,-0.00264083050353,0.00401815232014,0.0560881394836,-1.16210189956e-05,7.15777586588e-06,0.000249749514182,0.999999968719,0.0,0.0,0.0,0.0,0.0,0.0
1609054405049808264,63,1609054405049808264,-0.00108352409167,0.00757597680397,0.0170610358524,0.00036107314895,-0.000356152400438,0.000412620213212,0.999999786263,0.0,0.0,0.0,0.0,0.0,0.0
1609054405142791986,64,1609054405142791986,-0.00602109843315,0.00507006281989,0.0448316110752,-0.000199086487251,-0.000177914379201,3.23699156815e-05,0.999999963832,0.0,0.0,0.0,0.0,0.0,0.0
1609054405236661673,65,1609054405236661673,-0.00365584104144,0.010233674189,0.0385822734679,-2.8883133262e-05,-0.00016442798314,0.000246553539929,0.99999995567,0.0,0.0,0.0,0.0,0.0,0.0
1609054405349182606,66,1609054405349182606,-0.00404444662454,0.00725993003043,0.0195808611931,9.99138704484e-05,-0.000126779292371,0.000351030453452,0.999999925361,0.0,0.0,0.0,0.0,0.0,0.0
1609054405443023682,67,1609054405443023682,-0.00426531709046,0.00781989291014,0.0323498040703,0.000204347474016,0.00013344528863,0.000329675540232,0.999999915874,0.0,0.0,0.0,0.0,0.0,0.0
1609054405536836386,68,1609054405536836386,-0.013274966072,0.00585621887825,0.0234950642614,-0.00141074550664,0.000165844969229,0.000170343502049,0.999998976637,0.0,0.0,0.0,0.0,0.0,0.0
1609054405649254799,69,1609054405649254799,-0.00193845387856,0.00732451673547,0.021258852653,-0.000523657743152,-0.00027287358046,0.000343028301472,0.999999766827,0.0,0.0,0.0,0.0,0.0,0.0
1609054405742914438,70,1609054405742914438,-0.00438819471216,0.00739683459735,0.0389950252258,-0.000410285221194,0.00014750931231,0.000280518369207,0.999999865608,0.0,0.0,0.0,0.0,0.0,0.0
1609054405837143898,71,1609054405837143898,-0.00761335882935,0.00762105922508,0.0217352081437,-0.000373368582267,-7.76347308062e-05,0.000678826382819,0.999999696882,0.0,0.0,0.0,0.0,0.0,0.0
1609054405949679852,72,1609054405949679852,-0.00916504134938,0.00652577574921,0.0421244663602,-0.00084767635689,0.000123452173593,0.000281737343298,0.999999593414,0.0,0.0,0.0,0.0,0.0,0.0
1609054406043005228,73,1609054406043005228,-0.00152937875778,0.00417204216089,0.0446237760022,-0.000742759830865,6.53667861623e-05,0.000319794517266,0.999999670883,0.0,0.0,0.0,0.0,0.0,0.0
1609054406136668682,74,1609054406136668682,-0.00565694601846,0.006324740656,0.026138093916,0.000520411904267,-0.000358074756918,0.0004610117553,0.999999694211,0.0,0.0,0.0,0.0,0.0,0.0
1609054406249082327,75,1609054406249082327,-0.00310953688432,0.0103067072871,0.0322579233515,0.000547923501426,-3.36723920594e-05,0.000297449544346,0.999999805085,0.0,0.0,0.0,0.0,0.0,0.0
1609054406342812061,76,1609054406342812061,-0.00793260271367,0.00708693386981,0.0278788336488,-0.00104379407412,4.08625444718e-05,0.000234479600336,0.999999426922,0.0,0.0,0.0,0.0,0.0,0.0
1609054406438816786,77,1609054406438816786,-0.00547222489227,0.00668039902301,0.0185218648283,0.000712546261777,-0.000289304356463,0.000596641021435,0.9999995263,0.0,0.0,0.0,0.0,0.0,0.0
1609054406534782171,78,1609054406534782171,-0.00662987565962,0.00648209867989,0.0282961289796,-0.000520739520052,-0.000400783568591,0.000483964866499,0.99999966699,0.0,0.0,0.0,0.0,0.0,0.0
1609054406647861004,79,1609054406647861004,-0.0096732966076,0.00472050278575,0.0166938969142,-0.00183942696875,0.000274717993783,0.000204781955862,0.99999824955,0.0,0.0,0.0,0.0,0.0,0.0
1609054406741034746,80,1609054406741034746,-0.00256392282895,0.00753584025887,0.0215242420943,-0.000466619308218,0.000336561231582,0.000651966785098,0.999999621966,0.0,0.0,0.0,0.0,0.0,0.0
1609054406834969282,81,1609054406834969282,-0.00655119146006,0.00728019166066,0.0167212405112,0.000195407144082,-0.00038152419347,0.00060293613249,0.999999726362,0.0,0.0,0.0,0.0,0.0,0.0
1609054406947481871,82,1609054406947481871,-0.0109457004653,0.00810664667197,0.0491432102004,-0.000513163673848,2.28041669075e-05,0.00023209495602,0.999999841137,0.0,0.0,0.0,0.0,0.0,0.0
1609054407041418791,83,1609054407041418791,-0.00226265411295,0.00907359700891,0.0481987756664,0.000286581579182,-0.00053950755776,0.00021567218663,0.999999790144,0.0,0.0,0.0,0.0,0.0,0.0
1609054407135222673,84,1609054407135222673,-0.00784500380117,0.00651829421308,0.03898428046,-0.000211459056532,0.000180104885739,0.000191749417253,0.99999994304,0.0,0.0,0.0,0.0,0.0,0.0
1609054407247446299,85,1609054407247446299,-0.00579996295002,0.0106218401509,0.0401179088755,0.000443178614342,0.000322840101152,0.000576622711099,0.999999683437,0.0,0.0,0.0,0.0,0.0,0.0
1609054407341337442,86,1609054407341337442,-0.00101093628155,0.00593657860623,0.0191430944264,-0.00100949684738,-0.000370803896908,0.000577964978966,0.999999254688,0.0,0.0,0.0,0.0,0.0,0.0
1609054407435338259,87,1609054407435338259,0.000402098669879,0.00599465350005,0.0274522680285,0.00109178063668,0.000117457579651,0.000334163830679,0.999999341276,0.0,0.0,0.0,0.0,0.0,0.0
1609054407548107147,88,1609054407548107147,-0.0085722925622,0.00731017366084,0.0165664234601,-0.000740283937045,-0.000125078995931,0.000596979876936,0.999999539975,0.0,0.0,0.0,0.0,0.0,0.0
1609054407641697645,89,1609054407641697645,-0.00578073966658,0.00380245794336,0.0287596838864,0.000110303297234,-0.000181242149201,0.000350873926997,0.999999915936,0.0,0.0,0.0,0.0,0.0,0.0
1609054407735042572,90,1609054407735042572,-0.006018562505,0.00596831095648,0.0436374963762,0.000313647826512,0.000164421826176,0.00065668315654,0.999999721679,0.0,0.0,0.0,0.0,0.0,0.0
1609054407847457886,91,1609054407847457886,-0.0142562979403,0.00414947841059,0.0308527538436,-0.000205005466983,-3.83365296054e-05,0.000605499374575,0.999999794937,0.0,0.0,0.0,0.0,0.0,0.0
1609054407941180706,92,1609054407941180706,-0.00484154419805,0.00222123841331,0.0261329070409,-0.000993566434493,0.000425236016077,0.000708174319458,0.999999165244,0.0,0.0,0.0,0.0,0.0,0.0
1609054408035403967,93,1609054408035403967,0.00325144605011,0.00629392169128,0.0398422219053,-0.000591412010354,0.000104970196771,0.000725012193302,0.999999556785,0.0,0.0,0.0,0.0,0.0,0.0
1609054408147276640,94,1609054408147276640,-0.00409766747316,0.00582392726016,0.0291818795298,1.51951852913e-05,0.000176863904644,0.000486145048635,0.999999866076,0.0,0.0,0.0,0.0,0.0,0.0
1609054408240976572,95,1609054408240976572,-0.00258784825931,0.00972201768819,0.0256607090353,0.000389206824043,-1.67865270278e-05,0.000535024541976,0.999999780992,0.0,0.0,0.0,0.0,0.0,0.0
1609054408334965706,96,1609054408334965706,-0.00454725975487,0.00558338444565,0.040860169221,-0.0012771549684,-0.000167791353483,0.000440068315893,0.99999907353,0.0,0.0,0.0,0.0,0.0,0.0
1609054408447243690,97,1609054408447243690,-0.0112472709333,0.00365894535095,0.0255677200969,-0.000950273162535,-0.00048875508189,0.000452790326086,0.99999932654,0.0,0.0,0.0,0.0,0.0,0.0
1609054408541173935,98,1609054408541173935,-0.00379895887777,0.00426879949308,0.0228033538463,-0.000635076749111,-0.000170065428004,0.000552579566017,0.999999631205,0.0,0.0,0.0,0.0,0.0,0.0
1609054408634956360,99,1609054408634956360,-0.002866424292,0.0034321506422,0.0348887958475,-0.00117822268788,-0.000168655078634,0.000560676969495,0.999999134494,0.0,0.0,0.0,0.0,0.0,0.0
1609054408748120070,100,1609054408748120070,-0.0134132910651,0.00287141042457,0.0385682114196,-0.00197607369,0.000371412268745,0.000579700487002,0.999997810564,0.0,0.0,0.0,0.0,0.0,0.0
1609054408841223478,101,1609054408841223478,-0.00395639696882,0.00315847591839,0.0189548431193,0.000595813069617,-1.33680809777e-05,0.000636097077026,0.999999620104,0.0,0.0,0.0,0.0,0.0,0.0
1609054408934925318,102,1609054408934925318,-0.00576201617696,0.00493461031163,0.0343356106569,-0.000563509565431,-2.14174833145e-05,0.000598193680158,0.999999662081,0.0,0.0,0.0,0.0,0.0,0.0
1609054409047490835,103,1609054409047490835,-0.00275248180249,0.00616160810299,0.0244442469332,-0.000552579993018,-0.000292203732725,0.000501328230115,0.999999678971,0.0,0.0,0.0,0.0,0.0,0.0
1609054409141245842,104,1609054409141245842,-0.00774321703724,0.00284283274287,0.00982474209651,0.00165203037825,-8.65255202017e-05,0.000659250965628,0.999998414347,0.0,0.0,0.0,0.0,0.0,0.0
1609054409234846354,105,1609054409234846354,-0.00347181312512,0.00703522108411,0.00704882274777,0.000478749950862,0.000279235295897,0.000360142375449,0.999999781562,0.0,0.0,0.0,0.0,0.0,0.0
1609054409347506046,106,1609054409347506046,-0.00473990610083,0.00462299107573,-0.00158252918181,0.00164076955163,-0.000479410987098,0.000890495975428,0.999998142527,0.0,0.0,0.0,0.0,0.0,0.0
1609054409441797256,107,1609054409441797256,-0.00394637705849,0.00977527034877,0.0206757127024,0.00138709001965,0.000118842665327,0.000230295476158,0.99999900441,0.0,0.0,0.0,0.0,0.0,0.0
1609054409534850359,108,1609054409534850359,-0.00371947037504,0.00386623048487,0.0231438132239,-0.00177075099565,-0.000108170216111,0.000462316424433,0.9999983195,0.0,0.0,0.0,0.0,0.0,0.0
1609054409647480488,109,1609054409647480488,-0.00738124865426,0.00417879589834,0.0329908830524,0.000590645088704,-0.000140438759429,0.000496219712526,0.999999692591,0.0,0.0,0.0,0.0,0.0,0.0
1609054409741260290,110,1609054409741260290,0.000547988377716,0.00751443563054,0.0278968905163,0.000322870538292,2.08133479245e-05,0.000359513525233,0.999999883036,0.0,0.0,0.0,0.0,0.0,0.0
1609054409835313320,111,1609054409835313320,-0.0132275531558,0.0103652646102,0.0446368568611,-0.000341236251277,2.21486072312e-05,0.000502788295596,0.999999815136,0.0,0.0,0.0,0.0,0.0,0.0
1609054409948186159,112,1609054409948186159,-0.00981036219012,0.00551762380699,0.0326636998124,0.000544166411287,-9.88951700883e-05,0.000624898416614,0.999999651802,0.0,0.0,0.0,0.0,0.0,0.0
1609054410041301250,113,1609054410041301250,-0.00746790778259,0.0058189461944,0.0266255566837,-0.000850249636414,-0.000119826303253,0.000380159661597,0.999999559098,0.0,0.0,0.0,0.0,0.0,0.0
1609054410134859324,114,1609054410134859324,-0.00429220969189,0.00179021539418,0.0312544302292,-0.00156601580072,-0.000581137104963,0.000688855062524,0.999998367675,0.0,0.0,0.0,0.0,0.0,0.0
1609054410247193336,115,1609054410247193336,-0.013752968163,0.00683455755896,0.0205559809268,0.00106548688217,0.000625484619661,0.000497077445183,0.99999911321,0.0,0.0,0.0,0.0,0.0,0.0
1609054410341151953,116,1609054410341151953,-0.0126999855766,0.0058331882151,0.0115015338469,-0.000138106167397,-0.000158344323382,0.000623771883469,0.999999783381,0.0,0.0,0.0,0.0,0.0,0.0
1609054410436317921,117,1609054410436317921,-0.00761650833985,0.00835493182694,0.0394644989032,-0.000723907121273,-0.000154779223815,0.000335654362173,0.999999669669,0.0,0.0,0.0,0.0,0.0,0.0
1609054410547135115,118,1609054410547135115,-0.00822606987866,0.00806646682181,0.0303084717576,0.000464621841658,0.000199651638021,0.000574345311698,0.999999707196,0.0,0.0,0.0,0.0,0.0,0.0
1609054410640902519,119,1609054410640902519,-0.0179621798338,0.00751603417619,0.0324779298873,-0.000789477876884,-0.000213283512792,0.000199232447268,0.99999964577,0.0,0.0,0.0,0.0,0.0,0.0
1609054410734562635,120,1609054410734562635,-0.0118021162663,0.00729953978467,0.020694283799,-0.000308845733158,-0.000243530683834,0.000831538112516,0.999999576926,0.0,0.0,0.0,0.0,0.0,0.0
1609054410847139597,121,1609054410847139597,-0.0139750757869,0.00351820198824,0.0391042494257,-0.00221816456244,0.000780988934092,0.000668959602333,0.999997011143,0.0,0.0,0.0,0.0,0.0,0.0
1609054410941797733,122,1609054410941797733,-0.00622827269769,0.00663995385544,0.0422731476003,-0.0017821290231,0.00015447552834,0.000363968882326,0.999998333839,0.0,0.0,0.0,0.0,0.0,0.0
1609054411034598351,123,1609054411034598351,-0.00677036172799,0.00930347127822,0.0196092058556,-0.000831320083092,-0.000378692099113,0.00042496300118,0.999999492453,0.0,0.0,0.0,0.0,0.0,0.0
1609054411147097826,124,1609054411147097826,-0.00989691806936,0.00311663565518,0.0247147883175,-0.0007463051584,0.000419605022819,0.000419789506113,0.999999545368,0.0,0.0,0.0,0.0,0.0,0.0
1609054411242077351,125,1609054411242077351,-0.0159942104884,0.00914465809906,0.0268640179417,-0.000736623911712,-6.20686498816e-05,0.000352307920302,0.999999664706,0.0,0.0,0.0,0.0,0.0,0.0
1609054411334943295,126,1609054411334943295,-0.0070686355305,0.00700222015363,0.0332198041338,-0.000838573721813,-0.00048847825508,0.000822534784231,0.999999190809,0.0,0.0,0.0,0.0,0.0,0.0
1609054411447515249,127,1609054411447515249,-0.0115466931414,0.00800139388966,0.0397670994788,-0.00100625744839,-0.000251724013652,0.000526838195747,0.999999323261,0.0,0.0,0.0,0.0,0.0,0.0
1609054411542730093,128,1609054411542730093,-0.00541339221957,0.00557528902215,0.0273525366138,-0.0005232697267,0.000132924241554,0.000413976992744,0.999999768571,0.0,0.0,0.0,0.0,0.0,0.0
1609054411634990931,129,1609054411634990931,-0.0082554367604,0.00726722226941,0.0254540692687,0.000662053202106,-0.000247894752604,0.000354081806835,0.99999968743,0.0,0.0,0.0,0.0,0.0,0.0
1609054411747419596,130,1609054411747419596,-0.00561700350479,0.00744868008162,0.0270070429507,-0.000259093530333,-7.78638422168e-05,0.000462402882437,0.999999856496,0.0,0.0,0.0,0.0,0.0,0.0
1609054411841840029,131,1609054411841840029,-0.00815337566569,0.00734130420667,0.0188157666309,-6.23093314588e-05,-0.000455897066434,0.000671675371242,0.999999668564,0.0,0.0,0.0,0.0,0.0,0.0
1609054411934567451,132,1609054411934567451,-0.0153816434289,0.00882224568378,0.0272924375953,-0.000416687903876,-0.000174587204587,0.000594127137791,0.999999721452,0.0,0.0,0.0,0.0,0.0,0.0
1609054412047315836,133,1609054412047315836,-0.00524734336792,0.00681223306347,0.0229318480891,-0.000585499724362,-0.000349320433362,0.00041022191311,0.999999683441,0.0,0.0,0.0,0.0,0.0,0.0
1609054412141219854,134,1609054412141219854,-0.0135018092605,0.00992199101931,0.0216129433447,-0.000236022753002,-0.000237281427716,0.000512706066125,0.999999812562,0.0,0.0,0.0,0.0,0.0,0.0
1609054412235221863,135,1609054412235221863,-0.00804575822129,0.00540550251944,0.0329240277246,-0.00059358256974,8.07019056013e-05,0.00063731644767,0.999999617487,0.0,0.0,0.0,0.0,0.0,0.0
1609054412338416100,136,1609054412338416100,-0.0102422512148,0.00494909812636,0.0452958328177,-0.000402547649236,0.000114188193749,0.000456129379679,0.999999808431,0.0,0.0,0.0,0.0,0.0,0.0
1609054412441656113,137,1609054412441656113,-0.0144235116837,0.00505770693692,0.0437895790222,0.000177431044308,-0.000234205434886,0.000591945155616,0.999999781633,0.0,0.0,0.0,0.0,0.0,0.0
1609054412544827461,138,1609054412544827461,-0.00778573219608,0.00416961299569,0.0341708506741,-0.00069242608744,0.000205997975868,0.000484586491241,0.999999621643,0.0,0.0,0.0,0.0,0.0,0.0
1609054412649164200,139,1609054412649164200,-0.00406584809266,0.0094431980051,0.0291207147208,-0.00019686545941,1.06518060938e-06,0.000608835625288,0.999999795281,0.0,0.0,0.0,0.0,0.0,0.0
1609054412750975132,140,1609054412750975132,-0.00981484258292,0.00864794920271,0.0416056311779,0.00123889053121,-3.24439849761e-05,0.000629420882867,0.999999033963,0.0,0.0,0.0,0.0,0.0,0.0
1609054412858847141,141,1609054412858847141,-0.00274796688647,0.00448608199429,0.0337023878113,0.00011212272427,-0.000254411835103,0.000480142390421,0.999999846083,0.0,0.0,0.0,0.0,0.0,0.0
1609054412963998079,142,1609054412963998079,-0.00758324621027,0.00503054497603,0.033996870196,-0.00133993517986,-0.00061230358638,0.000458296842436,0.99999880981,0.0,0.0,0.0,0.0,0.0,0.0
1609054413065211296,143,1609054413065211296,-0.0185605566206,0.00912600638867,0.0408195079639,-0.000177484150089,-0.000131525463603,0.000598567319355,0.999999796459,0.0,0.0,0.0,0.0,0.0,0.0
1609054413135014772,144,1609054413135014772,-0.0140324294728,0.00926532160705,0.0372868821206,0.000558053398099,-6.60975085418e-05,0.000633477341558,0.999999641457,0.0,0.0,0.0,0.0,0.0,0.0
1609054413236718178,145,1609054413236718178,-0.00985356675616,0.0061851540096,0.0355736004578,0.000140934425284,-5.67951324689e-05,0.0004373068994,0.999999892837,0.0,0.0,0.0,0.0,0.0,0.0
1609054413340098619,146,1609054413340098619,-0.0130598537553,0.00674183804966,0.0258201953645,-0.00192176864688,-0.000131599830129,0.000285075619297,0.999998104107,0.0,0.0,0.0,0.0,0.0,0.0
1609054413442835331,147,1609054413442835331,-0.026488027061,0.00362187910605,0.0247143557841,-0.000245396608994,-0.000347732798208,0.000741271000722,0.99999963469,0.0,0.0,0.0,0.0,0.0,0.0
1609054413545699120,148,1609054413545699120,-0.0134697471645,0.00307665095831,0.015636573989,0.000916889152745,-0.000431188828469,0.000495779262582,0.999999363796,0.0,0.0,0.0,0.0,0.0,0.0
1609054413649979353,149,1609054413649979353,-0.0156064829958,0.00693255555055,0.0107880696628,0.000658043116569,-0.000349051710241,0.000525690876648,0.999999584395,0.0,0.0,0.0,0.0,0.0,0.0
1609054413751834154,150,1609054413751834154,-0.0117666600954,0.0052733146349,0.0443105069089,-0.000913359353375,0.000199874071769,0.000345493282758,0.999999503229,0.0,0.0,0.0,0.0,0.0,0.0
1609054413854924440,151,1609054413854924440,-0.00708938035451,0.00799755256159,0.043333201676,-0.000757661248403,-7.07026077589e-05,0.000182052546888,0.999999693904,0.0,0.0,0.0,0.0,0.0,0.0
1609054413958257198,152,1609054413958257198,-0.00931626979263,0.00714523021495,0.0450977492592,0.000304985619473,-0.000173774309043,0.000345411422895,0.999999878738,0.0,0.0,0.0,0.0,0.0,0.0
1609054414061423779,153,1609054414061423779,-0.011465195336,0.00819554871626,0.0311006448672,0.000382474142998,-0.000175327123698,0.000431736088059,0.999999818289,0.0,0.0,0.0,0.0,0.0,0.0
1609054414134680510,154,1609054414134680510,-0.0106357498433,0.00689128707127,0.0388306042199,0.000957286097887,0.000325101692317,0.000496115435568,0.99999936589,0.0,0.0,0.0,0.0,0.0,0.0
1609054414238241673,155,1609054414238241673,-0.00902099272704,0.0111407335434,0.0302234653441,-0.00106511995433,0.000144021559316,0.000491248382032,0.999999301726,0.0,0.0,0.0,0.0,0.0,0.0
1609054414341225624,156,1609054414341225624,-0.00650209530479,0.00723748304381,0.0216060087704,0.00062579786388,-0.000342711425818,0.000663470094202,0.999999525366,0.0,0.0,0.0,0.0,0.0,0.0
1609054414444417000,157,1609054414444417000,-0.011545628288,0.00661283712355,0.0261522176628,0.000154788892791,5.77763026117e-05,0.000689604228192,0.999999748574,0.0,0.0,0.0,0.0,0.0,0.0
1609054414547568798,158,1609054414547568798,-0.00323356468443,0.00722137252277,0.0271215564303,-7.94462802206e-05,3.37931331534e-05,0.00049887153205,0.999999871837,0.0,0.0,0.0,0.0,0.0,0.0
1609054414650644064,159,1609054414650644064,-0.00969598961032,0.0107543439658,0.0385109421288,0.000308920032686,-1.87167237812e-05,0.000423721239702,0.999999862339,0.0,0.0,0.0,0.0,0.0,0.0
1609054414753700495,160,1609054414753700495,-0.00805983091025,0.00544865576371,0.0380196970646,-0.000374380584216,4.34443681519e-05,0.000660088853613,0.999999711117,0.0,0.0,0.0,0.0,0.0,0.0
1609054414856836557,161,1609054414856836557,-0.0144873866744,0.00389711760288,0.0379162294067,-0.00164472715574,0.00036856922156,0.000423866796598,0.999998489682,0.0,0.0,0.0,0.0,0.0,0.0
1609054414959560394,162,1609054414959560394,-0.00848333069001,0.00487560380049,0.0392883424994,-4.5124412087e-05,0.000931196852051,0.00049718346803,0.999999441822,0.0,0.0,0.0,0.0,0.0,0.0
1609054415062959433,163,1609054415062959433,-0.0183234282174,0.00926098835456,0.033027075306,0.000370041020895,-0.000175686062771,0.000797464677099,0.999999598127,0.0,0.0,0.0,0.0,0.0,0.0
1609054415134269953,164,1609054415134269953,-0.0194731365203,0.00621917569592,0.0283236496584,0.000205910040501,8.63520554657e-05,0.000762752839615,0.999999684176,0.0,0.0,0.0,0.0,0.0,0.0
1609054415235672235,165,1609054415235672235,-0.00879651834183,0.00662195367752,0.0396932248824,0.000205962536014,-6.05372250793e-05,0.000441522401298,0.999999879486,0.0,0.0,0.0,0.0,0.0,0.0
1609054415337536097,166,1609054415337536097,-0.0131975703985,0.00742559398836,0.0378421752689,-0.000755651707095,-0.000112191695375,0.000948341263485,0.999999258526,0.0,0.0,0.0,0.0,0.0,0.0
1609054415441616535,167,1609054415441616535,-0.0110533999583,0.00897344977131,0.0314194682165,-0.000284697149667,0.000301408716174,0.000547792307459,0.999999764012,0.0,0.0,0.0,0.0,0.0,0.0
1609054415543752432,168,1609054415543752432,-0.00785230113341,0.00961267080491,0.0466167331584,0.000410404153593,3.79982104711e-05,0.000478286119114,0.999999800683,0.0,0.0,0.0,0.0,0.0,0.0
1609054415647118092,169,1609054415647118092,-0.00613133982651,0.00340798618883,0.0409795264642,-0.00075995396218,-1.32418187618e-05,0.000707566063198,0.999999460822,0.0,0.0,0.0,0.0,0.0,0.0
1609054415750507116,170,1609054415750507116,-0.00942495096553,0.00852929758455,0.0366357025044,0.00019444328801,-3.70800729349e-05,0.000613147829215,0.999999792433,0.0,0.0,0.0,0.0,0.0,0.0
1609054415854038477,171,1609054415854038477,-0.0142556677041,0.0072734402174,0.0207917090565,0.000702894373491,0.000291216775962,0.000529934351295,0.999999570151,0.0,0.0,0.0,0.0,0.0,0.0
1609054415956999063,172,1609054415956999063,-0.0132527583358,0.0042985531129,0.0399825630856,-0.000247580171492,-5.99286663855e-05,0.000778661421101,0.999999664399,0.0,0.0,0.0,0.0,0.0,0.0
1609054416060475588,173,1609054416060475588,-0.0103891302601,0.00303183430396,0.0322072092094,-0.00102751762487,0.000391337393157,0.00063507158481,0.999999193873,0.0,0.0,0.0,0.0,0.0,0.0
1609054416164364815,174,1609054416164364815,-0.012724485108,0.00830313641574,0.0517239425161,-0.000644250264657,-9.33516575138e-05,0.000518358450882,0.999999653766,0.0,0.0,0.0,0.0,0.0,0.0
1609054416235457659,175,1609054416235457659,-0.00769506916134,0.0060857237915,0.0450520507921,0.000452859764806,-7.98503771887e-05,0.00055648443831,0.999999739433,0.0,0.0,0.0,0.0,0.0,0.0
1609054416335959911,176,1609054416335959911,-0.00797576237523,0.00734836154909,0.0299067952508,-0.000706552220652,4.07293082756e-05,0.000731215621871,0.999999482224,0.0,0.0,0.0,0.0,0.0,0.0
1609054416443340302,177,1609054416443340302,-0.0162101590684,0.0099939370015,0.0349638746596,0.000312768384523,-7.53508741548e-05,0.000677416990284,0.999999718802,0.0,0.0,0.0,0.0,0.0,0.0
1609054416548208475,178,1609054416548208475,-0.00140748918701,0.00735448839887,0.0285186680241,-0.00100365289576,-0.000487714700825,0.000129190083543,0.999999369062,0.0,0.0,0.0,0.0,0.0,0.0
1609054416648950338,179,1609054416648950338,-0.0108841876157,0.00658368998844,0.035149387152,-0.000793455666716,8.38086097934e-05,0.000798682947352,0.999999362754,0.0,0.0,0.0,0.0,0.0,0.0
1609054416753305197,180,1609054416753305197,-0.0179953223698,0.00729043495525,0.0254097626848,0.000593219637374,-0.000207084151354,0.000781346488034,0.999999497352,0.0,0.0,0.0,0.0,0.0,0.0
1609054416856902838,181,1609054416856902838,-0.0154724270851,0.00472904239829,0.043260888328,-0.000749032009198,0.000371161944253,0.000296287990746,0.999999606701,0.0,0.0,0.0,0.0,0.0,0.0
1609054416960229397,182,1609054416960229397,-0.0128159837681,0.00786429393693,0.0432334102628,-0.000657724347766,0.000393965785865,0.000702527624135,0.999999459322,0.0,0.0,0.0,0.0,0.0,0.0
1609054417067737818,183,1609054417067737818,-0.00754958035166,0.00586117680625,0.0225896214821,0.000514210692112,-0.000537974872536,0.000761438448964,0.999999433191,0.0,0.0,0.0,0.0,0.0,0.0
1609054417166769028,184,1609054417166769028,-0.0138268253794,0.00787294199251,0.0201458658421,0.000168976841699,4.84741297141e-05,0.000975886147381,0.999999508371,0.0,0.0,0.0,0.0,0.0,0.0
1609054417236430883,185,1609054417236430883,-0.0089339866813,0.00633720907821,0.0190324320644,0.000689971302406,-0.000381968613265,0.000448574548098,0.99999958841,0.0,0.0,0.0,0.0,0.0,0.0
1609054417338728905,186,1609054417338728905,-0.0152575789227,0.00792294578158,0.0358564699732,-0.000728466617273,-9.85612663353e-05,0.000274695210619,0.999999692082,0.0,0.0,0.0,0.0,0.0,0.0
1609054417441992044,187,1609054417441992044,-0.012816881888,0.00929567920429,0.0188217347951,-0.000837352014741,0.000149235686704,0.000815243718741,0.999999305974,0.0,0.0,0.0,0.0,0.0,0.0
1609054417544687510,188,1609054417544687510,-0.00797321735777,0.00815770450408,0.027566497582,-0.000100078575604,-0.000441028481816,0.000501304500257,0.999999772086,0.0,0.0,0.0,0.0,0.0,0.0
1609054417647698402,189,1609054417647698402,-0.00856040410906,0.00822088167931,0.0643792421568,0.00035648148477,0.000274359615143,0.00044144486779,0.999999801387,0.0,0.0,0.0,0.0,0.0,0.0
1609054417749809504,190,1609054417749809504,-0.0108903540624,0.00954737265175,0.0393691846608,0.000964084744224,-0.000121490158148,0.000855710983282,0.999999161769,0.0,0.0,0.0,0.0,0.0,0.0
1609054417852302313,191,1609054417852302313,-0.0154833129984,0.0077661529889,0.0305987571108,0.000659034558033,0.000264863447229,0.000642766144858,0.999999541186,0.0,0.0,0.0,0.0,0.0,0.0
1609054417955412388,192,1609054417955412388,-0.0160444203188,0.00581924855926,0.0377106909418,-0.000838537790537,0.000535904150071,0.000649260200671,0.999999294061,0.0,0.0,0.0,0.0,0.0,0.0
1609054418058788776,193,1609054418058788776,-0.00948139172721,0.00744051234637,0.0282224698421,-0.000699124586065,7.76278271711e-05,0.00038041627013,0.999999680241,0.0,0.0,0.0,0.0,0.0,0.0
1609054418161768198,194,1609054418161768198,-0.00516408979992,0.00502104404186,0.0269869525861,-0.00012266173851,-0.00042752448283,0.00058586352289,0.99999972947,0.0,0.0,0.0,0.0,0.0,0.0
1609054418265162945,195,1609054418265162945,-0.011102046058,0.008516583111,0.0351880074306,-0.000842206771767,-0.000150766951164,0.000475505006098,0.999999520926,0.0,0.0,0.0,0.0,0.0,0.0
1609054418335103750,196,1609054418335103750,-0.0113833148902,0.00999304597494,0.0179369912431,-0.00131411568529,-4.62300770161e-06,0.000371082917718,0.999999067687,0.0,0.0,0.0,0.0,0.0,0.0
1609054418436705351,197,1609054418436705351,-0.00907757457378,0.00827833101873,0.0359216794964,-0.00107132044957,-1.30544260836e-05,0.000403137814686,0.999999344791,0.0,0.0,0.0,0.0,0.0,0.0
1609054418539759636,198,1609054418539759636,-0.00835658115668,0.00915391371623,0.024636147438,-0.00176168117542,0.000560859145115,0.000430327979041,0.999998198365,0.0,0.0,0.0,0.0,0.0,0.0
1609054418642281532,199,1609054418642281532,-0.01068848308,0.00702920633104,0.0327519486596,-0.000727912322012,-0.000416022639948,0.000651871515151,0.999999436066,0.0,0.0,0.0,0.0,0.0,0.0
1609054418745726824,200,1609054418745726824,-0.0106416472051,0.00158563150412,0.00316405937522,0.00072429711051,0.000257117383733,0.000780161527323,0.999999400316,0.0,0.0,0.0,0.0,0.0,0.0
1609054418848707438,201,1609054418848707438,-0.0111407162051,0.00805050859855,0.00656223242358,0.000158309215162,-2.40969261493e-05,0.000674772452945,0.99999975952,0.0,0.0,0.0,0.0,0.0,0.0
1609054418951974392,202,1609054418951974392,-0.00587065116646,0.00713772645001,0.0147366026423,0.00103330207427,0.000420923532468,0.00070419583085,0.999999129609,0.0,0.0,0.0,0.0,0.0,0.0
1609054419055130720,203,1609054419055130720,-0.0113933762256,0.0120384100589,0.00994334558501,0.00106240202691,0.00020886639047,0.00086003267108,0.99999904401,0.0,0.0,0.0,0.0,0.0,0.0
1609054419158463478,204,1609054419158463478,-0.00689289505175,0.00648494006536,0.0160346098929,0.00128738978736,0.000150232377829,0.000916699177405,0.999998739859,0.0,0.0,0.0,0.0,0.0,0.0
1609054419261682510,205,1609054419261682510,-0.00754328416693,0.00833863073737,0.017402651762,0.000314436183389,-0.000675348923771,0.000687234549833,0.999999486371,0.0,0.0,0.0,0.0,0.0,0.0
1609054419365025759,206,1609054419365025759,-0.00361586209805,0.00765344611634,0.0407781940348,-0.0006564082265,0.00017703641943,0.000781704083701,0.999999463362,0.0,0.0,0.0,0.0,0.0,0.0
1609054419434948683,207,1609054419434948683,-0.00952116526582,0.0053594525623,0.0190203356044,0.000190118553108,0.000373491925539,0.000585049405168,0.999999741038,0.0,0.0,0.0,0.0,0.0,0.0
1609054419536854982,208,1609054419536854982,-0.00568404416388,0.00652284062624,0.0215271070845,0.00170017312044,0.000297783844536,0.000899419794887,0.999998105888,0.0,0.0,0.0,0.0,0.0,0.0
1609054419639699221,209,1609054419639699221,-0.00703068165081,0.00484770600828,0.0129399902216,0.00105231924471,-9.23041078829e-05,0.000698840573302,0.999999197862,0.0,0.0,0.0,0.0,0.0,0.0
1609054419742825985,210,1609054419742825985,-0.0110217827232,0.00899237187251,-0.00575211855914,0.00153169309859,-0.00019211686958,0.00060318213168,0.999998626588,0.0,0.0,0.0,0.0,0.0,0.0
1609054419845633268,211,1609054419845633268,-0.00809023932921,0.00665983631691,0.00182161608798,0.00183535361552,-0.000252642816169,0.000791990267297,0.999997970198,0.0,0.0,0.0,0.0,0.0,0.0
1609054419948635101,212,1609054419948635101,-0.00654766861373,0.0076079816636,-0.00610528589948,0.00107187465113,-0.000562985517743,0.000466135131949,0.999999158424,0.0,0.0,0.0,0.0,0.0,0.0
1609054420051764727,213,1609054420051764727,-0.0104361338879,0.012423796128,0.023891608024,0.000904672533661,-4.02876690241e-05,0.000712572529314,0.999999336092,0.0,0.0,0.0,0.0,0.0,0.0
1609054420154633522,214,1609054420154633522,0.00254870142166,0.00574823518085,0.0125218292444,-0.00034548542888,-0.000196744130888,0.000190041145567,0.999999902908,0.0,0.0,0.0,0.0,0.0,0.0
1609054420258040190,215,1609054420258040190,-0.00705217721277,0.0107978683378,0.0465561682029,-0.00054253928688,0.000137972968488,0.000356335779757,0.999999779819,0.0,0.0,0.0,0.0,0.0,0.0
1609054420361135960,216,1609054420361135960,0.00773127607539,0.00971236424986,0.0275989191064,-0.000522286313487,-4.27606271892e-05,-2.27791787208e-05,0.999999862435,0.0,0.0,0.0,0.0,0.0,0.0
1609054420464008570,217,1609054420464008570,-0.0113240185943,0.00714613673037,0.0246432795487,-0.000857310931601,-1.94834232301e-05,0.00053434741903,0.999999489555,0.0,0.0,0.0,0.0,0.0,0.0
1609054420533836603,218,1609054420533836603,0.00100569299811,0.0100274066889,0.0350589671928,1.29832336653e-05,0.000100687677601,0.000580502421788,0.999999826355,0.0,0.0,0.0,0.0,0.0,0.0
1609054420635540247,219,1609054420635540247,0.00219872264646,0.00789144815567,0.0408452907376,-0.000876295036994,-0.000352240305984,0.000257811988518,0.999999520783,0.0,0.0,0.0,0.0,0.0,0.0
1609054420739363194,220,1609054420739363194,-0.00230800961477,0.0100285761271,0.0426987169416,-0.000160331301796,8.77507092301e-05,0.000755094451899,0.999999698213,0.0,0.0,0.0,0.0,0.0,0.0
1609054420842839956,221,1609054420842839956,-0.00517467654103,0.00923428037537,0.0386974196763,-0.000568712618312,0.000550065992757,0.000178409887872,0.999999671081,0.0,0.0,0.0,0.0,0.0,0.0
1609054420945527315,222,1609054420945527315,-0.00843761583339,0.00541592082475,0.0326654914589,0.000397312038301,3.3876776658e-05,0.000475840870797,0.999999807285,0.0,0.0,0.0,0.0,0.0,0.0
1609054421048690796,223,1609054421048690796,0.00120350556973,0.00789832775774,0.0329241892861,-0.000265991178191,-0.000732576838469,0.000484145092681,0.999999579091,0.0,0.0,0.0,0.0,0.0,0.0
1609054421151721716,224,1609054421151721716,-0.00158824025662,0.0126163055176,0.0224812328984,-0.00112590918064,-0.000277763844747,0.00039966252858,0.999999247722,0.0,0.0,0.0,0.0,0.0,0.0
1609054421254828691,225,1609054421254828691,-0.00133853582993,0.0107860840533,0.017829372631,0.000224194946289,0.00050534902869,0.000754896865726,0.999999562244,0.0,0.0,0.0,0.0,0.0,0.0
1609054421357732773,226,1609054421357732773,0.0042871095784,0.00748528376588,-0.0031069652287,0.00159200781145,-0.000320840552652,0.000610350402295,0.999998495021,0.0,0.0,0.0,0.0,0.0,0.0
1609054421460498333,227,1609054421460498333,-0.000312074226984,0.0103439714793,-0.00338846178629,0.00212828025043,-0.000131067966598,0.000432012971259,0.999997633301,0.0,0.0,0.0,0.0,0.0,0.0
1609054421563588381,228,1609054421563588381,-0.00289882391812,0.00405642897899,-0.00257350475142,0.00019701435233,-3.4903530554e-05,0.000528652743789,0.999999840246,0.0,0.0,0.0,0.0,0.0,0.0
1609054421633586407,229,1609054421633586407,-0.00960022680526,0.0104632513944,0.0181615478994,0.00150462384899,-0.000102545958311,0.000565890438267,0.999998702679,0.0,0.0,0.0,0.0,0.0,0.0
1609054421735416412,230,1609054421735416412,-0.00525990474018,0.0037924155574,0.0332271016528,-0.00069227748435,0.000105976401583,0.000568083308341,0.999999593401,0.0,0.0,0.0,0.0,0.0,0.0
1609054421839038134,231,1609054421839038134,0.000492574058688,0.00692425295341,0.0373794017165,-0.00132883358559,0.000216168590803,0.000473295069718,0.999998981731,0.0,0.0,0.0,0.0,0.0,0.0
1609054421942426682,232,1609054421942426682,0.00900920187465,0.00691223321016,0.0430292893093,-0.000316516792604,0.000107858464702,0.000638436724247,0.999999740291,0.0,0.0,0.0,0.0,0.0,0.0
1609054422045276880,233,1609054422045276880,-0.0191557934274,0.00856552735056,0.0383980831281,-0.000324273923239,0.000170834809243,0.000898430460967,0.999999529242,0.0,0.0,0.0,0.0,0.0,0.0
1609054422148269176,234,1609054422148269176,-0.000623095121372,0.00942381845785,0.0333390371487,-0.000305314246649,-0.000335570277354,0.000470597212628,0.999999786357,0.0,0.0,0.0,0.0,0.0,0.0
1609054422251598358,235,1609054422251598358,0.000903880239108,0.00912323582491,0.0190847146269,-0.00167884860847,-0.000723478099266,0.00041676566748,0.999998242175,0.0,0.0,0.0,0.0,0.0,0.0
1609054422354835749,236,1609054422354835749,-0.00529829756119,0.00917619724175,0.0225722630162,-0.00012995382491,-2.42537361381e-05,0.00071836743537,0.999999733236,0.0,0.0,0.0,0.0,0.0,0.0
1609054422458263159,237,1609054422458263159,-0.00442326768885,0.00631313680449,0.0278510661762,-0.00027568949503,0.000131241231851,0.000559136790668,0.999999797068,0.0,0.0,0.0,0.0,0.0,0.0
1609054422561011791,238,1609054422561011791,-0.0107286957945,0.00729772984671,0.0346283410662,3.41858216716e-05,-0.000479862669327,0.000477661109498,0.999999770201,0.0,0.0,0.0,0.0,0.0,0.0
1609054422664532423,239,1609054422664532423,0.000471241033075,0.00903531306097,0.029981561021,-0.00120186014023,6.23468077029e-05,0.000533906005022,0.999999133294,0.0,0.0,0.0,0.0,0.0,0.0
1609054422734355211,240,1609054422734355211,-0.0143459812183,0.0102976425067,0.0440403797741,0.00168605476299,0.000212022059642,0.000526675122753,0.999998417438,0.0,0.0,0.0,0.0,0.0,0.0
1609054422836090565,241,1609054422836090565,-0.00364020894649,0.00909077621248,0.031354375434,0.00100333243587,-0.000137405368121,0.000372806257139,0.999999417729,0.0,0.0,0.0,0.0,0.0,0.0
1609054422939123392,242,1609054422939123392,-0.0132186107019,0.00760447675844,0.0252777235273,-0.000367382943553,-0.000215509784776,0.000437519028514,0.999999813581,0.0,0.0,0.0,0.0,0.0,0.0
1609054423042011976,243,1609054423042011976,-0.000441263246882,0.00920805747621,0.0426970449502,-0.00029867768441,-0.000319295612537,0.000397811331865,0.999999825294,0.0,0.0,0.0,0.0,0.0,0.0
1609054423145166874,244,1609054423145166874,-0.0125221138301,0.00977123204172,0.0239100002717,-0.00104462337951,0.000191655224419,0.000507196841322,0.99999930739,0.0,0.0,0.0,0.0,0.0,0.0
1609054423247842312,245,1609054423247842312,-0.00480707042958,0.00803878411852,0.0368907572217,0.000635510144601,-0.000886901006853,0.000510858839658,0.999999274278,0.0,0.0,0.0,0.0,0.0,0.0
1609054423350876093,246,1609054423350876093,-0.0107334967256,0.0047942637574,0.0176096026146,-0.00186506780391,0.000451110912016,0.000519071976799,0.99999802429,0.0,0.0,0.0,0.0,0.0,0.0
1609054423454300880,247,1609054423454300880,-0.0156634226339,0.0065927149423,0.028302445709,7.08734230478e-05,-7.92536392661e-05,0.000625006463153,0.999999799031,0.0,0.0,0.0,0.0,0.0,0.0
1609054423557231426,248,1609054423557231426,-0.00180062726311,0.00698234201101,0.0191167201471,-0.000316818128886,-0.000443352425848,0.00056018124898,0.99999969463,0.0,0.0,0.0,0.0,0.0,0.0
1609054423660199165,249,1609054423660199165,-0.00138409356991,0.00485959970328,0.0344375376649,-0.000678310706353,-2.77689188304e-05,0.000618486608532,0.999999578298,0.0,0.0,0.0,0.0,0.0,0.0
1609054423763539553,250,1609054423763539553,-0.00507710149894,0.0064891198679,0.0119264216357,-0.000135577159934,-0.00061450012079,0.000646252560692,0.999999593183,0.0,0.0,0.0,0.0,0.0,0.0
1609054423833894968,251,1609054423833894968,-0.00730598439954,0.0089615995047,0.0151989288589,-2.14394871074e-05,-9.6335274367e-05,0.000377542361713,0.99999992386,0.0,0.0,0.0,0.0,0.0,0.0
1609054423935532570,252,1609054423935532570,-0.000795794552634,0.00641212813487,0.0195088238446,0.000878808654163,-0.00037422967075,0.000515344879234,0.999999411033,0.0,0.0,0.0,0.0,0.0,0.0
1609054424038863659,253,1609054424038863659,0.00651019050937,0.00853007345063,0.0363013588118,0.000218487687346,-0.000173123330619,0.000338990002996,0.999999903688,0.0,0.0,0.0,0.0,0.0,0.0
1609054424141743422,254,1609054424141743422,-0.009538567936,0.0128718222644,0.0235947007503,-0.00108875464426,0.000455205493383,0.000337138159521,0.999999246869,0.0,0.0,0.0,0.0,0.0,0.0
1609054424244882107,255,1609054424244882107,-0.00107593707463,0.00525145089626,0.027659799237,0.00123944905934,-0.000108553475895,0.000613310220087,0.999999037915,0.0,0.0,0.0,0.0,0.0,0.0
1609054424347829580,256,1609054424347829580,-0.00278927050415,0.0123641492163,0.0289881024062,-0.00103842112274,-4.05576448575e-05,0.000649609851906,0.999999249021,0.0,0.0,0.0,0.0,0.0,0.0
1609054424450980902,257,1609054424450980902,-0.00330202986372,0.00729625193869,0.0380900948052,-0.000878840451375,0.000154461825577,0.000913135939601,0.999999184981,0.0,0.0,0.0,0.0,0.0,0.0
1609054424553978443,258,1609054424553978443,0.00280536765919,0.00892715517837,0.033868237202,-0.000264827107279,-0.000169272511655,0.000498411256815,0.999999826399,0.0,0.0,0.0,0.0,0.0,0.0
1609054424657385588,259,1609054424657385588,-0.00318784929722,0.0110603920868,0.0314194531086,-0.000961282001717,-6.75537860159e-05,0.000552759509717,0.999999382915,0.0,0.0,0.0,0.0,0.0,0.0
1609054424760349989,260,1609054424760349989,0.00917014941339,0.00696801786883,0.0333108366864,1.69480204729e-05,-8.81264884736e-06,0.00041996026773,0.999999911634,0.0,0.0,0.0,0.0,0.0,0.0
1609054424863577127,261,1609054424863577127,-0.00210906395131,0.00979062950952,0.0202707840776,0.000159744792501,-0.000264976970614,0.000726439311766,0.999999688277,0.0,0.0,0.0,0.0,0.0,0.0
1609054424933940172,262,1609054424933940172,0.00283323851634,0.00646734206276,0.0246142062615,0.000330311583746,-0.000631975684862,0.000685039589074,0.99999951111,0.0,0.0,0.0,0.0,0.0,0.0
1609054425035593033,263,1609054425035593033,0.000550785188749,0.00962702611877,0.0471763549596,-0.000115293411019,0.000401420555022,0.00056365836285,0.999999753929,0.0,0.0,0.0,0.0,0.0,0.0
1609054425138822556,264,1609054425138822556,0.000948583702749,0.00985441000246,0.0440488180416,-0.000936642890099,-0.000747042788713,0.000513388916902,0.999999150529,0.0,0.0,0.0,0.0,0.0,0.0
1609054425241912842,265,1609054425241912842,-0.00328418938969,0.00889371117766,0.0346799947528,-0.00138811470487,-0.000648139553481,0.000334808635538,0.999998770477,0.0,0.0,0.0,0.0,0.0,0.0
1609054425344830036,266,1609054425344830036,-0.00263328193267,0.00825425008028,0.0426675650064,-0.00099225900595,-5.66713351465e-05,0.000448801585688,0.999999405393,0.0,0.0,0.0,0.0,0.0,0.0
1609054425447796822,267,1609054425447796822,0.00220762805341,0.0117755826346,0.0394636273419,0.00110492370366,-6.37823966408e-05,0.000371993085193,0.999999318348,0.0,0.0,0.0,0.0,0.0,0.0
1609054425550950527,268,1609054425550950527,-0.000964213783973,0.00954229011999,0.0556052791463,0.000312344142046,-0.000115500196113,0.000384574927446,0.999999870601,0.0,0.0,0.0,0.0,0.0,0.0
1609054425653964996,269,1609054425653964996,-0.00448366505203,0.00971362185166,0.0335594449034,0.000213962656969,-0.000267694473748,0.000569027891354,0.999999779383,0.0,0.0,0.0,0.0,0.0,0.0
1609054425757158995,270,1609054425757158995,-0.00587299992784,0.00976410172134,0.0378757271758,-0.000356111868478,-0.000121628153,0.000419685864818,0.999999841127,0.0,0.0,0.0,0.0,0.0,0.0
1609054425860109329,271,1609054425860109329,0.00111571208956,0.0103693754017,0.0370580600985,0.00152116180378,-0.000199111204569,0.000523483945318,0.999998686192,0.0,0.0,0.0,0.0,0.0,0.0
1609054425963584423,272,1609054425963584423,0.00516222123288,0.00997686185995,0.0322253262237,-0.000989247469345,-5.33702197593e-05,0.000203214599903,0.999999488622,0.0,0.0,0.0,0.0,0.0,0.0
1609054426033624887,273,1609054426033624887,-0.00201416875428,0.00380952543531,0.0314098508144,0.000149973778197,-9.96654187634e-05,0.000851738609459,0.999999621057,0.0,0.0,0.0,0.0,0.0,0.0
1609054426135382414,274,1609054426135382414,0.00593358392253,0.00817787989476,0.0165407879426,-0.000869640917985,-0.000395811985271,7.57609331805e-05,0.999999540658,0.0,0.0,0.0,0.0,0.0,0.0
1609054426238717318,275,1609054426238717318,0.000817116028265,0.0121701411183,0.0192821376205,-0.000415261171565,0.00039065774803,0.00038824498338,0.999999762105,0.0,0.0,0.0,0.0,0.0,0.0
1609054426341729641,276,1609054426341729641,0.00353299937804,0.00808652948245,-4.53948391694e-05,8.86836022292e-05,-0.000366822730446,0.000559045566625,0.999999772522,0.0,0.0,0.0,0.0,0.0,0.0
1609054426444851637,277,1609054426444851637,-0.00773486732393,0.010170116193,0.00306617467487,-0.00166999917218,0.00057605479515,0.000565870107141,0.999998279525,0.0,0.0,0.0,0.0,0.0,0.0
1609054426548580885,278,1609054426548580885,0.000645739959642,0.00828856873527,0.0187183154846,-0.000232736777375,-0.00032897118409,0.000649124161388,0.999999708124,0.0,0.0,0.0,0.0,0.0,0.0
1609054426650740623,279,1609054426650740623,-0.00746188112005,0.011703962358,0.0163220220223,-0.00226355185797,0.000690511856253,0.000419975984271,0.999997111569,0.0,0.0,0.0,0.0,0.0,0.0
1609054426754403353,280,1609054426754403353,0.00687554570547,0.0101345803493,0.0323502302345,0.000328268235047,-0.000371205647979,0.000370573250838,0.99999980856,0.0,0.0,0.0,0.0,0.0,0.0
1609054426857606411,281,1609054426857606411,-0.00589789078015,0.00728691338695,0.01840035295,-0.000771211277084,-0.000474806185435,0.000623475462155,0.999999395535,0.0,0.0,0.0,0.0,0.0,0.0
1609054426960397720,282,1609054426960397720,0.00740424581591,0.0132113804004,0.0140187479795,-0.00126240818871,2.62324406292e-05,0.000722778460249,0.999998941613,0.0,0.0,0.0,0.0,0.0,0.0
1609054427063439846,283,1609054427063439846,0.00607348081564,0.00889738432107,0.044084276633,-0.00199984933915,0.000100303172734,0.000201780281303,0.999997974911,0.0,0.0,0.0,0.0,0.0,0.0
1609054427133469105,284,1609054427133469105,0.00632214631269,0.010932871044,0.0305245795611,-0.000152088274296,-0.000190980661356,-3.87498030736e-05,0.999999969446,0.0,0.0,0.0,0.0,0.0,0.0
1609054427235010862,285,1609054427235010862,0.0013704444516,0.00741758677553,0.0136924674971,-0.000856901735316,-0.000504846376218,0.000394539516751,0.999999427593,0.0,0.0,0.0,0.0,0.0,0.0
1609054427338508129,286,1609054427338508129,0.00607164414648,0.00825427037358,0.0417533418049,-5.82338818666e-05,5.41417647414e-05,0.000284793276083,0.999999956285,0.0,0.0,0.0,0.0,0.0,0.0
1609054427441691875,287,1609054427441691875,0.00117091637468,0.00575742890213,0.0410030988558,-9.8367002597e-05,0.000187040293863,0.000641898693179,0.999999771652,0.0,0.0,0.0,0.0,0.0,0.0
1609054427544693947,288,1609054427544693947,-0.00108772743902,0.00746152168064,0.031480312118,-9.77119881952e-05,-0.000344999701884,0.000213039114755,0.99999991302,0.0,0.0,0.0,0.0,0.0,0.0
1609054427647665262,289,1609054427647665262,-0.000903390764803,0.0123882814874,0.0306778526019,-0.000193908150968,-6.91885286801e-05,0.00043800223602,0.999999882883,0.0,0.0,0.0,0.0,0.0,0.0
1609054427750458717,290,1609054427750458717,-0.00353011735656,0.00875778578587,0.0287957522735,-0.00119917204833,-0.000175019677938,0.000462853967625,0.999999158559,0.0,0.0,0.0,0.0,0.0,0.0
1609054427853963375,291,1609054427853963375,-0.00410468475068,0.011058669346,0.0284899974202,0.000829173005317,0.000273269368083,0.0003570891908,0.999999555141,0.0,0.0,0.0,0.0,0.0,0.0
1609054427956847668,292,1609054427956847668,0.00072019765479,0.0127343075258,0.0520211043635,-0.00121305147284,-3.94652935073e-05,0.00059271825922,0.999999087816,0.0,0.0,0.0,0.0,0.0,0.0
1609054428060825825,293,1609054428060825825,-0.000174244190345,0.00718335942702,0.0300639613298,-0.0007725133564,-0.000198853534731,0.000571988209016,0.999999518254,0.0,0.0,0.0,0.0,0.0,0.0
1609054428163211823,294,1609054428163211823,0.00244582370093,0.00678135785454,0.053244188374,0.000966850665462,0.000382948833198,0.000493989088996,0.999999337262,0.0,0.0,0.0,0.0,0.0,0.0
1609054428233535528,295,1609054428233535528,0.00405956405243,0.0123378797229,0.0506145417523,0.00058808262077,4.79237415139e-05,0.000550071737164,0.999999674641,0.0,0.0,0.0,0.0,0.0,0.0
1609054428335403919,296,1609054428335403919,-0.00208994270863,0.0086461900247,0.0372842328031,-7.85227562475e-05,4.94097059759e-05,0.000287099835424,0.999999954483,0.0,0.0,0.0,0.0,0.0,0.0
1609054428438663006,297,1609054428438663006,-0.0072512170131,0.0119224990142,0.0304470097818,-0.000848592637905,-0.000183384733467,0.00048077812164,0.999999507556,0.0,0.0,0.0,0.0,0.0,0.0
1609054428541785002,298,1609054428541785002,0.00333591679775,0.0104477862543,0.0299231985673,0.000270512055959,-0.000399887737315,0.000597868364799,0.999999704733,0.0,0.0,0.0,0.0,0.0,0.0
1609054428644670725,299,1609054428644670725,0.00320396635634,0.0121636229461,0.0405027382707,-0.00122948691385,-0.000299881619535,0.000505553722644,0.999999071423,0.0,0.0,0.0,0.0,0.0,0.0
1609054428747479200,300,1609054428747479200,-0.00352509376607,0.0131561830941,0.0192594693725,0.000907205087372,-1.83344115377e-05,0.000459751471167,0.999999482635,0.0,0.0,0.0,0.0,0.0,0.0
1609054428850313425,301,1609054428850313425,-0.0016001273219,0.00757855396541,0.00708181182561,0.00202780375264,5.98654195902e-05,0.000623669767958,0.999997747729,0.0,0.0,0.0,0.0,0.0,0.0
1609054428953299522,302,1609054428953299522,0.00416417209157,0.010628134646,0.00929554172107,0.00187263251803,7.85190556266e-05,0.000526344110844,0.99999810502,0.0,0.0,0.0,0.0,0.0,0.0
1609054429056298494,303,1609054429056298494,0.00457527239173,0.00770041023906,0.00790172674519,-0.00012482363265,0.000337733171677,0.000431914673062,0.999999841902,0.0,0.0,0.0,0.0,0.0,0.0
1609054429159422874,304,1609054429159422874,-0.00999968721834,0.00956421697216,0.0249319465413,0.000151865196129,-3.08631168313e-05,0.000830934204665,0.999999642766,0.0,0.0,0.0,0.0,0.0,0.0
1609054429262683153,305,1609054429262683153,0.00761991666663,0.0110633744978,0.029241097342,-0.000276813522124,5.69422745923e-05,0.000368156619418,0.999999892296,0.0,0.0,0.0,0.0,0.0,0.0
1609054429333083868,306,1609054429333083868,-0.00270945653103,0.00861051997857,0.0302718508907,0.000157361442696,-0.00016015995467,0.000497066896252,0.999999851255,0.0,0.0,0.0,0.0,0.0,0.0
1609054429434987307,307,1609054429434987307,0.00306400267505,0.0083874476753,0.0426550322617,-0.000139168557998,0.00044184231113,0.000520276305788,0.999999757359,0.0,0.0,0.0,0.0,0.0,0.0
1609054429538494110,308,1609054429538494110,-0.0101636111532,0.0110498759117,0.0402571567266,0.00109375463399,-0.000323402329842,0.000700065892795,0.999999104509,0.0,0.0,0.0,0.0,0.0,0.0
1609054429641675234,309,1609054429641675234,-0.00139779072432,0.00851690784296,0.017246506081,-0.000637809172143,-0.000440597470606,0.000565224750159,0.999999539796,0.0,0.0,0.0,0.0,0.0,0.0
1609054429744707823,310,1609054429744707823,-0.00622574976944,0.0117470264858,-0.00321196173634,-0.000536286996618,-3.61659890331e-05,0.000198606450047,0.999999835821,0.0,0.0,0.0,0.0,0.0,0.0
1609054429847436666,311,1609054429847436666,0.00232829569549,0.00613642909736,0.0284858783061,-0.000899057870064,-0.000338837217238,0.0005260101481,0.999999400098,0.0,0.0,0.0,0.0,0.0,0.0
1609054429951060057,312,1609054429951060057,0.00447485688643,0.00970141335479,0.0269619149079,-0.000761051195579,-4.97965428296e-05,0.000320447023843,0.999999657817,0.0,0.0,0.0,0.0,0.0,0.0
1609054430054181814,313,1609054430054181814,-0.0126935687165,0.0114580583033,0.0340259657333,-0.000825391515286,0.000248408618556,0.000165897202129,0.999999614749,0.0,0.0,0.0,0.0,0.0,0.0
1609054430157464743,314,1609054430157464743,0.00134136785911,0.00824823428508,0.0362322394322,-0.000429418457529,0.000430786341675,0.000369404610018,0.999999746781,0.0,0.0,0.0,0.0,0.0,0.0
1609054430260838032,315,1609054430260838032,-0.00115436875051,0.0084818574124,0.0364722280082,-0.000212557812665,0.000125852477955,0.000125651233895,0.999999961595,0.0,0.0,0.0,0.0,0.0,0.0
1609054430363788605,316,1609054430363788605,-0.00582801293087,0.00951795146452,0.0398246084827,-0.000967973946087,-9.48353507413e-05,0.00044241378516,0.999999429151,0.0,0.0,0.0,0.0,0.0,0.0
1609054430433382034,317,1609054430433382034,-0.00331925436915,0.00511483826668,0.0420840924008,-0.00102101768495,0.000119221033923,0.000253348197719,0.999999439561,0.0,0.0,0.0,0.0,0.0,0.0
1609054430535199642,318,1609054430535199642,-0.00323050056747,0.00782334425652,0.010980983336,6.16693319058e-05,-3.39263432757e-05,0.000425368885806,0.999999907053,0.0,0.0,0.0,0.0,0.0,0.0
1609054430637949944,319,1609054430637949944,0.0111499873957,0.0124231263419,0.0413011762354,0.000687718362996,-0.000223908454896,0.000461388247362,0.999999632014,0.0,0.0,0.0,0.0,0.0,0.0
1609054430741575956,320,1609054430741575956,-0.00552146944966,0.00831878081556,0.0292910028264,9.30085120868e-05,0.00028650277043,0.000209200936499,0.99999993275,0.0,0.0,0.0,0.0,0.0,0.0
1609054430844308138,321,1609054430844308138,0.00338876433748,0.00664712588872,0.0375748327011,0.00108501699461,-0.000719428318095,0.000439232070037,0.999999056117,0.0,0.0,0.0,0.0,0.0,0.0
1609054430947660446,322,1609054430947660446,-0.00393145589269,0.0136199349333,0.0400870829593,0.00159337147373,-0.000511907545316,0.000504386350785,0.999998472354,0.0,0.0,0.0,0.0,0.0,0.0
1609054431050831795,323,1609054431050831795,-0.00364454993755,0.00804310352453,0.0402376014592,-0.000892011369434,-0.000113468961571,0.000470660261153,0.999999484959,0.0,0.0,0.0,0.0,0.0,0.0
1609054431154124498,324,1609054431154124498,-0.00371112937976,0.00977665135689,0.0304670220619,-0.00139290002472,-0.00032369363596,0.000476600277381,0.999998863951,0.0,0.0,0.0,0.0,0.0,0.0
1609054431257144451,325,1609054431257144451,-0.00374667361996,0.0060814521624,0.033005224758,0.00224543838461,0.000455622767922,0.000224814535643,0.999997349932,0.0,0.0,0.0,0.0,0.0,0.0
1609054431359842062,326,1609054431359842062,-0.00334646552987,0.00622591956341,0.0257054729192,-0.000240378162672,-0.000576615960359,0.000367565951113,0.999999737313,0.0,0.0,0.0,0.0,0.0,0.0
1609054431463144302,327,1609054431463144302,-0.000992420514072,0.008173995972,0.0447031838321,0.00041701336605,0.000573006112767,0.000617664975373,0.999999558126,0.0,0.0,0.0,0.0,0.0,0.0
1609054431533016443,328,1609054431533016443,-0.00795876619878,0.010203172577,0.0332024987464,-0.000128229940222,-0.000916374232111,0.000516397270508,0.999999438574,0.0,0.0,0.0,0.0,0.0,0.0
1609054431634747028,329,1609054431634747028,0.000799640418711,0.00795860303571,0.0297924715175,0.00016874174997,0.000375120715729,0.000523823143533,0.999999778209,0.0,0.0,0.0,0.0,0.0,0.0
1609054431738070488,330,1609054431738070488,-0.00448477490475,0.00924765839023,0.0422397644346,0.00130779984083,-0.000201670456995,0.000765614772207,0.99999883141,0.0,0.0,0.0,0.0,0.0,0.0
1609054431841289282,331,1609054431841289282,-0.00721431136916,0.0104758016844,0.0266506628032,0.000765205258539,-0.000526398853832,0.000712577893872,0.999999314798,0.0,0.0,0.0,0.0,0.0,0.0
1609054431944489479,332,1609054431944489479,-0.00666413438355,0.0121345260922,0.0370451198657,-0.00017630297665,0.000134925310758,0.000475120879634,0.999999862486,0.0,0.0,0.0,0.0,0.0,0.0
1609054432047637463,333,1609054432047637463,-0.0101406850702,0.00811889959427,0.0384290977454,-8.40836212809e-05,0.000138498971476,0.00070100550625,0.999999741169,0.0,0.0,0.0,0.0,0.0,0.0
1609054432150818825,334,1609054432150818825,-0.00391051691097,0.00778846000602,0.0124671572689,0.000209887954123,-4.94154461187e-05,0.000664790564779,0.999999755779,0.0,0.0,0.0,0.0,0.0,0.0
1609054432254003048,335,1609054432254003048,0.00150676871957,0.00431360043856,0.0124338302115,-0.000215363647343,-0.000518280452736,0.000178235264266,0.999999826617,0.0,0.0,0.0,0.0,0.0,0.0
1609054432357525110,336,1609054432357525110,-0.0103638493582,0.012138507403,0.0348067408913,-0.000241220179511,-0.000318374369096,0.00101221841848,0.999999407931,0.0,0.0,0.0,0.0,0.0,0.0
1609054432460311890,337,1609054432460311890,-0.00371703048504,0.0038318037835,0.0187857736958,-0.00105892695981,-0.000356418382332,0.00029595784998,0.999999332023,0.0,0.0,0.0,0.0,0.0,0.0
1609054432563188553,338,1609054432563188553,-0.00683137091885,0.0122394544752,0.0396086553682,0.000774568606478,-6.56609761225e-05,0.000389837341671,0.999999621879,0.0,0.0,0.0,0.0,0.0,0.0
1609054432633408546,339,1609054432633408546,-0.00562157372861,0.0100924164589,0.0279055381995,-0.00088784356148,-9.83465141696e-06,0.000664820044778,0.999999384825,0.0,0.0,0.0,0.0,0.0,0.0
1609054432735041857,340,1609054432735041857,-0.00897581383949,0.00966473002653,0.0546662386646,0.00125808157594,-0.00014057761146,0.000782449783359,0.999998892619,0.0,0.0,0.0,0.0,0.0,0.0
1609054432838198423,341,1609054432838198423,-0.00510924771039,0.0118450904756,0.0391843547941,-0.000764462360334,0.000158177574242,0.000175764170487,0.999999679841,0.0,0.0,0.0,0.0,0.0,0.0
1609054432941175461,342,1609054432941175461,-0.00627617086422,0.0083317700435,0.0351365236704,0.00131846956777,0.000183507945483,0.000570299521713,0.999998951359,0.0,0.0,0.0,0.0,0.0,0.0
1609054433044056416,343,1609054433044056416,-0.00947547230613,0.0102381413549,0.0232659974997,0.000346126091385,-0.000758562161433,0.000515023610462,0.999999519765,0.0,0.0,0.0,0.0,0.0,0.0
1609054433147265673,344,1609054433147265673,-0.0088829156515,0.00736730018834,0.0439901790192,-0.000165500493615,-0.000524820636903,0.000479437520029,0.999999733656,0.0,0.0,0.0,0.0,0.0,0.0
1609054433250477552,345,1609054433250477552,0.00151757855443,0.00918009359699,0.0405279616634,-0.000201172624792,0.000179312438043,0.000419279722597,0.99999987579,0.0,0.0,0.0,0.0,0.0,0.0
1609054433353903770,346,1609054433353903770,-0.010220758528,0.0123708196869,0.0546914143524,-0.00109821290781,-0.000228281460455,0.000237532049078,0.999999342696,0.0,0.0,0.0,0.0,0.0,0.0
1609054433457110167,347,1609054433457110167,-0.00373475336647,0.011794470811,0.0326740895687,0.000423812892253,0.000156914023709,0.000633149591645,0.99999969744,0.0,0.0,0.0,0.0,0.0,0.0
1609054433560226202,348,1609054433560226202,-0.00444616163033,0.00925347483106,0.0454493428961,-0.000980858329179,-4.02160748821e-05,0.000356160061714,0.999999454724,0.0,0.0,0.0,0.0,0.0,0.0
1609054433663214207,349,1609054433663214207,-0.00169200667822,0.0112151884053,0.0424054159848,-0.000926083375486,-0.000302875442236,0.000482133606724,0.999999409091,0.0,0.0,0.0,0.0,0.0,0.0
1609054433733787298,350,1609054433733787298,-0.0170550473786,0.00953771948132,0.035396059452,0.000612654862973,0.00019152544741,0.000318613661175,0.999999743228,0.0,0.0,0.0,0.0,0.0,0.0
1609054433835479975,351,1609054433835479975,-0.00536509028344,0.00978812107849,0.0319023230233,-0.00081749643315,-0.000399785637491,0.0007562338273,0.99999929999,0.0,0.0,0.0,0.0,0.0,0.0
1609054433938646793,352,1609054433938646793,-0.00464422193534,0.0107034566804,0.0471465446998,-0.000214000499716,-0.000483586122579,0.000357945275231,0.999999796111,0.0,0.0,0.0,0.0,0.0,0.0
1609054434042158604,353,1609054434042158604,-0.00889134931537,0.00966228524312,0.0439644245393,0.000410082540924,-8.41609175696e-05,0.000649546735716,0.999999701418,0.0,0.0,0.0,0.0,0.0,0.0
1609054434145127773,354,1609054434145127773,0.00188529840206,0.0119823792936,0.0273986031275,0.000324669567605,-0.000482693131129,0.000365706172173,0.999999763927,0.0,0.0,0.0,0.0,0.0,0.0
1609054434248835087,355,1609054434248835087,-0.0067149984613,0.00712467210398,0.0338055332227,-0.00345085487684,0.000656555987081,0.00102285328138,0.99999330713,0.0,0.0,0.0,0.0,0.0,0.0
1609054434351178408,356,1609054434351178408,-0.00611859647864,0.00947364065488,0.0344368882123,0.00105944006746,-0.000266704247366,0.000956936166607,0.999998945363,0.0,0.0,0.0,0.0,0.0,0.0
1609054434454342365,357,1609054434454342365,0.00370084158697,0.0080174116059,0.032794903545,0.00042820298552,-0.000379359180941,0.0003757596126,0.999999765766,0.0,0.0,0.0,0.0,0.0,0.0
1609054434557760954,358,1609054434557760954,-0.014540424531,0.0101709558836,0.0295866186863,-0.00018761282836,-0.00025675707187,0.000215775415699,0.999999926158,0.0,0.0,0.0,0.0,0.0,0.0
1609054434660351992,359,1609054434660351992,-0.00477291086752,0.00965862940956,0.0465320499686,0.000390432998588,-0.000205630132274,0.000644562939411,0.999999694908,0.0,0.0,0.0,0.0,0.0,0.0
1609054434763684273,360,1609054434763684273,-0.0072684694244,0.0114287771642,0.0410412273419,0.000956476967728,0.000139745906011,0.00058005529912,0.999999364578,0.0,0.0,0.0,0.0,0.0,0.0
1609054434834090710,361,1609054434834090710,-0.010075276812,0.00840797752757,0.0316538145865,-0.000220445900355,0.000274251425331,0.00042640286034,0.999999847184,0.0,0.0,0.0,0.0,0.0,0.0
1609054434935782909,362,1609054434935782909,-0.0027160118034,0.00928645981903,0.0329279151775,0.000686164018064,-0.000439003304432,0.000245605100429,0.999999638066,0.0,0.0,0.0,0.0,0.0,0.0
1609054435038566113,363,1609054435038566113,-0.000529374192374,0.0118380790769,0.014844985321,0.00081695095745,-0.000107556348916,0.000455975972874,0.999999556553,0.0,0.0,0.0,0.0,0.0,0.0
1609054435142088413,364,1609054435142088413,-0.00641015682616,0.0125605921123,0.0345310471977,-0.000854094463832,-0.000610971279484,0.000289216991635,0.999999406794,0.0,0.0,0.0,0.0,0.0,0.0
1609054435245378494,365,1609054435245378494,0.0062946326445,0.00958769592111,0.0417740407201,0.000683125709463,0.000140017998189,0.000551872498704,0.999999604585,0.0,0.0,0.0,0.0,0.0,0.0
