%time,field.header.seq,field.header.stamp,field.pose.pose.position.x,field.pose.pose.position.y,field.pose.pose.position.z,field.pose.pose.orientation.x,field.pose.pose.orientation.y,field.pose.pose.orientation.z,field.pose.pose.orientation.w,field.twist.twist.linear.x,field.twist.twist.linear.y,field.twist.twist.linear.z,field.twist.twist.angular.x,field.twist.twist.angular.y,field.twist.twist.angular.z
1609055986948480844,47,1609055986948480844,0.0097190072792,0.0215119984805,-0.000651847754994,-0.00012291664891,0.000170718861094,-0.000133085551876,0.999999969017,0.0,0.0,0.0,0.0,0.0,0.0
1609055987043408871,48,1609055987043408871,0.0111107240948,0.0130071955991,-0.0021222664811,-0.000151413466524,-0.000122787789064,7.37543827128e-06,0.999999980971,0.0,0.0,0.0,0.0,0.0,0.0
1609055987155035973,49,1609055987155035973,0.0162036208441,0.017123313421,-0.00025918203079,-9.24648273147e-05,-9.89166703673e-05,-0.000155008888048,0.999999978819,0.0,0.0,0.0,0.0,0.0,0.0
1609055987248759985,50,1609055987248759985,0.0150704337349,0.0152321261949,-0.000871957288729,-0.000204760643101,7.49833753683e-06,-9.3820664591e-05,0.999999974607,0.0,0.0,0.0,0.0,0.0,0.0
1609055987343108177,51,1609055987343108177,0.0224241475564,0.011743923522,0.00114375560042,-6.96271503806e-05,0.000300464529353,-7.56792378492e-05,0.999999949573,0.0,0.0,0.0,0.0,0.0,0.0
1609055987454953909,52,1609055987454953909,0.0307529538163,0.010830740034,-0.00173215634268,0.000680237845396,0.000383768369778,2.80142494078e-06,0.999999694995,0.0,0.0,0.0,0.0,0.0,0.0
1609055987548728943,53,1609055987548728943,0.0190163932478,0.0115454344163,-0.0017663255163,-0.000142346721876,0.00033049617079,-0.000255651843722,0.999999902576,0.0,0.0,0.0,0.0,0.0,0.0
1609055987643239737,54,1609055987643239737,0.0230147439081,0.00244373610554,-0.000135860420761,0.000539662181284,0.000767562518052,-3.84447900068e-05,0.999999559067,0.0,0.0,0.0,0.0,0.0,0.0
1609055987755050421,55,1609055987755050421,0.0199605942954,0.00782754976704,-0.000902905105013,0.000217474999593,0.000197179127747,-0.000289865969033,0.999999914901,0.0,0.0,0.0,0.0,0.0,0.0
1609055987848634481,56,1609055987848634481,0.0161178013504,0.00940930404482,-0.00108150631605,0.000306389522099,-0.000271661069735,-0.000282701819001,0.999999876203,0.0,0.0,0.0,0.0,0.0,0.0
1609055987944043875,57,1609055987944043875,0.0182846804744,0.0150031745712,-0.000602753471102,0.000144357841605,-3.29147843867e-05,-0.000505345166551,0.999999861352,0.0,0.0,0.0,0.0,0.0,0.0
1609055988054831743,58,1609055988054831743,0.0180448684687,0.0213314434513,-0.001895356036,-0.000261371117793,0.000267301934983,-0.00043586480791,0.999999835128,0.0,0.0,0.0,0.0,0.0,0.0
1609055988148486614,59,1609055988148486614,0.016828098671,0.0102378453262,-0.0017825218924,-5.86935392203e-05,-0.000101444278656,-7.9839404599e-05,0.999999989945,0.0,0.0,0.0,0.0,0.0,0.0
1609055988242024422,60,1609055988242024422,0.0214075057957,0.0178842693593,-0.00247987254222,-7.47545465017e-05,0.000290860516883,-0.000169102921069,0.999999940608,0.0,0.0,0.0,0.0,0.0,0.0
1609055988354472876,61,1609055988354472876,0.0186762415541,0.0151071213605,-0.00117606663669,0.000275294701863,0.000346192233367,-0.000269644698038,0.999999865828,0.0,0.0,0.0,0.0,0.0,0.0
1609055988448095560,62,1609055988448095560,0.0212912752197,0.012246501662,-0.00157387216974,-0.000217883587892,0.000419239357243,-4.96214391196e-05,0.999999887151,0.0,0.0,0.0,0.0,0.0,0.0
1609055988542609215,63,1609055988542609215,0.0102149666878,0.0180142543351,-0.000459486954497,0.000297622366264,-1.66890703969e-05,-0.000147592056969,0.999999944679,0.0,0.0,0.0,0.0,0.0,0.0
1609055988654456377,64,1609055988654456377,0.0179147997529,0.0180318395266,-0.000190765790149,0.000169638042583,-6.19537293918e-05,-0.000270131772811,0.999999947207,0.0,0.0,0.0,0.0,0.0,0.0
1609055988748525381,65,1609055988748525381,0.0282956072202,0.00603808360263,-0.000882164357028,-2.32313246636e-05,0.000289849141831,-0.000283394814046,0.999999917568,0.0,0.0,0.0,0.0,0.0,0.0
1609055988842123270,66,1609055988842123270,0.0146885487676,0.0221764750209,-0.0021501729584,1.79611445279e-05,7.59970595579e-05,-0.00013948267172,0.999999987223,0.0,0.0,0.0,0.0,0.0,0.0
1609055988954743385,67,1609055988954743385,0.00987907582536,0.0122853246376,-0.00099115422558,0.000166649799629,2.88789184665e-05,-4.75705374799e-05,0.999999984565,0.0,0.0,0.0,0.0,0.0,0.0
1609055989049339056,68,1609055989049339056,0.0143619091196,0.014486861892,-0.00240118825579,-0.000115029113101,-0.000309400338528,-0.000354173199866,0.9999998828,0.0,0.0,0.0,0.0,0.0,0.0
1609055989142338276,69,1609055989142338276,0.0168391996447,0.00970493957185,-0.00211527740279,0.000169889364627,-5.39895873928e-05,-1.11383688229e-05,0.999999984049,0.0,0.0,0.0,0.0,0.0,0.0
1609055989254841805,70,1609055989254841805,0.0238213320272,0.00686493748301,-0.000487862676766,0.000146335215686,0.000341824427047,-0.000339119571672,0.99999987337,0.0,0.0,0.0,0.0,0.0,0.0
1609055989348921061,71,1609055989348921061,0.0209687823985,0.00899151044531,-0.00296574569654,6.13747807103e-06,0.000519655824918,-4.18771777254e-05,0.999999864083,0.0,0.0,0.0,0.0,0.0,0.0
1609055989442510366,72,1609055989442510366,0.0185544873917,0.0128867461462,-0.000570083857012,-0.000202320765749,0.000197230187597,-9.02055242823e-05,0.999999956015,0.0,0.0,0.0,0.0,0.0,0.0
1609055989554576159,73,1609055989554576159,0.023510426586,0.0177004112976,-0.000963725149314,-0.000206736406692,6.95365949649e-05,-0.000326804521496,0.999999922812,0.0,0.0,0.0,0.0,0.0,0.0
1609055989649075508,74,1609055989649075508,0.0253459691851,0.0127869606522,-0.0009840005454,0.000224111808262,-0.000243899382825,-0.000141378176934,0.99999993515,0.0,0.0,0.0,0.0,0.0,0.0
1609055989742198944,75,1609055989742198944,0.0144629478299,0.0120777463952,-0.00187181383199,-0.000169797240665,-0.000104873209542,-0.000284865883731,0.999999939511,0.0,0.0,0.0,0.0,0.0,0.0
1609055989854645014,76,1609055989854645014,0.0263912320138,0.0151777336668,-0.00156511839889,0.000173370118111,-5.10912098549e-05,-0.000354717445324,0.999999920754,0.0,0.0,0.0,0.0,0.0,0.0
1609055989949838161,77,1609055989949838161,0.0111601647631,0.00990500379256,-0.00138888591449,-8.63190542997e-05,0.000158618694384,4.95095607557e-05,0.999999982469,0.0,0.0,0.0,0.0,0.0,0.0
1609055990042352915,78,1609055990042352915,0.0196972956144,0.0140075225184,-0.00440266344714,-0.000261484883428,7.62752866096e-05,-0.000292613970173,0.999999920092,0.0,0.0,0.0,0.0,0.0,0.0
1609055990155371189,79,1609055990155371189,0.0212980800391,0.00970779311049,-0.00409148807578,-0.000148725305804,5.73359260734e-05,-0.000530691487011,0.99999984648,0.0,0.0,0.0,0.0,0.0,0.0
1609055990248407125,80,1609055990248407125,0.0189841234771,0.0205275807286,-0.00222064164596,0.000236321327391,-4.98251727439e-05,-0.000344711748791,0.999999911422,0.0,0.0,0.0,0.0,0.0,0.0
1609055990342290401,81,1609055990342290401,0.0215504033802,0.0168170375623,-0.0018593598337,0.000221803874732,-0.000220209598439,-0.000261071594917,0.999999917076,0.0,0.0,0.0,0.0,0.0,0.0
1609055990454520941,82,1609055990454520941,0.0193321412874,0.0149821687287,-0.00126166811911,-0.000179068429238,0.00024416193184,-0.0003638512662,0.999999887966,0.0,0.0,0.0,0.0,0.0,0.0
1609055990548463821,83,1609055990548463821,0.0227035324286,0.0118271993105,-0.00195829649541,0.000189124541258,4.00323526488e-05,-0.000164086609699,0.999999967852,0.0,0.0,0.0,0.0,0.0,0.0
1609055990642499447,84,1609055990642499447,0.0251025137388,0.0155336062671,-0.00198050902069,0.000351625426488,0.00029328215817,-0.000169792514261,0.999999880758,0.0,0.0,0.0,0.0,0.0,0.0
1609055990754375935,85,1609055990754375935,0.0212906215521,0.00458442395713,0.000225972003006,0.000476623300168,-0.000182594118543,-0.000252148024928,0.999999837955,0.0,0.0,0.0,0.0,0.0,0.0
1609055990848350048,86,1609055990848350048,0.0218990379278,0.0184889602217,-0.000947086904712,2.97401977715e-05,-0.000143375944787,-0.000380170807665,0.999999917014,0.0,0.0,0.0,0.0,0.0,0.0
1609055990942098141,87,1609055990942098141,0.0256961743614,0.0138521784507,-0.00309308987337,-0.000131766454818,0.000174820524009,-0.000430677858659,0.999999883296,0.0,0.0,0.0,0.0,0.0,0.0
1609055991054707289,88,1609055991054707289,0.0210935791859,0.0157599239388,-0.00188640891009,-0.00022115846239,0.000521479436669,-0.000128394092168,0.999999831331,0.0,0.0,0.0,0.0,0.0,0.0
1609055991148312330,89,1609055991148312330,0.022244384705,0.0121963277414,-0.00414838919495,-9.13689443679e-05,-0.000188434680584,-0.000389496244661,0.999999902218,0.0,0.0,0.0,0.0,0.0,0.0
1609055991244228840,90,1609055991244228840,0.0187957792147,0.0113148145511,-0.00198187679634,4.05926013888e-05,-0.000182804148099,-0.000285942079115,0.999999941586,0.0,0.0,0.0,0.0,0.0,0.0
1609055991354644775,91,1609055991354644775,0.0240138025157,0.0110243843462,-0.00224992500379,-0.000119297055423,0.000108402338244,-0.000318306542918,0.999999936349,0.0,0.0,0.0,0.0,0.0,0.0
1609055991453095913,92,1609055991453095913,0.0165835930795,0.00872517265102,-0.000939533423037,0.000306985230025,-6.4367830739e-05,-0.00026045784925,0.999999916889,0.0,0.0,0.0,0.0,0.0,0.0
1609055991546940565,93,1609055991546940565,0.027605475406,0.00669693196098,-0.000687476783534,-0.000326336850449,-0.000297296540286,-0.000142892864724,0.99999989235,0.0,0.0,0.0,0.0,0.0,0.0
1609055991642104149,94,1609055991642104149,0.033863035599,0.0174152765658,-0.00083729455736,1.53029201784e-05,0.000674619215755,-0.000272528113688,0.999999735191,0.0,0.0,0.0,0.0,0.0,0.0
1609055991753189087,95,1609055991753189087,0.023002176743,0.0166005059607,-0.00303876651478,0.000336088516992,0.000205699484267,-0.000123990163248,0.999999914679,0.0,0.0,0.0,0.0,0.0,0.0
1609055991846676350,96,1609055991846676350,0.0210491359135,0.0153004917193,-0.00240432752167,-9.4899330131e-05,0.000522637657684,-0.000363967455067,0.999999792686,0.0,0.0,0.0,0.0,0.0,0.0
1609055991943787813,97,1609055991943787813,0.0157783190602,0.0268472209982,-0.00246698419159,-0.000251256335604,-0.000115589507905,-0.00058740178343,0.999999789234,0.0,0.0,0.0,0.0,0.0,0.0
1609055992052787542,98,1609055992052787542,0.0298698732596,0.0142939831143,-0.00108962362873,0.00011662725531,0.000306021497993,-0.00028910345088,0.999999904584,0.0,0.0,0.0,0.0,0.0,0.0
1609055992146739244,99,1609055992146739244,0.0148191192329,0.012937760249,-0.000239605930888,0.000372536221165,0.000245229113862,-0.000104465095958,0.999999895083,0.0,0.0,0.0,0.0,0.0,0.0
1609055992243468523,100,1609055992243468523,0.0198271872403,0.00474978305374,-0.00180606740165,0.000492502356442,8.40765624211e-05,-0.000140704446128,0.999999865287,0.0,0.0,0.0,0.0,0.0,0.0
1609055992352989674,101,1609055992352989674,0.00831630607947,0.0174854534015,-0.00188567570749,0.000210818047968,-0.0005799371193,-0.000357937418845,0.999999745555,0.0,0.0,0.0,0.0,0.0,0.0
1609055992447055340,102,1609055992447055340,0.0234502270819,0.0212101080495,-0.0025017409571,0.000144990785106,0.000244590646042,-0.00020572999683,0.999999938414,0.0,0.0,0.0,0.0,0.0,0.0
1609055992541869164,103,1609055992541869164,0.0214853842669,0.00613972209631,-0.00328962454615,-3.05314047952e-05,-2.5474953543e-05,-0.000300416739395,0.999999954084,0.0,0.0,0.0,0.0,0.0,0.0
1609055992654246807,104,1609055992654246807,0.0203371593634,0.0155279222495,-0.00285065003399,-1.73648268749e-05,-0.000151468807668,-0.000248747201355,0.99999995744,0.0,0.0,0.0,0.0,0.0,0.0
1609055992746981621,105,1609055992746981621,0.0296440211101,0.0101691341174,-0.00349471457627,-0.000228726687509,-0.00026555087937,-0.000466233814282,0.999999829896,0.0,0.0,0.0,0.0,0.0,0.0
1609055992842277765,106,1609055992842277765,0.0178857697408,0.00847602694951,-0.000973728667717,1.12616444811e-06,-0.000167476458874,-0.000425018662925,0.999999895655,0.0,0.0,0.0,0.0,0.0,0.0
1609055992952941179,107,1609055992952941179,0.0206495578901,0.0092786467854,-0.00278335407106,0.000198641343093,2.45924674017e-05,-0.000389678573029,0.999999904044,0.0,0.0,0.0,0.0,0.0,0.0
1609055993047142267,108,1609055993047142267,0.0233011754432,0.0104358648789,-0.00378392655817,0.000188846498776,0.00028940313331,-0.000377163609213,0.999999869165,0.0,0.0,0.0,0.0,0.0,0.0
1609055993142177105,109,1609055993142177105,0.0210203837435,0.0191974610996,-0.00154652536702,-4.90488461593e-05,0.000167927009494,-0.000230772355534,0.999999958069,0.0,0.0,0.0,0.0,0.0,0.0
1609055993253173351,110,1609055993253173351,0.0370613663897,0.01650836853,-0.00329309615859,-0.000305107237281,0.000238393894368,-0.000330319540486,0.999999870483,0.0,0.0,0.0,0.0,0.0,0.0
1609055993346942902,111,1609055993346942902,0.0183527905857,0.0191491733349,-0.000696350356759,5.35507136761e-05,-0.000132210366695,-0.000250390531715,0.999999958479,0.0,0.0,0.0,0.0,0.0,0.0
1609055993442277193,112,1609055993442277193,0.0224417792058,0.0200661232357,-0.00341637891547,-0.000260182175234,-0.000339557091339,-0.000208024802353,0.999999886866,0.0,0.0,0.0,0.0,0.0,0.0
1609055993553157330,113,1609055993553157330,0.0243326094143,0.00472257297178,-0.00193580373564,0.000110462813277,4.05635000469e-05,-0.000112567837098,0.99999998674,0.0,0.0,0.0,0.0,0.0,0.0
1609055993647142649,114,1609055993647142649,0.0232562103771,0.0139696304607,-0.00170024344884,-5.47962071487e-05,2.97498062226e-05,-0.000321656687712,0.999999946325,0.0,0.0,0.0,0.0,0.0,0.0
1609055993743474007,115,1609055993743474007,0.0306694331351,0.019871287806,-0.00162809368455,2.29122089934e-05,9.73688080203e-05,-0.000360147681152,0.999999930144,0.0,0.0,0.0,0.0,0.0,0.0
1609055993853214264,116,1609055993853214264,0.0281886720044,0.00440265282399,-0.00112722698202,0.000277898879415,0.000165745542871,-0.000110429598008,0.999999941553,0.0,0.0,0.0,0.0,0.0,0.0
1609055993946878195,117,1609055993946878195,0.0310755637292,0.0178224286387,-0.000763141935336,0.000118370627101,0.000120792972387,-0.00037130200312,0.999999916766,0.0,0.0,0.0,0.0,0.0,0.0
1609055994043884754,118,1609055994043884754,0.0229325335145,0.0149059216721,-0.00245101397199,-5.7505770531e-05,0.000412316554995,-0.000175480985141,0.999999897947,0.0,0.0,0.0,0.0,0.0,0.0
1609055994153218985,119,1609055994153218985,0.0297899220771,0.0146379167961,-0.00131221216564,0.000272861625846,6.21609573917e-05,-0.00043832066718,0.999999864779,0.0,0.0,0.0,0.0,0.0,0.0
1609055994246809483,120,1609055994246809483,0.0211567390993,0.0177737052878,-0.00269198364718,0.000304413545594,-9.91533493663e-06,-0.000205368959652,0.999999932529,0.0,0.0,0.0,0.0,0.0,0.0
1609055994342040777,121,1609055994342040777,0.0208903332971,0.0109149074882,-0.0017245597084,0.000227907907767,-0.000349763748215,-0.000361150767142,0.999999847647,0.0,0.0,0.0,0.0,0.0,0.0
1609055994453434229,122,1609055994453434229,0.0240993343686,0.0246570615762,-0.00282356960054,8.08611835318e-05,0.00011077699384,-0.000292328909108,0.999999947867,0.0,0.0,0.0,0.0,0.0,0.0
1609055994546814919,123,1609055994546814919,0.0172788109256,0.0138487406756,-0.00330785626485,0.000257227000934,0.000574313273349,-0.0001278860845,0.999999793822,0.0,0.0,0.0,0.0,0.0,0.0
1609055994642157555,124,1609055994642157555,0.0313361852716,0.0136770788333,-0.000103130936684,-7.07132718671e-05,-0.000140517327759,-0.000465961961351,0.999999879067,0.0,0.0,0.0,0.0,0.0,0.0
1609055994752910376,125,1609055994752910376,0.0352283363986,-0.000415560152523,-0.000776264864533,-9.09203752401e-05,0.000229162385132,-0.000333743047756,0.999999913917,0.0,0.0,0.0,0.0,0.0,0.0
1609055994846797228,126,1609055994846797228,0.0235702145912,0.0123445760581,-0.00295571147869,0.000242307229884,0.000201424362176,-0.000238257142907,0.999999921974,0.0,0.0,0.0,0.0,0.0,0.0
1609055994943265915,127,1609055994943265915,0.031583618044,0.0181076564881,-0.0039353280229,-6.89392949673e-05,0.000140480140112,-0.00019470742876,0.999999968801,0.0,0.0,0.0,0.0,0.0,0.0
1609055995053593874,128,1609055995053593874,0.027243504771,0.0120781955432,-0.00127897276388,2.498776996e-05,0.00033646092385,-7.87412273037e-05,0.999999939985,0.0,0.0,0.0,0.0,0.0,0.0
1609055995146581888,129,1609055995146581888,0.0109536346662,0.0131012195486,-0.00154652977325,-0.000193138716142,-0.000414951358246,-0.000124554510347,0.999999887499,0.0,0.0,0.0,0.0,0.0,0.0
1609055995243135452,130,1609055995243135452,0.0294355226581,0.00932605746311,-0.00452781314295,9.73255445649e-05,-1.09224937811e-05,-0.000270007119458,0.999999958752,0.0,0.0,0.0,0.0,0.0,0.0
1609055995353129864,131,1609055995353129864,0.0239832624994,0.00472112951986,-0.00317759054545,0.00024002040584,-2.41395014231e-06,-6.05810912585e-05,0.999999969357,0.0,0.0,0.0,0.0,0.0,0.0
1609055995447021484,132,1609055995447021484,0.0311666732578,0.0120094892439,-0.00132991810994,-0.000137687061083,0.000349275377917,-1.01509250796e-05,0.999999929473,0.0,0.0,0.0,0.0,0.0,0.0
1609055995542001486,133,1609055995542001486,0.0247430468278,0.0135011328473,-0.00165159744679,0.000402484660543,5.37652909988e-05,-0.000194843614611,0.999999898575,0.0,0.0,0.0,0.0,0.0,0.0
1609055995653618813,134,1609055995653618813,0.0305474273061,0.00171889594173,-0.00187960781571,0.000213481729393,0.000128297187681,-3.14930167561e-05,0.999999968487,0.0,0.0,0.0,0.0,0.0,0.0
1609055995746975899,135,1609055995746975899,0.0203628152578,0.0198335503947,-0.00408436119248,-0.000134843945574,-1.51152860649e-05,-0.000200004675491,0.999999970793,0.0,0.0,0.0,0.0,0.0,0.0
1609055995842116594,136,1609055995842116594,0.0360616704974,-0.00262649551275,-0.00222138907016,0.000247241270431,3.00931449867e-05,-5.72516418039e-05,0.999999967344,0.0,0.0,0.0,0.0,0.0,0.0
1609055995952973127,137,1609055995952973127,0.0305205500614,0.00622668499893,-0.00151746827915,0.000397091328817,0.000261192534399,-3.19674231331e-05,0.999999886537,0.0,0.0,0.0,0.0,0.0,0.0
1609055996046935797,138,1609055996046935797,0.01640419008,0.00812115856431,-0.00241151412532,0.000196667637453,-4.03373713054e-05,-7.69005725549e-05,0.99999997689,0.0,0.0,0.0,0.0,0.0,0.0
1609055996142228127,139,1609055996142228127,0.0390518040089,0.0146680566445,-0.00277833182821,1.60061748497e-06,0.000409706647431,-0.000238041510672,0.999999887737,0.0,0.0,0.0,0.0,0.0,0.0
1609055996252979517,140,1609055996252979517,0.028481555416,0.0214533219294,-0.00371098566714,-0.000153038285674,0.000123113613375,-0.000234467538171,0.999999953223,0.0,0.0,0.0,0.0,0.0,0.0
1609055996348141193,141,1609055996348141193,0.0197653650083,0.0120102760228,-0.00232330945029,0.000185394598844,-0.000309846422965,-9.29442829032e-05,0.999999930492,0.0,0.0,0.0,0.0,0.0,0.0
1609055996442091465,142,1609055996442091465,0.0238787801157,0.00629525797078,-0.00333298509993,-0.000204007997577,-1.6053803005e-05,-7.22602738168e-05,0.999999976451,0.0,0.0,0.0,0.0,0.0,0.0
1609055996553064585,143,1609055996553064585,0.0365182311554,0.0146717064934,-0.00236122522549,6.2151483375e-05,0.000434560499945,-0.000228211524069,0.999999877607,0.0,0.0,0.0,0.0,0.0,0.0
1609055996647095203,144,1609055996647095203,0.0274972769973,0.0135062519994,-0.00020799996507,0.000574244688889,0.000378973788347,-0.000258358833751,0.999999729936,0.0,0.0,0.0,0.0,0.0,0.0
1609055996742244005,145,1609055996742244005,0.0217833882098,0.00183990249526,-0.00215935800899,-4.18771134276e-05,7.42716995784e-05,-0.000110244232898,0.999999990288,0.0,0.0,0.0,0.0,0.0,0.0
1609055996842350960,146,1609055996842350960,0.0285321289215,0.00943500227146,-0.00226846492757,0.00018420284925,-9.07844963771e-05,-0.000140531598709,0.999999969039,0.0,0.0,0.0,0.0,0.0,0.0
1609055996951497316,147,1609055996951497316,0.0348900752361,0.0094411112547,-0.00135799468692,8.01682349249e-05,0.000354405771857,-0.000144622262693,0.999999923527,0.0,0.0,0.0,0.0,0.0,0.0
1609055997046060324,148,1609055997046060324,0.0369269494853,0.000166916198453,-0.0017913223783,4.03859177873e-05,3.60775810177e-05,-7.79473935334e-05,0.999999995496,0.0,0.0,0.0,0.0,0.0,0.0
1609055997142051458,149,1609055997142051458,0.0306601346382,0.0133956008769,-0.00155424107977,-0.00023630921396,0.000186953232893,-4.63632457287e-05,0.999999953528,0.0,0.0,0.0,0.0,0.0,0.0
1609055997253302336,150,1609055997253302336,0.0248824279254,0.016923684026,-0.00437769848982,0.000130948625213,-0.000333100004508,-0.000230197194439,0.999999909453,0.0,0.0,0.0,0.0,0.0,0.0
1609055997347134829,151,1609055997347134829,0.0285245560943,0.00977625870528,-0.00168571608527,-2.60857741903e-05,0.000114853995293,-7.78332778189e-05,0.999999990035,0.0,0.0,0.0,0.0,0.0,0.0
1609055997442186117,152,1609055997442186117,0.0352921197558,0.007091893953,-0.00281871819789,-0.000110630288746,-4.81629673724e-05,-0.00032075105136,0.99999994128,0.0,0.0,0.0,0.0,0.0,0.0
1609055997553153276,153,1609055997553153276,0.0368153344951,0.0169871044923,-0.002544047238,-0.000105360462894,0.000161998629835,-0.000252332212068,0.999999949492,0.0,0.0,0.0,0.0,0.0,0.0
1609055997647198200,154,1609055997647198200,0.0300927372118,0.0204338325613,-0.00242083203941,-9.44669120164e-06,0.000156593722757,-9.72099820526e-05,0.999999982969,0.0,0.0,0.0,0.0,0.0,0.0
1609055997742726326,155,1609055997742726326,0.031461646155,0.0184247442204,-0.00157614737,-5.19445797487e-06,-0.000172997714312,-0.000343049407472,0.999999926181,0.0,0.0,0.0,0.0,0.0,0.0
1609055997852991581,156,1609055997852991581,0.0318759526231,0.00726136344902,-0.0012697997605,0.000535354076221,0.00021962109679,-5.72057466245e-05,0.999999830945,0.0,0.0,0.0,0.0,0.0,0.0
1609055997946794271,157,1609055997946794271,0.0351617522407,0.00575588260358,-0.00287972212798,-0.000391042571088,0.000168875810333,-0.000295924743731,0.999999865497,0.0,0.0,0.0,0.0,0.0,0.0
1609055998042378187,158,1609055998042378187,0.0312567326652,0.0138984820227,-0.00335109745043,0.000399431670933,-0.000184486773501,-0.000335978329144,0.999999846768,0.0,0.0,0.0,0.0,0.0,0.0
1609055998153190136,159,1609055998153190136,0.0325396034396,0.0189594814634,-0.00259334670865,-5.3381947679e-06,-3.0555967525e-05,-0.000150593793946,0.999999988179,0.0,0.0,0.0,0.0,0.0,0.0
1609055998247286797,160,1609055998247286797,0.0274352216446,0.0106881624775,-0.00235287649408,0.000214995825423,-0.000199177257088,-0.0002164327919,0.999999933631,0.0,0.0,0.0,0.0,0.0,0.0
1609055998342132807,161,1609055998342132807,0.0336907708978,0.00673674199703,-0.00296273821524,-8.83355355854e-05,-0.000142505471768,-0.000108664436348,0.99999998004,0.0,0.0,0.0,0.0,0.0,0.0
1609055998443231583,162,1609055998443231583,0.034438952018,0.00184390638286,-0.0010208336358,0.00033428371311,0.000411782859202,-0.000165903107151,0.999999845582,0.0,0.0,0.0,0.0,0.0,0.0
1609055998553320646,163,1609055998553320646,0.033077983579,0.0018095940491,-0.00187785923107,-0.000232887678567,-7.69716069553e-05,-0.000316228422397,0.999999919919,0.0,0.0,0.0,0.0,0.0,0.0
1609055998645436287,164,1609055998645436287,0.0235256018617,0.00620196551058,-0.00213935104351,-9.68430978111e-05,-8.88309636927e-05,-0.000165007383486,0.999999977751,0.0,0.0,0.0,0.0,0.0,0.0
1609055998742155075,165,1609055998742155075,0.0308357538318,0.000781814921599,-0.00161946335137,0.000113864826917,-0.000172434379761,-0.000176423293008,0.999999963088,0.0,0.0,0.0,0.0,0.0,0.0
1609055998851514816,166,1609055998851514816,0.0378330296471,0.0216995920657,-0.00193912821964,0.000258835769012,0.000329385949394,-0.000400631815203,0.999999832001,0.0,0.0,0.0,0.0,0.0,0.0
1609055998945259333,167,1609055998945259333,0.0418525740753,0.00293949340185,-0.00284637533274,-0.000304676473677,0.000586818180365,1.9164515528e-05,0.999999781224,0.0,0.0,0.0,0.0,0.0,0.0
1609055999042351961,168,1609055999042351961,0.0288941636593,0.0106163528522,-0.00253453629908,-1.99790469476e-05,0.00041148199777,-0.000220413508975,0.99999989085,0.0,0.0,0.0,0.0,0.0,0.0
1609055999152014494,169,1609055999152014494,0.0328590656918,0.0094367369132,-0.00121413361815,0.000173444903909,0.000367827484054,-0.000140394097809,0.999999907454,0.0,0.0,0.0,0.0,0.0,0.0
1609055999245440960,170,1609055999245440960,0.0379429915606,0.0120891884815,-0.00258640765303,-0.00020148101618,0.000369241961,-0.000191709397036,0.999999893156,0.0,0.0,0.0,0.0,0.0,0.0
1609055999342576265,171,1609055999342576265,0.0251928613576,0.0142463400334,-0.00199669346123,0.000394275889814,-7.782213181e-05,-0.00027115681416,0.999999882482,0.0,0.0,0.0,0.0,0.0,0.0
1609055999451529741,172,1609055999451529741,0.0331878776237,0.010223573711,-0.00134367199645,0.000298193688544,-3.17256444654e-05,-0.000176661024691,0.999999939432,0.0,0.0,0.0,0.0,0.0,0.0
1609055999545406103,173,1609055999545406103,0.0204441173062,0.0179379950163,-0.00232634895313,-8.72512748938e-05,-7.81198983709e-05,-0.000322748500276,0.999999941059,0.0,0.0,0.0,0.0,0.0,0.0
1609055999643129826,174,1609055999643129826,0.0275873483095,0.0185262082693,-0.00301882253081,-6.50391026893e-05,1.45015764342e-05,-0.000322788175402,0.999999945683,0.0,0.0,0.0,0.0,0.0,0.0
1609055999751463652,175,1609055999751463652,0.0328315633249,0.0103097957972,-0.00294644460724,0.000255545680325,0.000164743296399,-9.22408876992e-05,0.999999949524,0.0,0.0,0.0,0.0,0.0,0.0
1609055999845542669,176,1609055999845542669,0.0326541944044,0.0112982377384,-0.00195262340765,0.000619230668907,0.000312903327688,-0.00028664317756,0.99999971824,0.0,0.0,0.0,0.0,0.0,0.0
1609055999942207575,177,1609055999942207575,0.0207618664511,0.0160299255483,-0.00312330866652,-0.000106784050227,-0.000351020410638,-7.25012627381e-05,0.999999930062,0.0,0.0,0.0,0.0,0.0,0.0
1609056000051607132,178,1609056000051607132,0.0283979018962,0.0225171191616,-0.00254280687402,-0.00012045346744,0.000479681359985,-0.000386223240075,0.999999803114,0.0,0.0,0.0,0.0,0.0,0.0
1609056000145653963,179,1609056000145653963,0.0312936829053,0.00782115895534,-0.00177397785211,-0.000179881802843,0.000475083749325,-0.000170927778432,0.99999985636,0.0,0.0,0.0,0.0,0.0,0.0
1609056000244156837,180,1609056000244156837,0.036626174349,0.012983600255,-0.000493591149778,0.000300495286467,3.92748335804e-06,-0.000238403343506,0.999999926425,0.0,0.0,0.0,0.0,0.0,0.0
1609056000351586342,181,1609056000351586342,0.0340908605468,0.00283105637747,-0.00127295902658,-7.25791239923e-05,0.000153960105543,-0.000256353314628,0.999999952655,0.0,0.0,0.0,0.0,0.0,0.0
1609056000445257664,182,1609056000445257664,0.0322052615676,0.0216116885569,-0.00312292377661,-0.000311896217746,-3.203321706e-05,-0.000279144107036,0.999999911886,0.0,0.0,0.0,0.0,0.0,0.0
1609056000542326927,183,1609056000542326927,0.0258216251421,0.0155300123951,-0.00217266915991,-0.000137721369783,4.88453672777e-05,3.0167645755e-05,0.999999988868,0.0,0.0,0.0,0.0,0.0,0.0
1609056000652031660,184,1609056000652031660,0.0316017975983,0.0185994542186,-0.00460870112648,8.46260506881e-05,0.000312796126556,-0.000301432960039,0.999999902067,0.0,0.0,0.0,0.0,0.0,0.0
1609056000745265245,185,1609056000745265245,0.0305780037026,0.0245919955947,-0.00250159800194,-0.00068998306861,-1.85760175321e-05,-0.000413377967767,0.999999676348,0.0,0.0,0.0,0.0,0.0,0.0
1609056000843383789,186,1609056000843383789,0.0308285786949,0.0106801212685,-0.00316538951158,1.32108861868e-05,3.80521214256e-05,-0.000246351191191,0.999999968844,0.0,0.0,0.0,0.0,0.0,0.0
1609056000951564550,187,1609056000951564550,0.0333378246492,0.0140165071496,-0.00212970332008,0.000188078814254,0.000217721617696,-0.000348350730555,0.999999897937,0.0,0.0,0.0,0.0,0.0,0.0
1609056001045497417,188,1609056001045497417,0.0294076032991,0.00618479570529,-0.00281543132566,0.000460874502063,-0.000104085922237,-0.000145085418433,0.999999877855,0.0,0.0,0.0,0.0,0.0,0.0
1609056001142189741,189,1609056001142189741,0.0419345944893,0.0178104094045,-0.00277648070127,-0.000422786438197,0.000353102376006,-0.000303140284959,0.999999802338,0.0,0.0,0.0,0.0,0.0,0.0
1609056001251592636,190,1609056001251592636,0.0393247766036,0.00619665390894,-0.00383117925769,-0.000209019136551,-3.22727003959e-05,-0.000171032139513,0.999999963008,0.0,0.0,0.0,0.0,0.0,0.0
1609056001345245600,191,1609056001345245600,0.0329959967153,0.0117520483817,-0.00273015873229,0.000241546730395,-0.000100727050615,-0.000356258803912,0.999999902294,0.0,0.0,0.0,0.0,0.0,0.0
1609056001441905499,192,1609056001441905499,0.0356094891148,0.0130977343617,-0.00309601557861,-0.000527315496172,0.000362545764049,-0.000250843943152,0.999999763788,0.0,0.0,0.0,0.0,0.0,0.0
1609056001551408291,193,1609056001551408291,0.0379544566721,0.00865469614491,-0.00363683235517,-0.000145457409907,0.000278528040311,-5.31835627065e-05,0.999999949217,0.0,0.0,0.0,0.0,0.0,0.0
1609056001645374298,194,1609056001645374298,0.0300623070913,0.0116451423282,-0.00224074762135,0.000109276932457,0.000188899120707,-8.53589010284e-05,0.999999972544,0.0,0.0,0.0,0.0,0.0,0.0
1609056001745228052,195,1609056001745228052,0.0406745118126,0.0160786879225,-0.0017365358308,5.52339865534e-05,0.000170495125637,-0.000279397151735,0.999999944909,0.0,0.0,0.0,0.0,0.0,0.0
1609056001842144489,196,1609056001842144489,0.0222460835866,0.0147572103204,-0.00226531193689,0.000303629890876,-0.000196599280934,-0.000172957187919,0.999999919621,0.0,0.0,0.0,0.0,0.0,0.0
1609056001951433182,197,1609056001951433182,0.0392713816376,0.00985537895609,-0.00166631141393,-4.51829913345e-05,0.000799567175714,2.28827257043e-05,0.999999679063,0.0,0.0,0.0,0.0,0.0,0.0
1609056002045352221,198,1609056002045352221,0.0416793868435,0.0128133648234,-0.00171444069995,-0.000127055458934,4.99752103952e-05,-0.000286922692973,0.999999949517,0.0,0.0,0.0,0.0,0.0,0.0
1609056002141948462,199,1609056002141948462,0.0380504680037,0.0167347865775,-0.00340736261768,0.000193662945963,0.00055667809967,-6.37647135515e-05,0.999999824269,0.0,0.0,0.0,0.0,0.0,0.0
1609056002251665115,200,1609056002251665115,0.0362802560267,0.014519257142,-0.00164509953737,0.000228799178096,0.000644740479186,-0.000232063532233,0.999999739053,0.0,0.0,0.0,0.0,0.0,0.0
1609056002345260859,201,1609056002345260859,0.0320699231136,0.0126794640544,-0.00285447185459,-0.00046086476088,-0.000165224736081,-0.000213263097768,0.999999857411,0.0,0.0,0.0,0.0,0.0,0.0
1609056002442515135,202,1609056002442515135,0.0328351214367,0.0196644243214,-0.00148427282205,-5.69023889113e-05,0.000340645103253,-0.000254892377351,0.999999907876,0.0,0.0,0.0,0.0,0.0,0.0
1609056002551279306,203,1609056002551279306,0.0312936737196,0.0175233840458,-0.00386434943135,-0.000177906410477,0.000487097197941,-0.000189971142023,0.999999847498,0.0,0.0,0.0,0.0,0.0,0.0
1609056002645958424,204,1609056002645958424,0.0399882336891,0.00912778646694,-0.0010388646628,0.000265482021349,0.000260933259626,5.91996896293e-05,0.999999928964,0.0,0.0,0.0,0.0,0.0,0.0
1609056002742298603,205,1609056002742298603,0.0235101529914,0.0163096448054,-0.00400857119106,-0.000307360017174,8.15768419128e-05,-0.000170626099868,0.99999993488,0.0,0.0,0.0,0.0,0.0,0.0
1609056002851812601,206,1609056002851812601,0.0354712027997,0.0136079818581,-0.00263450656482,6.64130037054e-05,0.000341264018772,-0.000219372479204,0.999999915501,0.0,0.0,0.0,0.0,0.0,0.0
1609056002946768761,207,1609056002946768761,0.0362878622546,0.0232653129787,-0.00264372929567,7.60103250968e-05,8.61249399392e-05,-0.000146908750731,0.999999982611,0.0,0.0,0.0,0.0,0.0,0.0
1609056003041858196,208,1609056003041858196,0.0358509912275,0.0131890890212,-0.00241198872217,-0.000209435590492,0.000345109911996,-0.000123323514947,0.999999910913,0.0,0.0,0.0,0.0,0.0,0.0
1609056003151423216,209,1609056003151423216,0.0322242904682,0.00725161766002,-0.001993986441,-2.72487779732e-05,8.01340086234e-05,-4.6041480373e-05,0.999999995358,0.0,0.0,0.0,0.0,0.0,0.0
1609056003245030880,210,1609056003245030880,0.0274639463052,0.0115280417783,-0.00445778662848,-0.000300812789998,0.000171267176758,2.55438679448e-05,0.999999939763,0.0,0.0,0.0,0.0,0.0,0.0
1609056003342184782,211,1609056003342184782,0.0346555699682,0.0150620979092,-0.00382084463474,-0.000108215390166,0.000100805164402,-5.490605541e-05,0.999999987556,0.0,0.0,0.0,0.0,0.0,0.0
1609056003451509476,212,1609056003451509476,0.0300229455333,0.0137802631057,-0.00321130469003,0.00027008765097,-0.000109559987179,-0.000176824024393,0.999999941891,0.0,0.0,0.0,0.0,0.0,0.0
1609056003545015097,213,1609056003545015097,0.0300421688097,0.0161455316618,-0.00272737233682,0.000155036995552,0.000195468937227,1.2504210132e-05,0.999999968799,0.0,0.0,0.0,0.0,0.0,0.0
1609056003641527891,214,1609056003641527891,0.0315948657216,0.0136125433346,-0.00455501801989,-0.000220035554994,0.000206275055054,-0.000164019075389,0.999999941066,0.0,0.0,0.0,0.0,0.0,0.0
1609056003751260996,215,1609056003751260996,0.0246504863399,0.011287258647,-0.0010197342895,-0.000176553699224,-0.000264673340538,-0.000226342602447,0.999999923772,0.0,0.0,0.0,0.0,0.0,0.0
1609056003845069885,216,1609056003845069885,0.0353166234912,0.0172379907199,-0.00346273151494,-0.000164011197659,8.82641362141e-05,-0.000269903537237,0.99999994623,0.0,0.0,0.0,0.0,0.0,0.0
1609056003941593885,217,1609056003941593885,0.0370933551994,0.0184832639429,-0.00377643894169,0.000136183567358,0.000243390053147,1.79315243596e-05,0.999999960946,0.0,0.0,0.0,0.0,0.0,0.0
1609056004051305771,218,1609056004051305771,0.0297053140048,0.00669538842392,-0.00118183700573,-0.000229534724676,-6.05616494609e-05,-0.000236618551443,0.999999943828,0.0,0.0,0.0,0.0,0.0,0.0
1609056004145229101,219,1609056004145229101,0.028327265609,0.0123230200136,-0.00314491177921,1.16329730284e-05,-0.000153157353883,0.000116676497345,0.999999981397,0.0,0.0,0.0,0.0,0.0,0.0
1609056004242073059,220,1609056004242073059,0.0321835913136,0.00956039786572,-0.00191771583908,-0.000196363560638,-0.000248044805131,-0.000269391521771,0.999999913671,0.0,0.0,0.0,0.0,0.0,0.0
1609056004351456165,221,1609056004351456165,0.0371818998996,0.0131267464947,-0.00306362056874,2.02265905926e-05,0.0005008415815,-0.000130892859298,0.999999865807,0.0,0.0,0.0,0.0,0.0,0.0
1609056004445245504,222,1609056004445245504,0.0352434851091,0.0155582375531,-0.00273085130845,-0.000154610209088,0.000443055461151,-1.1344209237e-05,0.999999889834,0.0,0.0,0.0,0.0,0.0,0.0
1609056004541931629,223,1609056004541931629,0.0338366690363,0.0205534565539,-0.00227698058495,0.000161309699319,6.93560146907e-05,-0.000138686084032,0.999999974967,0.0,0.0,0.0,0.0,0.0,0.0
1609056004651268721,224,1609056004651268721,0.0297544581964,0.00134320408309,-0.0017549854432,0.000252066159698,0.000522634150938,3.36095345271e-05,0.999999831093,0.0,0.0,0.0,0.0,0.0,0.0
1609056004744932175,225,1609056004744932175,0.035362224315,0.0136831772042,-0.00177731482273,0.000326185998782,-0.000256600919934,-6.60801087373e-05,0.999999911695,0.0,0.0,0.0,0.0,0.0,0.0
1609056004841744184,226,1609056004841744184,0.0247066674529,0.0149379780811,-0.00362603843131,7.49388244999e-05,-0.000217702705152,-0.000320086340308,0.999999922267,0.0,0.0,0.0,0.0,0.0,0.0
1609056004951519251,227,1609056004951519251,0.0392422759539,0.0119619597923,-0.00290753598144,-8.11616864901e-05,0.000620017821441,8.49140233709e-05,0.99999980089,0.0,0.0,0.0,0.0,0.0,0.0
1609056005044833183,228,1609056005044833183,0.0288943704833,0.0199764558578,-0.00179428377533,4.96030044305e-05,0.000191852374464,-0.000209556621321,0.999999958409,0.0,0.0,0.0,0.0,0.0,0.0
1609056005141534805,229,1609056005141534805,0.0346180447171,0.0186033222417,-0.00385658955453,-0.00028969418123,9.62739512672e-05,-0.000147976801283,0.999999942455,0.0,0.0,0.0,0.0,0.0,0.0
1609056005251033068,230,1609056005251033068,0.0311380389985,0.015615741148,-0.00265263694856,-1.53079159025e-05,2.79577950228e-05,-7.48969571634e-05,0.999999996687,0.0,0.0,0.0,0.0,0.0,0.0
1609056005344730616,231,1609056005344730616,0.0361605519304,0.0140321348086,-0.0045418001527,-0.000227072675124,-3.86177258512e-05,-0.000249577826369,0.999999942328,0.0,0.0,0.0,0.0,0.0,0.0
1609056005441528320,232,1609056005441528320,0.0349821020792,0.0163292346072,-0.0036121389577,8.49536886462e-05,-0.000172078405324,-0.000214710781499,0.999999958535,0.0,0.0,0.0,0.0,0.0,0.0
1609056005550956488,233,1609056005550956488,0.0361038916215,0.00763520667497,-0.0019238588145,-1.11696395002e-05,0.000460008964197,-0.000135648046799,0.999999884933,0.0,0.0,0.0,0.0,0.0,0.0
1609056005644596815,234,1609056005644596815,0.0347865460537,0.00848539759269,-0.00376668632768,0.000163097455659,0.000126386430779,-8.9551408917e-05,0.999999974703,0.0,0.0,0.0,0.0,0.0,0.0
1609056005741646051,235,1609056005741646051,0.0396029424995,0.0146654499528,-0.00153726528637,-0.00041249115984,0.000335520687577,-0.000119424309163,0.999999851507,0.0,0.0,0.0,0.0,0.0,0.0
1609056005851104259,236,1609056005851104259,0.0294832394215,0.0102078580142,-0.00388172165379,9.58713040037e-05,-0.000119895385932,-6.64453871644e-05,0.999999986009,0.0,0.0,0.0,0.0,0.0,0.0
1609056005944968939,237,1609056005944968939,0.0317522913605,0.0129455473081,-0.00323951788353,0.000323061010242,5.9213885261e-05,-8.69757175694e-05,0.99999994228,0.0,0.0,0.0,0.0,0.0,0.0
1609056006042444706,238,1609056006042444706,0.0383129341721,0.00887526460454,-0.00280785166829,-5.42991029904e-05,0.000151856539394,-2.29291110442e-05,0.999999986732,0.0,0.0,0.0,0.0,0.0,0.0
1609056006150946856,239,1609056006150946856,0.0355210482021,0.0139694873833,-0.00255233754513,0.00039672271133,-0.0001085579606,-0.000135067391698,0.999999906291,0.0,0.0,0.0,0.0,0.0,0.0
1609056006245132446,240,1609056006245132446,0.0379720127908,0.016307561786,-0.0046125986971,-0.000269564852232,0.000316760653776,-4.06717972428e-05,0.999999912671,0.0,0.0,0.0,0.0,0.0,0.0
1609056006341852665,241,1609056006341852665,0.0230728000217,0.0105880257735,-0.00264506533737,0.000249890228861,-9.18600989472e-05,1.34949806059e-05,0.999999964467,0.0,0.0,0.0,0.0,0.0,0.0
1609056006451374769,242,1609056006451374769,0.0318486548615,0.0141163524759,-0.00384775381654,-0.000149694682447,0.000398708211057,-0.000211667251973,0.999999886909,0.0,0.0,0.0,0.0,0.0,0.0
1609056006544910908,243,1609056006544910908,0.0396447432279,0.0133169565837,-0.00127698531077,0.000347251917521,3.28956647013e-05,-0.000154647671993,0.999999927208,0.0,0.0,0.0,0.0,0.0,0.0
1609056006642136097,244,1609056006642136097,0.0302679031384,0.015383681649,-0.00336952357313,-0.000155440525535,-6.99790231055e-05,-0.000100629709074,0.999999980407,0.0,0.0,0.0,0.0,0.0,0.0
1609056006751482487,245,1609056006751482487,0.0517010574294,0.00723168198852,-0.00269761154109,-0.000153045639406,0.000295235778176,-9.12527881708e-05,0.999999940542,0.0,0.0,0.0,0.0,0.0,0.0
1609056006844543457,246,1609056006844543457,0.0361571438762,0.0224681987226,-0.00376833254021,-0.000111309049774,0.000469669172738,-3.55452449976e-05,0.999999882878,0.0,0.0,0.0,0.0,0.0,0.0
1609056006942154646,247,1609056006942154646,0.0361532089071,0.0161147560496,-0.00354303762417,-0.000363721762659,8.84577758717e-05,-0.00021396496164,0.99999990705,0.0,0.0,0.0,0.0,0.0,0.0
1609056007051353455,248,1609056007051353455,0.0345387042081,0.00895832386768,-0.0024149244666,-4.22814929052e-05,-0.000207040114084,-0.000202304393449,0.999999957209,0.0,0.0,0.0,0.0,0.0,0.0
1609056007144597054,249,1609056007144597054,0.0300517719024,0.00929298019265,4.88693304013e-05,0.000198646373341,0.000144633192922,-0.000125446301151,0.999999961941,0.0,0.0,0.0,0.0,0.0,0.0
1609056007242010832,250,1609056007242010832,0.0456126878196,0.0149726258739,-0.00234966204014,2.898686128e-05,0.0002227006172,-8.93009866727e-05,0.999999970794,0.0,0.0,0.0,0.0,0.0,0.0
1609056007350898981,251,1609056007350898981,0.030213888894,0.0148182736537,-0.00453677270467,7.9383302094e-05,0.000368001927085,-0.000318661936353,0.999999878363,0.0,0.0,0.0,0.0,0.0,0.0
1609056007444784880,252,1609056007444784880,0.0348932389038,0.0145434223419,-0.00417321939488,0.000195247505346,0.000439484881917,2.01650096814e-05,0.999999884162,0.0,0.0,0.0,0.0,0.0,0.0
1609056007541299820,253,1609056007541299820,0.0387282240657,0.0246019391877,-0.00324937579217,-9.50411514485e-05,0.000231877134726,-9.89018733178e-05,0.999999963709,0.0,0.0,0.0,0.0,0.0,0.0
1609056007650983095,254,1609056007650983095,0.0362872079152,0.0158735231185,-0.0021359199205,0.000221597132639,0.000376038551206,-7.355500813e-05,0.999999902039,0.0,0.0,0.0,0.0,0.0,0.0
1609056007744776964,255,1609056007744776964,0.0448191791512,0.00186512869164,-0.00369343691617,0.00010166160208,0.000207064887429,-0.000283867366644,0.999999933103,0.0,0.0,0.0,0.0,0.0,0.0
1609056007841504812,256,1609056007841504812,0.0385621622247,0.00988976641418,-0.0044882961008,-2.33501867948e-05,4.71974797723e-05,9.67176003713e-07,0.999999998612,0.0,0.0,0.0,0.0,0.0,0.0
1609056007950859547,257,1609056007950859547,0.0392045917051,0.0222692349531,-0.00190055895283,0.00036582396581,-5.27820856642e-05,-0.000335288230135,0.999999875484,0.0,0.0,0.0,0.0,0.0,0.0
1609056008044640541,258,1609056008044640541,0.0365310397615,0.0198295469945,-0.00357671200063,-2.81840043079e-05,-2.38034038292e-05,-0.000324397356044,0.999999946702,0.0,0.0,0.0,0.0,0.0,0.0
1609056008141311169,259,1609056008141311169,0.0326744954314,0.009324060705,-0.00390667642541,0.000246400753041,0.000172512119235,-7.05023209737e-05,0.999999952277,0.0,0.0,0.0,0.0,0.0,0.0
1609056008250856638,260,1609056008250856638,0.03836177898,0.0117789038635,-0.00247730201827,0.000123437741405,0.000263553092215,-0.000116910433628,0.999999950817,0.0,0.0,0.0,0.0,0.0,0.0
1609056008344799995,261,1609056008344799995,0.0420643939978,0.0014063200529,-0.000891303860617,0.000187861697582,-0.000145184093024,6.69867437379e-05,0.99999996957,0.0,0.0,0.0,0.0,0.0,0.0
1609056008441592216,262,1609056008441592216,0.0271150002382,0.0169848361437,-0.00406529960359,-0.000251297228696,-0.000161871874125,-0.000149544774305,0.999999944141,0.0,0.0,0.0,0.0,0.0,0.0
1609056008551826715,263,1609056008551826715,0.0492250118586,0.00104776138507,-0.00164096338643,0.000171454899685,-0.000234878188289,-0.000193415385351,0.999999939012,0.0,0.0,0.0,0.0,0.0,0.0
1609056008644798040,264,1609056008644798040,0.0444224035335,0.010600637118,-0.00229029903982,-4.33313291822e-05,0.000566693922048,-0.000198395373765,0.999999818809,0.0,0.0,0.0,0.0,0.0,0.0
1609056008742173910,265,1609056008742173910,0.031546999177,0.0109581644557,-0.00315655300613,2.43642342803e-05,-2.22129907108e-05,1.27924262396e-05,0.999999999374,0.0,0.0,0.0,0.0,0.0,0.0
1609056008850844145,266,1609056008850844145,0.0364684180752,0.0178307718139,-0.00461835352062,0.000149413075085,3.61410824056e-05,-4.13747145609e-05,0.999999987328,0.0,0.0,0.0,0.0,0.0,0.0
1609056008944663048,267,1609056008944663048,0.0378561659393,0.0201170664815,-0.00318327093414,0.000181439095057,0.000157642441756,-4.93264722881e-05,0.999999969897,0.0,0.0,0.0,0.0,0.0,0.0
1609056009041992426,268,1609056009041992426,0.0369567341628,0.01385749116,-0.00284815366572,0.000224528795249,-9.70052856566e-05,-8.00898707136e-05,0.99999996688,0.0,0.0,0.0,0.0,0.0,0.0
1609056009150979280,269,1609056009150979280,0.04355761092,0.0133585030463,-0.00196110684259,4.64786502628e-05,-1.76077251612e-05,-6.11050262837e-05,0.999999996897,0.0,0.0,0.0,0.0,0.0,0.0
1609056009244320393,270,1609056009244320393,0.0402778881566,0.0172444161311,-0.00174398709714,0.000146294982783,-4.875816696e-05,-0.000122688249705,0.999999980583,0.0,0.0,0.0,0.0,0.0,0.0
1609056009342231989,271,1609056009342231989,0.0381256663461,0.0083389075459,-0.00046568318019,0.00013992601959,0.000601560767801,4.88560284457e-05,0.999999808078,0.0,0.0,0.0,0.0,0.0,0.0
1609056009450739145,272,1609056009450739145,0.040728076318,0.01099264613,-0.00327517893426,-0.0001001165847,1.92858357181e-05,-4.07920841843e-05,0.999999993969,0.0,0.0,0.0,0.0,0.0,0.0
1609056009544654846,273,1609056009544654846,0.0465685758853,0.0188334065086,-0.00296715723553,-0.000118194893649,-2.69298464872e-05,-0.000231395657195,0.99999996588,0.0,0.0,0.0,0.0,0.0,0.0
1609056009641469955,274,1609056009641469955,0.0485555464165,0.00886653762813,-0.00203425972819,-0.000232120114691,-0.000100240221017,1.52203920473e-05,0.999999967919,0.0,0.0,0.0,0.0,0.0,0.0
1609056009751409769,275,1609056009751409769,0.0316109974185,0.0140045513556,-0.00399562741385,-0.000221009902067,2.01566839282e-05,-0.00022971807193,0.999999948988,0.0,0.0,0.0,0.0,0.0,0.0
1609056009844766378,276,1609056009844766378,0.0387922705123,0.0129638760805,-0.00303931916952,7.11775590498e-05,7.4229056102e-05,-0.000181509772821,0.999999978238,0.0,0.0,0.0,0.0,0.0,0.0
1609056009941464186,277,1609056009941464186,0.03567895165,0.0131973685771,-0.00435429145093,-1.9838962076e-05,-6.61161001285e-05,-6.69855871734e-05,0.999999995373,0.0,0.0,0.0,0.0,0.0,0.0
1609056010051091433,278,1609056010051091433,0.0369532269574,0.0108230843545,-0.00279121337006,-8.5721646406e-05,-1.90261171878e-05,-5.89957002444e-05,0.999999994404,0.0,0.0,0.0,0.0,0.0,0.0
1609056010144757509,279,1609056010144757509,0.0376632618679,0.0190083272853,-0.00418331068942,0.000481571296749,8.48395532905e-05,-0.000181793448645,0.99999986392,0.0,0.0,0.0,0.0,0.0,0.0
1609056010241465092,280,1609056010241465092,0.0371596745129,0.0161382309612,-0.00437705018719,-0.000436057743816,-8.68940309409e-05,-0.000281592820726,0.999999861503,0.0,0.0,0.0,0.0,0.0,0.0
1609056010350798368,281,1609056010350798368,0.0497921490163,0.0144709047381,-0.00304509394136,-0.000154944510946,-0.000111327256698,-3.71119817819e-05,0.99999998111,0.0,0.0,0.0,0.0,0.0,0.0
1609056010444632769,282,1609056010444632769,0.0289166217994,0.0205873643583,-0.00343674575176,-0.000141840254497,-0.000229487517346,-0.000322862808957,0.999999911487,0.0,0.0,0.0,0.0,0.0,0.0
1609056010541484356,283,1609056010541484356,0.0358012296209,0.0110599991851,-0.00168854253158,-0.000144739371699,6.85108633049e-06,4.16528308224e-06,0.999999989492,0.0,0.0,0.0,0.0,0.0,0.0
1609056010651660681,284,1609056010651660681,0.0351452804654,0.0101456959088,-0.00504426762909,0.000195058498016,-0.000132318693011,-0.000115480486121,0.999999965553,0.0,0.0,0.0,0.0,0.0,0.0
1609056010744691372,285,1609056010744691372,0.0359023629638,0.0183043729259,-0.00222472797312,7.30115665014e-05,8.3341889157e-05,-0.000212974910154,0.999999971182,0.0,0.0,0.0,0.0,0.0,0.0
1609056010841531754,286,1609056010841531754,0.0302169352643,0.0144678927195,-0.0018267382291,0.000258545916763,-0.000342015438626,-0.000121485939409,0.999999900709,0.0,0.0,0.0,0.0,0.0,0.0
1609056010951144218,287,1609056010951144218,0.0470729747171,0.0104460472459,-0.00242816802219,-0.000225069408985,0.000641230764183,0.00010739984011,0.999999763315,0.0,0.0,0.0,0.0,0.0,0.0
1609056011044315338,288,1609056011044315338,0.0417261432147,0.0164332934112,-0.0023066403126,0.000480500983113,0.00038597996532,-0.000147197143896,0.999999799235,0.0,0.0,0.0,0.0,0.0,0.0
1609056011141441345,289,1609056011141441345,0.0363545882277,0.00719850049857,-0.00424116387615,-0.000196782999869,-0.000366201925852,-0.000230053730452,0.999999887123,0.0,0.0,0.0,0.0,0.0,0.0
1609056011250901461,290,1609056011250901461,0.0302919009631,0.0150165593976,-0.00354867170946,-0.000193206422517,0.000297439316276,-0.000105285779914,0.999999931557,0.0,0.0,0.0,0.0,0.0,0.0
1609056011344425917,291,1609056011344425917,0.0468675844388,0.00811131792031,0.000366232771344,0.000297016559403,8.65148561204e-06,-0.000235975090152,0.99999992801,0.0,0.0,0.0,0.0,0.0,0.0
1609056011442056894,292,1609056011442056894,0.0439238771341,0.00923823756894,-0.0044043568555,-0.000254277692375,0.000281372009029,-0.000115408484234,0.999999921426,0.0,0.0,0.0,0.0,0.0,0.0
1609056011550900221,293,1609056011550900221,0.0379847147757,0.012135542692,-0.00238974780718,6.17757079473e-05,0.000638551845605,-0.000167868752722,0.999999780127,0.0,0.0,0.0,0.0,0.0,0.0
1609056011644686460,294,1609056011644686460,0.0413251972407,0.0133713552247,-0.00242127152388,-0.000207961018794,0.000111543398074,-8.33095108062e-05,0.999999968684,0.0,0.0,0.0,0.0,0.0,0.0
1609056011741434336,295,1609056011741434336,0.0329696636192,0.0127969469674,-0.00212192001237,-0.00022146920283,-9.36037436733e-07,-0.00019035889614,0.999999957356,0.0,0.0,0.0,0.0,0.0,0.0
1609056011850573778,296,1609056011850573778,0.0421512378899,0.00909733988642,-0.0046438838827,-0.000273194613248,0.000335497790704,-0.000149137018648,0.999999895281,0.0,0.0,0.0,0.0,0.0,0.0
1609056011945144176,297,1609056011945144176,0.0241787307076,0.0135303617279,-0.00352706894828,-3.26749661754e-05,8.82252389443e-05,8.9531964997e-05,0.999999991565,0.0,0.0,0.0,0.0,0.0,0.0
1609056012041865587,298,1609056012041865587,0.038460129875,0.0101472373236,-0.0035651989148,-0.000301661583773,0.000210799653438,-0.000133864040843,0.999999923321,0.0,0.0,0.0,0.0,0.0,0.0
1609056012151570320,299,1609056012151570320,0.0280401356568,0.0224909198787,-0.00236378976321,0.000170108997842,0.000189514812383,-0.000177947083418,0.99999995174,0.0,0.0,0.0,0.0,0.0,0.0
1609056012245564461,300,1609056012245564461,0.0370629270122,0.00807199260339,-0.00308059553953,-0.000381779113773,0.000222588213963,-0.000176012208936,0.999999886858,0.0,0.0,0.0,0.0,0.0,0.0
1609056012342035294,301,1609056012342035294,0.0378520265074,0.0114373323433,-0.00207560510847,0.000181008775002,0.000290096870936,-0.000312387005966,0.999999892746,0.0,0.0,0.0,0.0,0.0,0.0
1609056012451623917,302,1609056012451623917,0.0374086469295,0.00643669789737,-0.00346663925999,0.000238681456273,0.000484568449234,-9.69375054124e-07,0.999999854111,0.0,0.0,0.0,0.0,0.0,0.0
1609056012544895411,303,1609056012544895411,0.0344467441526,0.00809454024781,-0.000230200445869,0.000360937102895,-3.84974518041e-05,-0.000157739236624,0.999999921679,0.0,0.0,0.0,0.0,0.0,0.0
1609056012641577005,304,1609056012641577005,0.034882079264,0.0063228284808,-0.00475271439152,-3.74152500546e-05,-9.80877998535e-05,-0.00010138001887,0.999999989349,0.0,0.0,0.0,0.0,0.0,0.0
1609056012751698256,305,1609056012751698256,0.0407262203998,0.0173925914978,-0.00294320040708,-0.000190510705206,0.000328473378057,-9.78020460666e-05,0.999999923122,0.0,0.0,0.0,0.0,0.0,0.0
1609056012844780922,306,1609056012844780922,0.0397799159607,0.0184284719981,-0.00103086579676,0.000156329749393,0.000270468304919,-0.000306178035597,0.99999990433,0.0,0.0,0.0,0.0,0.0,0.0
1609056012942808628,307,1609056012942808628,0.0350829954687,0.0110130350828,-0.00336034366065,0.000917988299683,0.000325739713408,8.6060579082e-05,0.999999521891,0.0,0.0,0.0,0.0,0.0,0.0
1609056013051370859,308,1609056013051370859,0.0382706790182,0.0203769846697,-0.00255481501419,9.92241720386e-05,9.02185154294e-05,-0.000120106614167,0.999999983794,0.0,0.0,0.0,0.0,0.0,0.0
1609056013144576311,309,1609056013144576311,0.0433575546788,0.00289514751211,-0.00317293566872,3.11615248964e-05,1.96185785798e-05,-0.000250603119941,0.99999996792,0.0,0.0,0.0,0.0,0.0,0.0
1609056013241235256,310,1609056013241235256,0.0383135367074,0.0146311192653,-0.00331507887856,-0.000455353576924,0.000323624651827,-0.000180186969421,0.999999827725,0.0,0.0,0.0,0.0,0.0,0.0
1609056013351263523,311,1609056013351263523,0.0406357518722,0.00388166684133,-0.00166529502839,0.000134891029753,-5.25239464299e-06,7.76888446701e-05,0.999999987869,0.0,0.0,0.0,0.0,0.0,0.0
1609056013444447994,312,1609056013444447994,0.0301056017856,0.00674370413277,-0.00220359770938,4.11448393549e-05,5.69507058239e-05,-0.000124984185926,0.99999998972,0.0,0.0,0.0,0.0,0.0,0.0
1609056013541677237,313,1609056013541677237,0.0336290299154,0.00754525573716,-0.00323092270431,-2.47932973567e-05,-0.00010971521503,-0.00020983354762,0.999999971658,0.0,0.0,0.0,0.0,0.0,0.0
1609056013650660038,314,1609056013650660038,0.0339833410755,0.0160815518011,-0.00355823978125,-0.000152571349377,-0.000115677297188,-2.59171266954e-05,0.999999981333,0.0,0.0,0.0,0.0,0.0,0.0
1609056013744572163,315,1609056013744572163,0.0508927607125,0.00653061616486,-0.00212955774557,0.000205756838285,0.000487141278389,-0.000247206883758,0.999999829622,0.0,0.0,0.0,0.0,0.0,0.0
1609056013841505051,316,1609056013841505051,0.0423030218618,0.0170473412045,-0.00163971838842,5.58527089945e-05,0.000702181069377,-0.000106816434563,0.999999746205,0.0,0.0,0.0,0.0,0.0,0.0
1609056013950938463,317,1609056013950938463,0.0353470423272,0.0204931255569,-0.00411611969731,-0.000172367788119,0.000427021535767,5.99968162204e-05,0.99999989217,0.0,0.0,0.0,0.0,0.0,0.0
1609056014044605970,318,1609056014044605970,0.0393804174315,0.00976952003162,-0.00264782251869,0.000268396865297,0.000224292033216,-0.000259757627215,0.99999990509,0.0,0.0,0.0,0.0,0.0,0.0
1609056014141125917,319,1609056014141125917,0.0414099042922,0.0189773060624,-0.00168044608205,-0.000323129894874,0.000117658216945,-0.000143499182305,0.999999930575,0.0,0.0,0.0,0.0,0.0,0.0
1609056014250652313,320,1609056014250652313,0.0424851504751,0.0112188173802,-0.0038642587345,0.000733441300851,0.000220862669516,-0.00020869745764,0.999999684863,0.0,0.0,0.0,0.0,0.0,0.0
1609056014344855309,321,1609056014344855309,0.0303907077278,0.00867065567098,-0.00104037474045,-0.00012858836255,5.32726429753e-05,-0.000185683405732,0.999999973073,0.0,0.0,0.0,0.0,0.0,0.0
1609056014441550970,322,1609056014441550970,0.0436786035528,0.0147124933151,-0.00436952502101,-0.000243128021118,0.00048269164627,-0.000206884417648,0.999999832547,0.0,0.0,0.0,0.0,0.0,0.0
1609056014551293850,323,1609056014551293850,0.0354874400384,0.00714035326283,-0.00428170821179,-0.000151173347846,3.22551887273e-05,-0.000176038503711,0.999999972557,0.0,0.0,0.0,0.0,0.0,0.0
1609056014644738913,324,1609056014644738913,0.0325930451159,0.0194199060551,-0.00295057819307,-0.000157483562224,0.000458578351011,-0.000276285215723,0.999999844284,0.0,0.0,0.0,0.0,0.0,0.0
1609056014741393089,325,1609056014741393089,0.0386313948494,0.00256919726125,-0.00230167459342,0.000356323322555,0.000157165660111,0.000101915525302,0.999999918972,0.0,0.0,0.0,0.0,0.0,0.0
1609056014851256371,326,1609056014851256371,0.0426538867591,0.0181121035375,-0.0033351204817,-0.00023132886899,0.000520803285193,-0.000413044871134,0.999999752321,0.0,0.0,0.0,0.0,0.0,0.0
1609056014944341898,327,1609056014944341898,0.0328905021655,0.006286103714,-0.00306007589634,0.000265989240597,-8.93230195558e-05,-0.000175947553216,0.999999945155,0.0,0.0,0.0,0.0,0.0,0.0
1609056015041097879,328,1609056015041097879,0.0469951044348,0.0182958522828,-0.00190445345602,-0.0003741914649,-5.31135959208e-05,-0.00016778138237,0.999999914503,0.0,0.0,0.0,0.0,0.0,0.0
1609056015151135206,329,1609056015151135206,0.0301291805223,0.0271027431919,-0.0033752872671,0.000169425353703,4.67028836273e-05,-0.000357465266543,0.999999920665,0.0,0.0,0.0,0.0,0.0,0.0
1609056015244224310,330,1609056015244224310,0.0405791918825,0.0131477854039,-0.00288869102132,0.000609631984934,0.000220994832338,-0.000233516323297,0.999999762489,0.0,0.0,0.0,0.0,0.0,0.0
1609056015341521502,331,1609056015341521502,0.0370134318778,0.010954294002,0.000927904592247,0.000232738642402,-0.000107776624392,4.56109889532e-05,0.999999966067,0.0,0.0,0.0,0.0,0.0,0.0
1609056015450983524,332,1609056015450983524,0.0357080897879,0.00914316682967,-0.00256846847226,-0.000438094863035,0.000392197764005,-0.000262918589712,0.999999792562,0.0,0.0,0.0,0.0,0.0,0.0
1609056015544438839,333,1609056015544438839,0.0365627098732,0.0204734966064,-0.00369041704437,0.00027645654502,0.00055969490694,-0.00024150743549,0.999999775992,0.0,0.0,0.0,0.0,0.0,0.0
1609056015641401052,334,1609056015641401052,0.0419081465941,0.00895750295565,-0.00255423505024,-6.19075426242e-05,3.61465542494e-05,4.60709065804e-05,0.999999996368,0.0,0.0,0.0,0.0,0.0,0.0
1609056015750290155,335,1609056015750290155,0.0356065545344,0.00785961778459,-0.00197110831725,1.14722516572e-05,0.00017483244994,-0.000315105439111,0.999999935004,0.0,0.0,0.0,0.0,0.0,0.0
1609056015844399214,336,1609056015844399214,0.0345384643752,0.0196388583587,-0.000462398001742,0.000207830936206,0.000545376400155,-0.000266561126217,0.999999794157,0.0,0.0,0.0,0.0,0.0,0.0
1609056015941080332,337,1609056015941080332,0.0305674507033,0.0131719499179,-0.00451758649989,0.000322650819168,-0.000194712834911,-0.000101283377341,0.999999923861,0.0,0.0,0.0,0.0,0.0,0.0
1609056016050620317,338,1609056016050620317,0.0450841398162,0.0161657423492,-0.00142811876548,8.7321669212e-05,0.000413647853648,-0.000112009697372,0.999999904361,0.0,0.0,0.0,0.0,0.0,0.0
1609056016144357204,339,1609056016144357204,0.0422186228753,0.018608109966,-0.00190840623068,-0.000252625193831,0.000112986268903,-0.00014974510862,0.999999950494,0.0,0.0,0.0,0.0,0.0,0.0
1609056016241121292,340,1609056016241121292,0.0310850242054,0.0154303007093,-0.00295067416611,-0.000162197688271,0.00014164512406,-8.77995981384e-05,0.999999972958,0.0,0.0,0.0,0.0,0.0,0.0
1609056016350661039,341,1609056016350661039,0.0258161984602,0.0080901465945,-0.00119203604804,0.000391086479281,0.000151987230393,-0.000245091091795,0.999999881939,0.0,0.0,0.0,0.0,0.0,0.0
1609056016444407463,342,1609056016444407463,0.0219631439379,0.0136435735397,-0.00284524021614,-0.000384908079522,-0.00019556643032,-9.99292384521e-05,0.999999901805,0.0,0.0,0.0,0.0,0.0,0.0
1609056016541186333,343,1609056016541186333,0.0286638272179,0.00755629287454,-0.00249684038033,8.69316226497e-05,0.000280038233856,6.01497415532e-05,0.9999999552,0.0,0.0,0.0,0.0,0.0,0.0
1609056016650833845,344,1609056016650833845,0.015580395821,0.0206013604259,-0.00257914042112,-0.000258876741676,-0.00022101640207,-0.000159674988182,0.999999929318,0.0,0.0,0.0,0.0,0.0,0.0
1609056016744533777,345,1609056016744533777,0.0211033501544,0.00985008009649,-0.00177678696618,7.34756951776e-05,0.000384784049521,-7.98009670446e-05,0.999999920086,0.0,0.0,0.0,0.0,0.0,0.0
1609056016841274977,346,1609056016841274977,0.0160030101484,-0.00581121074788,-0.00515345783227,0.00090073094317,-0.00161149103736,-0.000449900809916,0.999998194682,0.0,0.0,0.0,0.0,0.0,0.0
1609056016951237202,347,1609056016951237202,0.0575783122904,0.0270480711684,-0.00988548113701,0.000404770405884,-0.00104085158144,-0.000522656229107,0.999999239808,0.0,0.0,0.0,0.0,0.0,0.0
1609056017044466019,348,1609056017044466019,0.0666073268676,0.00748729959163,-0.00652810396217,-0.000159120122807,-0.00033401701543,-0.000451565814882,0.999999829599,0.0,0.0,0.0,0.0,0.0,0.0
1609056017141134739,349,1609056017141134739,0.0753543201155,0.0212709638276,-0.00272128853898,-0.000172006742367,-0.00013093856328,-0.000653011632312,0.999999763421,0.0,0.0,0.0,0.0,0.0,0.0
1609056017250735283,350,1609056017250735283,0.0722563882001,0.00360382530477,-0.003090994135,0.000166704117309,0.0011682483886,-0.000595066933743,0.999999126648,0.0,0.0,0.0,0.0,0.0,0.0
1609056017344448566,351,1609056017344448566,0.0721370395634,0.0159086903662,0.00104322183674,-0.000647625285917,0.0020435170662,-0.000129427553074,0.99999769393,0.0,0.0,0.0,0.0,0.0,0.0
1609056017442029715,352,1609056017442029715,0.0646722738998,0.0103739233501,2.33886349652e-05,-0.000340186603001,0.00212614524463,-2.51362172912e-05,0.99999768157,0.0,0.0,0.0,0.0,0.0,0.0
1609056017551559210,353,1609056017551559210,0.04909003784,0.0245879775189,-0.00300011779782,0.000443049272405,0.00177863305028,-0.000462778497559,0.999998213001,0.0,0.0,0.0,0.0,0.0,0.0
1609056017644587994,354,1609056017644587994,0.0261711014577,0.025793383681,-0.00556129964702,-0.000358214928848,0.00139136736219,-0.000529789468149,0.999998827549,0.0,0.0,0.0,0.0,0.0,0.0
1609056017742115259,355,1609056017742115259,0.00893326423269,0.00716145764648,-0.00225983413712,-0.000157922698426,-0.000477464300163,-0.000431579546838,0.999999780412,0.0,0.0,0.0,0.0,0.0,0.0
1609056017851410151,356,1609056017851410151,0.0164096068967,0.0109731470307,-0.0033953632294,0.000233406149285,-0.000972052140946,-0.000124233554992,0.999999492599,0.0,0.0,0.0,0.0,0.0,0.0
1609056017944707632,357,1609056017944707632,0.0293296850426,0.0217776256998,-0.00372330542555,9.05461953975e-05,-6.98407301299e-05,-0.000497669205752,0.999999869623,0.0,0.0,0.0,0.0,0.0,0.0
1609056018041077852,358,1609056018041077852,0.0549295101279,0.00471040419822,-0.00127583976498,-0.000609640703887,0.000780082183226,-0.000498393963007,0.999999385705,0.0,0.0,0.0,0.0,0.0,0.0
1609056018150662184,359,1609056018150662184,0.0377397384265,0.010514493937,-0.00139435642615,0.000215032260734,0.00131973282214,-0.000319143168204,0.999999055105,0.0,0.0,0.0,0.0,0.0,0.0
1609056018244475126,360,1609056018244475126,0.012752806028,0.00920562495505,-0.00416092369529,0.000218352119072,8.87010300352e-05,-0.000261094132601,0.999999938141,0.0,0.0,0.0,0.0,0.0,0.0
1609056018341184378,361,1609056018341184378,0.0308434474537,0.0234105316382,-0.00587904375569,-0.000279025792283,-0.000548394620193,-0.000266232914248,0.999999775262,0.0,0.0,0.0,0.0,0.0,0.0
1609056018450525522,362,1609056018450525522,0.0376984563879,0.0205173596898,-0.00279726953661,-0.000127656626628,-0.000301807604618,-8.57678582181e-05,0.999999942628,0.0,0.0,0.0,0.0,0.0,0.0
