%time,field.header.seq,field.header.stamp,field.pose.pose.position.x,field.pose.pose.position.y,field.pose.pose.position.z,field.pose.pose.orientation.x,field.pose.pose.orientation.y,field.pose.pose.orientation.z,field.pose.pose.orientation.w,field.twist.twist.linear.x,field.twist.twist.linear.y,field.twist.twist.linear.z,field.twist.twist.angular.x,field.twist.twist.angular.y,field.twist.twist.angular.z
1609055986920151949,47,1609055986920151949,0.0131796017919,0.00459177146504,0.0205664811748,0.00119503989565,-0.0004122738337,0.000867230158231,0.99999882491,0.0,0.0,0.0,0.0,0.0,0.0
1609055987014056206,48,1609055987014056206,0.0106760676495,0.00970362715587,0.00750355065889,-3.04866158575e-05,0.000225162058961,0.00079059129467,0.999999661669,0.0,0.0,0.0,0.0,0.0,0.0
1609055987126441479,49,1609055987126441479,0.00582727300972,0.00746039660709,-0.00583836163277,0.00225056490131,-0.000507332391087,0.00076638091465,0.999997045111,0.0,0.0,0.0,0.0,0.0,0.0
1609055987220296621,50,1609055987220296621,0.0141261266265,0.0091996130286,-0.0147638943174,0.00029212762354,-0.000353711309936,0.000757413488707,0.999999607937,0.0,0.0,0.0,0.0,0.0,0.0
1609055987314067841,51,1609055987314067841,0.00546807952782,0.00928414941533,-0.000760846188835,0.000567699099589,0.000778459594178,0.000588111449898,0.999999362921,0.0,0.0,0.0,0.0,0.0,0.0
1609055987426405430,52,1609055987426405430,0.000684483832509,0.00456544366372,-0.00730614815049,0.0033118836122,-0.00106535266324,0.00106611238981,0.999993379906,0.0,0.0,0.0,0.0,0.0,0.0
1609055987520161629,53,1609055987520161629,0.0186178679428,0.00743830886826,-0.00184957974107,0.00227438735009,-0.00114286899184,0.00106752960559,0.999996190689,0.0,0.0,0.0,0.0,0.0,0.0
1609055987613958120,54,1609055987613958120,0.00988662908035,0.00856841165389,0.0237152031184,0.000824611012892,0.000600050093374,0.000575969771985,0.999999314107,0.0,0.0,0.0,0.0,0.0,0.0
1609055987726783752,55,1609055987726783752,0.0227309204079,0.00781798752818,0.0265910497412,0.00163916686463,-0.000277066312813,0.00107204293379,0.999998043543,0.0,0.0,0.0,0.0,0.0,0.0
1609055987819760799,56,1609055987819760799,0.00396598429337,0.00624669690706,0.00371922268842,0.00034045705554,0.000571748656182,0.000588585567575,0.99999960538,0.0,0.0,0.0,0.0,0.0,0.0
1609055987913817167,57,1609055987913817167,0.017734354092,0.00798632873484,0.00842644943256,0.000467524221709,0.000291275960799,0.000583623618228,0.999999677981,0.0,0.0,0.0,0.0,0.0,0.0
1609055988026404142,58,1609055988026404142,0.00578660785838,0.00954495569417,-0.00859147820506,0.000954476740707,-0.0013670504841,0.000761512895506,0.999998320121,0.0,0.0,0.0,0.0,0.0,0.0
1609055988120002508,59,1609055988120002508,0.0107454952443,0.0104539954448,0.0183049416974,0.00100744367141,0.000536127897298,0.000704229131223,0.999999100842,0.0,0.0,0.0,0.0,0.0,0.0
1609055988213823557,60,1609055988213823557,0.0111908548938,0.0094609966999,0.00897109861809,0.00203394719221,0.000460151660247,0.000895963821105,0.999997424281,0.0,0.0,0.0,0.0,0.0,0.0
1609055988326323032,61,1609055988326323032,0.00773220236469,0.00568841256967,0.0256094559297,0.00188819851407,-0.000396066199146,0.00101953905759,0.999997619186,0.0,0.0,0.0,0.0,0.0,0.0
1609055988420185804,62,1609055988420185804,0.00727108465218,0.00955866649086,0.0323624894154,0.00130034568904,-0.000312058018332,0.00075446431392,0.999998821252,0.0,0.0,0.0,0.0,0.0,0.0
1609055988513975859,63,1609055988513975859,0.0181672233016,0.0137549844765,0.0480561205322,0.000611281948073,1.92219707245e-05,0.000683856793059,0.999999579152,0.0,0.0,0.0,0.0,0.0,0.0
1609055988626756907,64,1609055988626756907,0.0153286808577,0.010518495611,0.0396482477959,-0.000899725237606,-0.000187326389799,0.000626724395407,0.99999938131,0.0,0.0,0.0,0.0,0.0,0.0
1609055988720484734,65,1609055988720484734,0.0122113389565,0.0117503632175,0.0334213228224,0.000454289989095,0.000246260705643,0.000693740971438,0.99999962585,0.0,0.0,0.0,0.0,0.0,0.0
1609055988814056396,66,1609055988814056396,0.0179360919987,0.0109332269363,0.0304301676234,0.00100651799921,-0.000741442481749,0.000750693399832,0.999998936821,0.0,0.0,0.0,0.0,0.0,0.0
1609055988926521301,67,1609055988926521301,0.011518560319,0.0112803398033,0.0325587504819,0.00326222980064,0.00164349928721,0.000938324017121,0.999992888132,0.0,0.0,0.0,0.0,0.0,0.0
1609055989020002365,68,1609055989020002365,0.00685891527161,0.0101159020112,0.0121642948027,0.00284950050658,8.99798157547e-05,0.000794149523138,0.999995620779,0.0,0.0,0.0,0.0,0.0,0.0
1609055989114809036,69,1609055989114809036,0.0111047313382,0.00830263859189,0.00829198748763,0.00137445240812,-0.000292942626188,0.000760363524138,0.999998723455,0.0,0.0,0.0,0.0,0.0,0.0
1609055989226243734,70,1609055989226243734,0.00379838639409,0.00920753466743,-0.00197849606201,0.00257681422414,-0.00031228344152,0.000821560130103,0.999996293766,0.0,0.0,0.0,0.0,0.0,0.0
1609055989319886684,71,1609055989319886684,-0.00110701860709,0.0124941340625,0.00161786177154,-0.000284363996009,0.000799677377107,0.000392254651859,0.999999562895,0.0,0.0,0.0,0.0,0.0,0.0
1609055989413760900,72,1609055989413760900,-0.000450121779626,0.0116650554754,0.00396348311807,0.00341260393946,-0.000309010306228,0.00102521720712,0.999993603768,0.0,0.0,0.0,0.0,0.0,0.0
1609055989526101828,73,1609055989526101828,0.0160426836023,0.0110148577411,0.0151787410869,-0.00190208392699,0.000381748082732,0.000529575910952,0.999997977945,0.0,0.0,0.0,0.0,0.0,0.0
1609055989619969845,74,1609055989619969845,0.0171531047748,0.0100903077902,0.006986912482,0.00263495669016,-0.000443703283776,0.000870185805956,0.999996051446,0.0,0.0,0.0,0.0,0.0,0.0
1609055989714519262,75,1609055989714519262,0.00230601611804,0.00967847455309,0.0223834003397,0.000319207900236,0.000509811438441,0.000694354391869,0.999999578035,0.0,0.0,0.0,0.0,0.0,0.0
1609055989825911760,76,1609055989825911760,0.0128677221975,0.010578001906,0.0387294813587,-0.000202560706186,-0.000653703258896,0.000771036408063,0.999999468572,0.0,0.0,0.0,0.0,0.0,0.0
1609055989919701576,77,1609055989919701576,0.00665186210139,0.00913707827114,-0.0017995963553,0.0019352171038,-0.000707882085961,0.000686286499731,0.999997641421,0.0,0.0,0.0,0.0,0.0,0.0
1609055990013538122,78,1609055990013538122,0.00992589338403,0.00786043417808,0.0214570375504,0.000743983423126,0.000640569020024,0.000675636078605,0.999999289838,0.0,0.0,0.0,0.0,0.0,0.0
1609055990126199961,79,1609055990126199961,-0.000155776713695,0.0128779939537,0.00459804494228,0.00532881698449,-0.000810918129905,0.00114080789801,0.999984822224,0.0,0.0,0.0,0.0,0.0,0.0
1609055990220084429,80,1609055990220084429,0.00601884540646,0.0119134678804,0.010684844562,0.000540999526498,0.000498974060872,0.000606148160313,0.999999545464,0.0,0.0,0.0,0.0,0.0,0.0
1609055990314328432,81,1609055990314328432,0.00969298501216,0.0121348089152,0.0107586058126,0.00114690474018,0.000339106573643,0.00074912716536,0.999999004212,0.0,0.0,0.0,0.0,0.0,0.0
1609055990427310467,82,1609055990427310467,0.00168568794676,0.0104333565861,0.019733521791,0.000754630310178,0.000368502584446,0.000543022616818,0.999999499933,0.0,0.0,0.0,0.0,0.0,0.0
1609055990520190239,83,1609055990520190239,0.00705448022959,0.0113157809407,0.0135999576684,0.000892006287884,0.000331699668342,0.000594487210953,0.999999370442,0.0,0.0,0.0,0.0,0.0,0.0
1609055990613837242,84,1609055990613837242,0.013828635783,0.0091543071011,0.0204903269896,0.00184345296648,0.000211263732737,0.000802462904057,0.999997956549,0.0,0.0,0.0,0.0,0.0,0.0
1609055990726189852,85,1609055990726189852,0.00835659495662,0.0128278220281,0.00229160208426,0.001314394304,0.000137431087411,0.000687297060552,0.999998890551,0.0,0.0,0.0,0.0,0.0,0.0
1609055990819789171,86,1609055990819789171,0.00131643850975,0.0101919449989,0.0131603985183,0.00149203965565,0.000578484120097,0.000692001810528,0.999998480152,0.0,0.0,0.0,0.0,0.0,0.0
1609055990913449764,87,1609055990913449764,0.00395041616261,0.0127265587388,0.00816907375664,0.00298689609929,-0.000521493376581,0.00108124979544,0.999994818684,0.0,0.0,0.0,0.0,0.0,0.0
1609055991025700569,88,1609055991025700569,0.0142435869239,0.00954582839717,0.0201580923872,0.000772315327283,0.000777970554758,0.000587609877469,0.999999226502,0.0,0.0,0.0,0.0,0.0,0.0
1609055991119373798,89,1609055991119373798,0.00444962280801,0.0120236400815,0.0229936915393,0.000404717756389,-8.37289111132e-05,0.000716649607399,0.999999657803,0.0,0.0,0.0,0.0,0.0,0.0
1609055991213134050,90,1609055991213134050,0.0160694580488,0.0145575590264,0.02334812031,0.00201854054377,-0.000184361043379,0.000669053687498,0.999997721934,0.0,0.0,0.0,0.0,0.0,0.0
1609055991325674772,91,1609055991325674772,0.0234486154926,0.0122604451548,0.0428056780638,-4.58438248354e-05,0.000182268589636,0.000450716036746,0.999999880766,0.0,0.0,0.0,0.0,0.0,0.0
1609055991419405222,92,1609055991419405222,0.0210196436934,0.0118089142669,0.0308404518008,0.00112439660979,-0.00014828450179,0.000715883567334,0.999999100627,0.0,0.0,0.0,0.0,0.0,0.0
1609055991513258696,93,1609055991513258696,0.0172343006535,0.0133947639225,0.0326632573431,0.00219553272023,1.93852107796e-06,0.00105350325797,0.999997034877,0.0,0.0,0.0,0.0,0.0,0.0
1609055991626460075,94,1609055991626460075,0.0158475925376,0.0113252168294,0.0302900421064,0.00227208402119,-0.000139191090064,0.000877171840971,0.99999702441,0.0,0.0,0.0,0.0,0.0,0.0
1609055991719560146,95,1609055991719560146,0.0105941406271,0.00997631939319,0.033316024033,-0.000947318644797,-0.000419422418329,0.00062817020256,0.999999266037,0.0,0.0,0.0,0.0,0.0,0.0
1609055991813638687,96,1609055991813638687,0.00254286182089,0.0106607813907,0.0136344320114,4.397577126e-05,0.000485628676588,0.000509425966725,0.999999751358,0.0,0.0,0.0,0.0,0.0,0.0
1609055991926545382,97,1609055991926545382,0.00057322263763,0.0106569858123,-0.00291874038961,0.00212892738252,0.000174480307391,0.000798288594687,0.999997399977,0.0,0.0,0.0,0.0,0.0,0.0
1609055992019783735,98,1609055992019783735,0.00276631750393,0.0114952944129,0.000635799240203,-8.53852203511e-05,0.000161811884778,0.000440297827073,0.999999886332,0.0,0.0,0.0,0.0,0.0,0.0
1609055992113305330,99,1609055992113305330,0.00436907367106,0.0119693716556,0.00735433468814,0.000761717557766,0.000579760165586,0.000608201639729,0.999999356877,0.0,0.0,0.0,0.0,0.0,0.0
1609055992226903915,100,1609055992226903915,0.00457853236759,0.0119460570012,0.00287730585535,0.000849341276751,-0.000238224793225,0.000626517344775,0.999999414672,0.0,0.0,0.0,0.0,0.0,0.0
1609055992319419146,101,1609055992319419146,-0.00540137226269,0.00879823390638,0.0105031984176,0.00116748496285,0.000338506040669,0.00069133189107,0.999999022226,0.0,0.0,0.0,0.0,0.0,0.0
1609055992413092136,102,1609055992413092136,-0.00291712478936,0.0157652799071,0.0207456927618,0.00195764446403,-8.72049990363e-05,0.000741038153912,0.999997805441,0.0,0.0,0.0,0.0,0.0,0.0
1609055992525474310,103,1609055992525474310,0.00373347112789,0.0095838911367,0.0329572166447,-0.00254293483221,0.00208106841998,0.000373011127092,0.999994531735,0.0,0.0,0.0,0.0,0.0,0.0
1609055992621493101,104,1609055992621493101,0.0123278922324,0.0114128926976,0.0199137861707,-0.000434022554079,-0.000185759099613,0.000734098190918,0.999999619109,0.0,0.0,0.0,0.0,0.0,0.0
1609055992712990284,105,1609055992712990284,0.00144948411546,0.0140664171528,0.0311533894926,0.000838035587963,-0.000837780279392,0.000800894372111,0.999998977194,0.0,0.0,0.0,0.0,0.0,0.0
1609055992825488806,106,1609055992825488806,0.0207699548419,0.0108600261964,0.0324651125179,-0.00057451285733,0.000114028102009,0.000596803309428,0.999999650379,0.0,0.0,0.0,0.0,0.0,0.0
1609055992920945406,107,1609055992920945406,0.00570893141835,0.0109550896859,0.00277547092667,0.00125545256224,-0.000584419194341,0.000779718936446,0.999998737165,0.0,0.0,0.0,0.0,0.0,0.0
1609055993015044928,108,1609055993015044928,0.00111684859639,0.00966624945305,0.0196619378987,0.00099754796842,0.000536909254997,0.000706369455321,0.999999108834,0.0,0.0,0.0,0.0,0.0,0.0
1609055993111881018,109,1609055993111881018,0.0043655337796,0.0152586706755,0.0075463858009,0.000950794118386,0.000793525132199,0.000595225806962,0.999999056007,0.0,0.0,0.0,0.0,0.0,0.0
1609055993221417189,110,1609055993221417189,-0.0051637060257,0.0100617638642,0.00173402150692,0.00220267558502,-0.000840250314666,0.000902501977918,0.99999681384,0.0,0.0,0.0,0.0,0.0,0.0
1609055993315170765,111,1609055993315170765,0.00659927392042,0.0090609999408,0.00811444916957,0.00201604216251,0.000941606625289,0.000602159727558,0.999997343174,0.0,0.0,0.0,0.0,0.0,0.0
1609055993411870718,112,1609055993411870718,0.00541040339237,0.0114583614477,0.0146149370984,0.00126642819293,-0.000992875516194,0.000815625289728,0.999998372555,0.0,0.0,0.0,0.0,0.0,0.0
1609055993521232367,113,1609055993521232367,-0.00587295373852,0.0103343501276,0.00852148123618,-0.00135652828725,-0.000369952519521,0.000511967360674,0.999998880427,0.0,0.0,0.0,0.0,0.0,0.0
1609055993616606236,114,1609055993616606236,-0.00515950923235,0.0126633861446,-0.0119363118483,0.00117108445012,-0.000832797505429,0.000723603219629,0.999998705703,0.0,0.0,0.0,0.0,0.0,0.0
1609055993711756229,115,1609055993711756229,0.0121186148489,0.0126339337636,0.0242141897495,0.000865895242769,-0.000418910912057,0.000664371050115,0.999999316675,0.0,0.0,0.0,0.0,0.0,0.0
1609055993825710058,116,1609055993825710058,-0.00475503462946,0.00975151188404,0.0156628475945,-9.55601604192e-06,-0.000951063640943,0.000571995670307,0.999999384104,0.0,0.0,0.0,0.0,0.0,0.0
1609055993919514179,117,1609055993919514179,-0.00743972810993,0.0118375771887,-0.0080366437496,0.00244234231987,0.00012688730206,0.000806311429438,0.999996684357,0.0,0.0,0.0,0.0,0.0,0.0
1609055994013281345,118,1609055994013281345,-0.0179444125749,0.00981545424556,-0.0234977098824,0.000231998554793,0.000462365746925,0.00067657800915,0.999999637318,0.0,0.0,0.0,0.0,0.0,0.0
1609055994127352238,119,1609055994127352238,-0.0215427457709,0.00984870408725,0.00477482000712,0.00170134506898,0.00167813031034,0.000685741408791,0.999996909526,0.0,0.0,0.0,0.0,0.0,0.0
1609055994219825983,120,1609055994219825983,-0.00734880159988,0.0128229847549,0.0218894360485,0.00116100048408,-0.000357502938616,0.000651753984183,0.999999049743,0.0,0.0,0.0,0.0,0.0,0.0
1609055994313025236,121,1609055994313025236,0.00893273691025,0.00824123606771,0.00411015671322,-0.00142437881465,0.000202283985719,0.000310588509243,0.99999891688,0.0,0.0,0.0,0.0,0.0,0.0
1609055994425684214,122,1609055994425684214,-0.00215901561592,0.0115777069273,0.0273265386623,0.00178879904867,-0.000146478086709,0.000941698827699,0.999997945971,0.0,0.0,0.0,0.0,0.0,0.0
1609055994519203901,123,1609055994519203901,-0.0091962209209,0.0081779808565,0.021091021783,0.00248768048698,-0.000120840261585,0.000849341010926,0.999996537726,0.0,0.0,0.0,0.0,0.0,0.0
1609055994614069939,124,1609055994614069939,-0.00473322392236,0.0145783617812,0.0286946492836,0.00280666058662,-0.000110041517486,0.000914983624276,0.999995636667,0.0,0.0,0.0,0.0,0.0,0.0
1609055994725753546,125,1609055994725753546,0.00485446480226,0.0109722831801,0.0213873768147,-0.00110809204617,0.000205742700394,0.000255808120316,0.999999332182,0.0,0.0,0.0,0.0,0.0,0.0
1609055994819533348,126,1609055994819533348,0.0135603109203,0.0112007901424,0.0335315398012,-2.24108309503e-05,0.000165272494158,0.000542415260537,0.999999838984,0.0,0.0,0.0,0.0,0.0,0.0
1609055994913287640,127,1609055994913287640,-0.00266335703825,0.0129389158789,0.0308637226912,0.0010038752896,0.000308549225668,0.000587630671779,0.999999275861,0.0,0.0,0.0,0.0,0.0,0.0
1609055995027615547,128,1609055995027615547,-0.00606447400663,0.0127881001461,0.0104275074039,0.00155888604182,0.000482452521691,0.000640257345254,0.999998463591,0.0,0.0,0.0,0.0,0.0,0.0
1609055995124873400,129,1609055995124873400,-0.00408311039138,0.010636179299,0.00102704262761,-0.00179271381339,0.000158119911846,0.000371102461754,0.999998311728,0.0,0.0,0.0,0.0,0.0,0.0
1609055995218216896,130,1609055995218216896,-0.00260172539407,0.0118722987591,0.00838936861912,-0.00092396730721,0.000229011138137,0.000432731744283,0.999999453291,0.0,0.0,0.0,0.0,0.0,0.0
1609055995312083006,131,1609055995312083006,-0.00208048696389,0.0105323343613,0.0196649061214,0.000811818984324,-0.00170500045631,0.000926082423288,0.999997788145,0.0,0.0,0.0,0.0,0.0,0.0
1609055995424254179,132,1609055995424254179,0.00522334036174,0.0105561569522,0.0161803774262,-0.000895583599055,0.000295669837359,0.000379638643182,0.999999483192,0.0,0.0,0.0,0.0,0.0,0.0
1609055995517835855,133,1609055995517835855,-0.00844279702607,0.00698930500601,0.00668933638483,0.0018746004562,-0.000593581576296,0.000783136100963,0.999997760113,0.0,0.0,0.0,0.0,0.0,0.0
1609055995611519337,134,1609055995611519337,-0.0059785765885,0.00715869002487,0.018584345176,6.00594729123e-05,-7.41938245563e-05,0.000588883562111,0.999999822052,0.0,0.0,0.0,0.0,0.0,0.0
1609055995724418879,135,1609055995724418879,-0.000585868900225,0.0104856859555,0.00356904082558,-0.000273718070174,-0.000420288399375,0.000703673378374,0.99999962664,0.0,0.0,0.0,0.0,0.0,0.0
1609055995817885160,136,1609055995817885160,-0.0113599016637,0.0139253608388,0.00159140969066,-0.00191592840141,-0.000885409616268,0.000585413268893,0.999997601277,0.0,0.0,0.0,0.0,0.0,0.0
1609055995911869764,137,1609055995911869764,-0.00995551461759,0.00670684301592,0.00810259784275,0.00311558221895,0.000129093560889,0.000952006620286,0.999994685069,0.0,0.0,0.0,0.0,0.0,0.0
1609055996025619984,138,1609055996025619984,-0.0183495392539,0.00749168717973,0.000674821480361,0.00204054473258,9.69974054224e-05,0.000710529916022,0.999997660955,0.0,0.0,0.0,0.0,0.0,0.0
1609055996119130850,139,1609055996119130850,-0.00502497033484,0.00959533631134,0.0125332687447,0.00188852537695,0.000312795312016,0.00089029951048,0.999997771496,0.0,0.0,0.0,0.0,0.0,0.0
1609055996214277267,140,1609055996214277267,-0.00889740462513,0.0133349413616,0.0144651092696,0.000792292602238,0.000449862687142,0.000720041003369,0.999999325718,0.0,0.0,0.0,0.0,0.0,0.0
1609055996325224400,141,1609055996325224400,-0.00027034026367,0.00720092443259,0.0163177304783,0.00125801960544,0.000508198996209,0.000523452467144,0.999998942558,0.0,0.0,0.0,0.0,0.0,0.0
1609055996419237614,142,1609055996419237614,-0.0033009167705,0.00820802162106,0.0211911437664,0.00321429128155,-9.2713125666e-05,0.00112075863481,0.999994201801,0.0,0.0,0.0,0.0,0.0,0.0
1609055996512686491,143,1609055996512686491,-0.0159179489729,0.00865095210735,0.00974428422681,0.00143599362866,2.34164934706e-05,0.000680450769643,0.99999873718,0.0,0.0,0.0,0.0,0.0,0.0
1609055996625547647,144,1609055996625547647,-0.0114747694584,0.00793088932375,0.0103938507476,0.00221228688252,-0.000333847691599,0.000729299365541,0.999997231224,0.0,0.0,0.0,0.0,0.0,0.0
1609055996720231295,145,1609055996720231295,-0.0124635139093,0.0105690941509,-0.00341321598542,0.00232229334984,0.00014310154245,0.000591436999358,0.999997118335,0.0,0.0,0.0,0.0,0.0,0.0
1609055996813244104,146,1609055996813244104,-0.000620090709106,0.00519334324272,-0.0136811256479,0.00130291120968,-0.000491499701096,0.000655194081271,0.999998815785,0.0,0.0,0.0,0.0,0.0,0.0
1609055996925446033,147,1609055996925446033,-0.00609967085928,0.0119444004987,0.0119730388994,-0.000198841007056,0.00121728536928,0.000300145816595,0.999999194295,0.0,0.0,0.0,0.0,0.0,0.0
1609055997019347906,148,1609055997019347906,-0.025243920252,0.00809584294566,-0.0100335635089,0.00274627925228,0.000398093536586,0.000775200819233,0.999995849259,0.0,0.0,0.0,0.0,0.0,0.0
1609055997113594055,149,1609055997113594055,-0.0124924664909,0.0102526823284,-0.00271169145873,0.00139884569877,0.000452545210775,0.00061473860377,0.999998730264,0.0,0.0,0.0,0.0,0.0,0.0
1609055997226661444,150,1609055997226661444,-0.00903687355034,0.0113015353511,0.00286101208487,0.00144055288988,-6.5113597453e-05,0.000735208759385,0.999998690017,0.0,0.0,0.0,0.0,0.0,0.0
1609055997319358110,151,1609055997319358110,-0.00560092685734,0.00821658763086,0.00185800941488,-0.000343363235204,-0.000472543037934,0.000649872360922,0.999999618235,0.0,0.0,0.0,0.0,0.0,0.0
1609055997414309025,152,1609055997414309025,-0.00451787948758,0.00680144263045,0.0302960433602,-0.000361514428123,-0.000293224864127,0.000519235504918,0.99999975686,0.0,0.0,0.0,0.0,0.0,0.0
1609055997525541306,153,1609055997525541306,-0.00707862304098,0.00846004764727,0.0275119006953,0.000273550457566,-0.000263148836147,0.000533251433186,0.999999785783,0.0,0.0,0.0,0.0,0.0,0.0
1609055997619871855,154,1609055997619871855,-0.00868468966434,0.0079284091758,-0.00349226810812,0.00124796785798,0.000237313995178,0.000813220208577,0.999998862465,0.0,0.0,0.0,0.0,0.0,0.0
1609055997717485666,155,1609055997717485666,-0.0128087834722,0.00835336061428,0.00550537215551,0.0016461623214,0.00102525685184,0.000757295146787,0.999997832749,0.0,0.0,0.0,0.0,0.0,0.0
1609055997811147690,156,1609055997811147690,-0.0189146993647,0.00975083943769,-0.00824369670475,0.00143305263948,-0.000263995560519,0.000678239793052,0.999998708328,0.0,0.0,0.0,0.0,0.0,0.0
1609055997922196150,157,1609055997922196150,-0.00612760726244,0.00754811581098,0.0164021211218,0.000638803989687,-0.000398488390283,0.000515017358444,0.999999583947,0.0,0.0,0.0,0.0,0.0,0.0
1609055998017814875,158,1609055998017814875,-0.0102003538729,0.011840341993,0.0335737357848,0.000446064724077,-0.000233879306238,0.000611522902219,0.999999686183,0.0,0.0,0.0,0.0,0.0,0.0
1609055998111588240,159,1609055998111588240,-0.0172332077098,0.00618610832743,0.0318182263313,0.00100230933601,-8.13749245382e-05,0.000663041172166,0.999999274565,0.0,0.0,0.0,0.0,0.0,0.0
1609055998223514080,160,1609055998223514080,-0.0107394730258,0.0098627596162,0.0267067200357,-0.000304663498261,0.000459275789431,0.00030892937087,0.999999800404,0.0,0.0,0.0,0.0,0.0,0.0
1609055998318518162,161,1609055998318518162,-0.0127398764697,0.0114379768476,0.031100658196,0.00119476014392,0.000218319946827,0.000651773996647,0.999999050037,0.0,0.0,0.0,0.0,0.0,0.0
1609055998412068367,162,1609055998412068367,-0.00411613028287,0.00870096256266,0.00627743516974,1.05328765782e-05,-0.000480822824931,0.000558344383555,0.999999728475,0.0,0.0,0.0,0.0,0.0,0.0
1609055998522539854,163,1609055998522539854,-0.0166575354561,0.00920862995619,-0.00134098952503,0.000506911782412,-7.03553529206e-05,0.000460152983645,0.999999763175,0.0,0.0,0.0,0.0,0.0,0.0
1609055998616457462,164,1609055998616457462,-0.018160149335,0.00972854068097,0.0157967513113,0.00310725579778,-0.000491791038608,0.000894779494935,0.999994651222,0.0,0.0,0.0,0.0,0.0,0.0
1609055998711421728,165,1609055998711421728,-0.0104534937595,0.00568854460219,0.00898059006695,-7.86072708402e-05,0.000201387464745,0.000306180072449,0.999999929759,0.0,0.0,0.0,0.0,0.0,0.0
1609055998822531700,166,1609055998822531700,-0.00824713923526,0.00950604333775,0.0230068439933,0.00435135480175,-0.000354278200507,0.00107909879607,0.999989887821,0.0,0.0,0.0,0.0,0.0,0.0
1609055998915884018,167,1609055998915884018,-0.000356070912,0.0072673901376,0.0410202089607,-0.00109390386151,-0.000656629647798,0.0010806211613,0.999998602234,0.0,0.0,0.0,0.0,0.0,0.0
1609055999011029005,168,1609055999011029005,-0.00987023107382,0.00600756731597,0.0146176621491,0.000756718522233,0.000966186823817,0.00045029524296,0.999999145547,0.0,0.0,0.0,0.0,0.0,0.0
1609055999122145891,169,1609055999122145891,-0.0217276143249,0.010611967097,0.00691463717779,0.00214869230662,-0.000791200269296,0.000799944166014,0.999997058602,0.0,0.0,0.0,0.0,0.0,0.0
1609055999216420889,170,1609055999216420889,-0.00488286810035,0.00931149473992,0.0382038886627,0.0024570618507,0.000471955357779,0.000346877822365,0.999996809885,0.0,0.0,0.0,0.0,0.0,0.0
1609055999311319590,171,1609055999311319590,-0.00409867412949,0.00907811225676,0.00568466073739,0.000285677108271,9.95722097274e-05,0.000518943896966,0.999999819585,0.0,0.0,0.0,0.0,0.0,0.0
1609055999422226429,172,1609055999422226429,-0.0154026103016,0.00683872582592,0.0374277222907,0.00211690784172,-0.00117233784916,0.0012211484789,0.999996326554,0.0,0.0,0.0,0.0,0.0,0.0
1609055999516009808,173,1609055999516009808,0.00221815767342,0.00302390461771,0.034368287681,-0.000404705197816,0.000116059204545,0.000523519383524,0.999999774336,0.0,0.0,0.0,0.0,0.0,0.0
1609055999611374617,174,1609055999611374617,-0.00653985592471,0.00738971804189,0.0440677450375,-0.00146963736697,0.000324115714933,0.000330078770759,0.999998813081,0.0,0.0,0.0,0.0,0.0,0.0
1609055999722448111,175,1609055999722448111,-0.00678095397093,0.00605318956398,0.0153805395116,-0.000222642490256,-0.0004524404174,0.000685580500858,0.999999637854,0.0,0.0,0.0,0.0,0.0,0.0
1609055999816205263,176,1609055999816205263,-0.0143636819954,0.00915650631413,0.0336038916822,0.000401844212255,-0.00081202747953,0.000977989839741,0.999999111334,0.0,0.0,0.0,0.0,0.0,0.0
1609055999911203384,177,1609055999911203384,-0.00686444163667,0.00923096919555,0.0481226419451,-0.000499858994593,0.000163121712767,0.000568548744719,0.999999700142,0.0,0.0,0.0,0.0,0.0,0.0
1609056000022458553,178,1609056000022458553,-0.00857716146863,0.00740000961607,0.0289717800911,0.00100857908216,-0.0012967995039,0.000831604796688,0.999998304755,0.0,0.0,0.0,0.0,0.0,0.0
1609056000115803719,179,1609056000115803719,-0.00724115324139,0.00842639910262,0.039701791491,-0.000771127170898,0.000586408534194,0.000682715393875,0.999999297693,0.0,0.0,0.0,0.0,0.0,0.0
1609056000212857008,180,1609056000212857008,-0.00817275814653,0.00415012338818,0.0169116430774,0.000670044270821,-0.000714518943004,0.000825160413822,0.999999179806,0.0,0.0,0.0,0.0,0.0,0.0
1609056000321911097,181,1609056000321911097,-0.00106909435446,0.0114753539999,0.0196809733968,-0.000926858001312,-9.76831180241e-05,0.000323666414592,0.999999513316,0.0,0.0,0.0,0.0,0.0,0.0
1609056000415838957,182,1609056000415838957,-0.0130065846194,0.00909372370361,0.0210396951956,0.00168697715576,-0.00087067147104,0.000825267395216,0.999997857484,0.0,0.0,0.0,0.0,0.0,0.0
1609056000511168718,183,1609056000511168718,-0.00854890408241,0.00871411056078,0.0302545290673,-0.000116947205863,-0.00143045952523,0.000807875085162,0.999998643722,0.0,0.0,0.0,0.0,0.0,0.0
1609056000622578382,184,1609056000622578382,-0.00492771013267,0.0107318902503,0.0375726166712,-0.000479291074432,0.00034151652351,0.000528480413903,0.999999687177,0.0,0.0,0.0,0.0,0.0,0.0
1609056000716086626,185,1609056000716086626,-0.00902305782437,0.00871016376192,0.0209593162879,0.00146266562177,-0.000567635693986,0.000851193874308,0.999998406933,0.0,0.0,0.0,0.0,0.0,0.0
1609056000811225176,186,1609056000811225176,-0.0102821141598,0.00654725022965,0.0266660236352,-0.000686438152402,-0.000879768239204,0.000723486662009,0.999999115688,0.0,0.0,0.0,0.0,0.0,0.0
1609056000922254086,187,1609056000922254086,-0.00902748028861,0.007205512604,0.0126847544747,0.000717159670453,0.000212621464544,0.000788912731619,0.999999409045,0.0,0.0,0.0,0.0,0.0,0.0
1609056001016169071,188,1609056001016169071,-0.0272806129876,0.0086936085823,0.0117710939226,0.00412452716949,0.000578381176098,0.000988478362674,0.999990838289,0.0,0.0,0.0,0.0,0.0,0.0
1609056001111489296,189,1609056001111489296,-0.0147597437501,0.0088695162882,0.00337943014601,0.00160328599102,-0.000636577218118,0.000857980750579,0.999998144054,0.0,0.0,0.0,0.0,0.0,0.0
1609056001222675800,190,1609056001222675800,-0.00902079519321,0.00820945185612,0.0330046414134,0.00307450290576,0.000833405233126,0.000806066333374,0.999994601548,0.0,0.0,0.0,0.0,0.0,0.0
1609056001316231728,191,1609056001316231728,-0.0114021549307,0.00975707113793,0.0242472627685,0.00232490996782,0.000237112662247,0.000788695989722,0.99999695826,0.0,0.0,0.0,0.0,0.0,0.0
1609056001411639929,192,1609056001411639929,-0.0138601191449,0.00881474960249,0.0207992246672,0.00143499696614,0.00109314038978,0.000521243859821,0.999998237065,0.0,0.0,0.0,0.0,0.0,0.0
1609056001522739172,193,1609056001522739172,-0.0194261596964,0.00474450439547,0.00550260970838,0.00181339883667,-0.000942700043717,0.00082605355641,0.999997570265,0.0,0.0,0.0,0.0,0.0,0.0
1609056001617682695,194,1609056001617682695,-0.0239003749713,0.0101339479175,0.00754539401979,0.000120451469009,0.00091241987617,0.000616321607968,0.999999386564,0.0,0.0,0.0,0.0,0.0,0.0
1609056001711971521,195,1609056001711971521,-0.020082828194,0.00973011655892,0.00312369376831,0.00191772363266,-1.8183672956e-05,0.000887196867175,0.999997767441,0.0,0.0,0.0,0.0,0.0,0.0
1609056001822593451,196,1609056001822593451,-0.0238454396861,0.00705183911639,0.0105534204688,0.00169562274116,0.000662296644313,0.00085528119194,0.999997977358,0.0,0.0,0.0,0.0,0.0,0.0
1609056001916181087,197,1609056001916181087,-0.0136883145705,0.00704600836019,0.0202378917415,0.00178624809124,0.000219003253563,0.0006534684123,0.999998167165,0.0,0.0,0.0,0.0,0.0,0.0
1609056002011450291,198,1609056002011450291,-0.0156266672271,0.0113316210913,0.0318794381213,0.00445191380671,0.000140920180715,0.00133440863229,0.999989189921,0.0,0.0,0.0,0.0,0.0,0.0
1609056002122434616,199,1609056002122434616,-0.0244541828603,0.0052427536524,0.00492383733485,0.000784360884281,0.000460559489784,0.000558989843509,0.999999430096,0.0,0.0,0.0,0.0,0.0,0.0
1609056002216059685,200,1609056002216059685,-0.0259237224229,0.00517461174631,0.00513893710038,0.00395783903548,0.000844853078674,0.00113988458063,0.999991161159,0.0,0.0,0.0,0.0,0.0,0.0
1609056002311455965,201,1609056002311455965,-0.00652253863501,0.0122622429106,0.0269150337156,0.00222269308642,0.00055125682681,0.000477609883931,0.999997263816,0.0,0.0,0.0,0.0,0.0,0.0
1609056002423368216,202,1609056002423368216,-0.0140356140957,0.0108442503098,0.0277517336114,0.00169673504268,0.00143399705008,0.000703351526181,0.999997285016,0.0,0.0,0.0,0.0,0.0,0.0
1609056002516249895,203,1609056002516249895,-0.0211119178907,0.00605153182397,-0.0139115714456,0.0020636008346,-0.000116765828305,0.000692885871964,0.99999762391,0.0,0.0,0.0,0.0,0.0,0.0
1609056002611081123,204,1609056002611081123,-0.00618871364861,0.0115559067198,-0.00948124514085,0.000685436000826,0.000219239838412,0.000611852265814,0.999999553874,0.0,0.0,0.0,0.0,0.0,0.0
1609056002722287893,205,1609056002722287893,-0.0260645992973,0.00818404364687,-0.00438693377879,0.00122054973043,-0.000682051600021,0.000726714613453,0.999998758474,0.0,0.0,0.0,0.0,0.0,0.0
1609056002816450834,206,1609056002816450834,-0.0118561899688,0.00746811467672,0.0154027048844,0.00252632397375,-9.12159494369e-05,0.000776310978306,0.999996503348,0.0,0.0,0.0,0.0,0.0,0.0
1609056002921133041,207,1609056002921133041,-0.0198287455636,0.00951716450854,0.0123685893456,0.00294510915254,-0.000413704009846,0.00106050638431,0.999995015241,0.0,0.0,0.0,0.0,0.0,0.0
1609056003023756027,208,1609056003023756027,-0.0338357250248,0.0080886600913,-0.0184235518083,0.00202556666715,0.00128920098829,0.000670643133994,0.999996892634,0.0,0.0,0.0,0.0,0.0,0.0
1609056003131612539,209,1609056003131612539,-0.0181920194279,0.0116116956287,0.00229830579808,0.00144035849522,0.000663951509556,0.000689783731195,0.999998504366,0.0,0.0,0.0,0.0,0.0,0.0
1609056003212900639,210,1609056003212900639,-0.0274655383521,0.00804046182795,0.00155530372022,0.00400078604916,0.000177591172318,0.000673300508628,0.999991754385,0.0,0.0,0.0,0.0,0.0,0.0
1609056003316599131,211,1609056003316599131,-0.009447495716,0.00760238179053,0.00648427459827,0.00144069145044,0.000754416550173,0.00071455038145,0.999998422339,0.0,0.0,0.0,0.0,0.0,0.0
1609056003419463158,212,1609056003419463158,-0.0216572871953,0.00713925942909,-0.0013839777384,0.00307024622749,-0.000978551384264,0.000981644543647,0.999994326183,0.0,0.0,0.0,0.0,0.0,0.0
1609056003522388458,213,1609056003522388458,-0.00781524876227,0.00901421652762,0.0188927552463,0.00229122885129,0.000106335807378,0.000813185922464,0.999997038841,0.0,0.0,0.0,0.0,0.0,0.0
1609056003625014782,214,1609056003625014782,-0.0229018271898,0.00817850663736,0.00462124710815,0.0028168183354,-0.000160278854148,0.000972241546116,0.999995547286,0.0,0.0,0.0,0.0,0.0,0.0
1609056003728556395,215,1609056003728556395,-0.0206787873554,0.00516661174244,0.0120489666912,0.00162289064059,0.0008905690111,0.00074610426963,0.999998008218,0.0,0.0,0.0,0.0,0.0,0.0
1609056003831558943,216,1609056003831558943,-0.0218978030643,0.00765964179505,0.000262505939328,0.00191886328746,-0.000572559540893,0.00088926973249,0.999997599666,0.0,0.0,0.0,0.0,0.0,0.0
1609056003934322119,217,1609056003934322119,-0.0158153846281,0.00914308805718,-0.00119966614893,0.0016825323152,-0.000235786256862,0.000734404775641,0.999998287068,0.0,0.0,0.0,0.0,0.0,0.0
1609056004037421703,218,1609056004037421703,-0.0187348790791,0.00906604461643,0.00300321754188,0.00218225901887,-0.000187680176459,0.00092020772703,0.999997177866,0.0,0.0,0.0,0.0,0.0,0.0
1609056004140678883,219,1609056004140678883,-0.0188416292089,0.0100072859545,0.016853521825,0.00123317435057,0.000885968138806,0.000594208972669,0.999998670628,0.0,0.0,0.0,0.0,0.0,0.0
1609056004211086035,220,1609056004211086035,-0.00787821322071,0.00945704034962,0.0146003984421,0.00185680705306,-0.0010869772813,0.000880991983065,0.999997297297,0.0,0.0,0.0,0.0,0.0,0.0
1609056004312841177,221,1609056004312841177,-0.00484411810104,0.00642609710905,0.0414050408088,0.00133643298937,0.000187130219858,0.00042575126281,0.999998998832,0.0,0.0,0.0,0.0,0.0,0.0
1609056004415983677,222,1609056004415983677,-0.0152962402612,0.0108112117324,0.0355049628661,0.000754711664288,-5.49198399953e-05,0.000737675599502,0.999999441614,0.0,0.0,0.0,0.0,0.0,0.0
1609056004519148350,223,1609056004519148350,-0.00837142000474,0.010186930381,0.0221634050899,0.000606019787039,-0.000982966382986,0.000565392952039,0.999999173423,0.0,0.0,0.0,0.0,0.0,0.0
1609056004622250795,224,1609056004622250795,-0.000482280489346,0.00742402859791,0.0342145567072,0.0010749999415,-0.000397220485426,0.000790276869662,0.999999031026,0.0,0.0,0.0,0.0,0.0,0.0
1609056004725495100,225,1609056004725495100,-0.00734193718006,0.00930422476353,0.0210516552166,0.000580823883394,-0.00155480389628,0.000568839334103,0.999998460824,0.0,0.0,0.0,0.0,0.0,0.0
1609056004828612566,226,1609056004828612566,-0.00875837032537,0.0104214610983,0.0134478512138,0.00335902655394,0.000726079516412,0.00101237252643,0.999993582405,0.0,0.0,0.0,0.0,0.0,0.0
1609056004931875706,227,1609056004931875706,-0.0183420765832,0.00985915544262,0.0192476266396,0.00153361956879,0.00011051906975,0.000893591338843,0.999998418644,0.0,0.0,0.0,0.0,0.0,0.0
1609056005034787178,228,1609056005034787178,-0.0110532149049,0.0079830383538,0.0141780159269,0.00166604714771,0.000983412190683,0.000666047147646,0.999997906782,0.0,0.0,0.0,0.0,0.0,0.0
1609056005137978315,229,1609056005137978315,-0.00695474625201,0.0101043286873,0.00127303905512,0.00149251476851,-0.000916912111517,0.000836971324561,0.999998115573,0.0,0.0,0.0,0.0,0.0,0.0
1609056005240820646,230,1609056005240820646,-0.0153454446441,0.0119162956979,0.000205528631203,-0.00049607849896,-0.00046459281423,0.000653831969989,0.999999555281,0.0,0.0,0.0,0.0,0.0,0.0
1609056005310977936,231,1609056005310977936,-0.014999402284,0.00725897004071,0.0159704824088,0.00343875735952,0.00107489882746,0.000713436686636,0.999993255251,0.0,0.0,0.0,0.0,0.0,0.0
1609056005412794113,232,1609056005412794113,-0.0126444613795,0.0119298245912,0.0171830514072,0.00314508682062,-0.000260964493127,0.00104211307217,0.999994477148,0.0,0.0,0.0,0.0,0.0,0.0
1609056005515824556,233,1609056005515824556,-0.0182509070237,0.00781395954998,0.000755446384078,0.0033998379066,0.000704831509393,0.000789032123687,0.999993660851,0.0,0.0,0.0,0.0,0.0,0.0
1609056005618775129,234,1609056005618775129,-0.0204480204907,0.0117658652851,0.00966675828656,0.0034686524241,0.000301403123913,0.00097490893835,0.999993463558,0.0,0.0,0.0,0.0,0.0,0.0
1609056005722201586,235,1609056005722201586,-0.0178867084042,0.00964061381226,-0.0149284785417,0.000701146669419,0.000419204361833,0.000538909350434,0.999999521119,0.0,0.0,0.0,0.0,0.0,0.0
1609056005825885773,236,1609056005825885773,-0.0196332996503,0.0100822559269,0.00160700045946,0.00166619061869,-0.000147834788703,0.000807447669793,0.999998274989,0.0,0.0,0.0,0.0,0.0,0.0
1609056005928357840,237,1609056005928357840,-0.00756657572961,0.00408083330008,-0.00285849895207,0.00142479820719,-4.30689756395e-05,0.000764512168122,0.999998691807,0.0,0.0,0.0,0.0,0.0,0.0
1609056006031476498,238,1609056006031476498,-0.0122511955202,0.0124647112138,0.00670681592931,0.00251860338706,0.000262306720828,0.000931528143344,0.999996360037,0.0,0.0,0.0,0.0,0.0,0.0
1609056006134197235,239,1609056006134197235,-0.0110264266979,0.00818248148932,0.0225943538311,0.00198382565151,0.000192559083014,0.000782846060263,0.999997707252,0.0,0.0,0.0,0.0,0.0,0.0
1609056006237519503,240,1609056006237519503,-0.0113779413703,0.00426362073621,0.016178679464,0.00197753581283,-0.000322011048177,0.000944522721973,0.999997546766,0.0,0.0,0.0,0.0,0.0,0.0
1609056006340631247,241,1609056006340631247,-0.0102579918646,0.00941325055661,0.0360917133757,0.00295419060364,-0.000126171192067,0.000863300832641,0.999995255764,0.0,0.0,0.0,0.0,0.0,0.0
1609056006410956621,242,1609056006410956621,-0.00747790330481,0.00952290945251,0.0268154488159,0.000591301682157,-0.0014071668596,0.000967879221763,0.999998366725,0.0,0.0,0.0,0.0,0.0,0.0
1609056006512899637,243,1609056006512899637,0.00413739001183,0.0102016927963,0.0270598999551,-0.000132677777344,-0.0012672815661,0.000734856746761,0.999998918189,0.0,0.0,0.0,0.0,0.0,0.0
1609056006615838051,244,1609056006615838051,-0.00380707958228,0.00738919633418,0.0298645013954,-0.000424689053478,-0.0010303311619,0.000938349032563,0.999998938778,0.0,0.0,0.0,0.0,0.0,0.0
1609056006719122887,245,1609056006719122887,-0.00981072465571,0.00950030720003,0.0317087695126,0.00100390475408,6.14016918375e-05,0.000724262930282,0.999999231924,0.0,0.0,0.0,0.0,0.0,0.0
1609056006822410583,246,1609056006822410583,0.00224532584352,0.00650800464116,0.0352833632146,-0.00143229304696,-0.000574805399241,0.000905391425045,0.999998399199,0.0,0.0,0.0,0.0,0.0,0.0
1609056006925652981,247,1609056006925652981,0.00133331334485,0.010482198292,0.0292324554201,0.00182849603618,-0.00167715385171,0.000643022486581,0.999996715134,0.0,0.0,0.0,0.0,0.0,0.0
1609056007028768063,248,1609056007028768063,-0.0108067965624,0.0097154456084,0.0240273295649,-0.000276348543548,-0.00102951878361,0.000882354456794,0.999999042586,0.0,0.0,0.0,0.0,0.0,0.0
1609056007132040262,249,1609056007132040262,-0.0186450163451,0.00722286587333,0.0169170088963,0.0031091082758,0.000619469679655,0.000710732718359,0.999994722267,0.0,0.0,0.0,0.0,0.0,0.0
1609056007234889030,250,1609056007234889030,-0.0161548667593,0.0110408964463,0.0315080108291,0.00348761539817,9.68897417696e-05,0.00105947882662,0.999993352306,0.0,0.0,0.0,0.0,0.0,0.0
1609056007338168144,251,1609056007338168144,-0.0210072990792,0.00943786614237,0.0257661259369,0.00260760972118,0.000680464385223,0.000789523695822,0.999996056988,0.0,0.0,0.0,0.0,0.0,0.0
1609056007440995932,252,1609056007440995932,-0.0194277831601,0.00668657395884,-0.00099327711438,0.00296930564571,-0.000191225216745,0.00089257053241,0.999995174975,0.0,0.0,0.0,0.0,0.0,0.0
1609056007511092663,253,1609056007511092663,-0.0245952460638,0.00878240972439,-0.0156117147537,0.0031618689886,8.51203282853e-05,0.000823403648404,0.999994658658,0.0,0.0,0.0,0.0,0.0,0.0
1609056007612990618,254,1609056007612990618,-0.012934321731,0.00544005714548,-0.00880779418656,0.00388848360049,7.36392212495e-06,0.00102242539599,0.999991917111,0.0,0.0,0.0,0.0,0.0,0.0
1609056007716022730,255,1609056007716022730,-0.0139175210086,0.00718999377257,0.0102627141452,0.000233747653976,0.000669651319925,0.000777770397203,0.999999446001,0.0,0.0,0.0,0.0,0.0,0.0
1609056007819129467,256,1609056007819129467,-0.0203900066597,0.00724934664409,0.0192116020785,0.00315740840832,0.000866381437089,0.000563054895016,0.999994481547,0.0,0.0,0.0,0.0,0.0,0.0
1609056007922147512,257,1609056007922147512,-0.0151098831199,0.00785692069767,0.0198225079689,0.001719291963,-0.00194308007723,0.00128739193024,0.999995805539,0.0,0.0,0.0,0.0,0.0,0.0
1609056008025616407,258,1609056008025616407,-0.0156426703129,0.00699049738732,0.0305762154155,0.000315138333096,0.000140072393257,0.000602090571311,0.999999759277,0.0,0.0,0.0,0.0,0.0,0.0
1609056008128470659,259,1609056008128470659,-0.00359265591198,0.0110214933796,0.0488264235253,-0.000278574374825,-0.00107824039936,0.00120978783613,0.999998648102,0.0,0.0,0.0,0.0,0.0,0.0
1609056008231462717,260,1609056008231462717,0.00311148037395,0.00891965399014,0.0491481272028,-0.000985767147733,-8.06726559819e-05,0.000453190117779,0.999999408186,0.0,0.0,0.0,0.0,0.0,0.0
1609056008334456682,261,1609056008334456682,0.00154097253563,0.010476651101,0.0493293681036,0.000266916075268,-0.00104229062977,0.000803820499847,0.999999098129,0.0,0.0,0.0,0.0,0.0,0.0
1609056008437477112,262,1609056008437477112,-0.013244834675,0.00837911261758,0.0129770228146,0.000362200383355,-0.000366555043133,0.000655725097325,0.999999652236,0.0,0.0,0.0,0.0,0.0,0.0
1609056008540530205,263,1609056008540530205,-0.00571627148359,0.00890655970346,0.0290010194407,0.00106434414597,-0.00108578687251,0.000388704700131,0.999998768573,0.0,0.0,0.0,0.0,0.0,0.0
1609056008610903025,264,1609056008610903025,-0.00409595935803,0.00749118446075,0.0391837555776,0.000548033824875,0.000233110467465,0.000767107154657,0.999999528432,0.0,0.0,0.0,0.0,0.0,0.0
1609056008712489367,265,1609056008712489367,-0.01136252393,0.0081469412496,0.0473894260232,0.000529709839417,-0.000179150705914,0.000974477967617,0.999999368852,0.0,0.0,0.0,0.0,0.0,0.0
1609056008815887690,266,1609056008815887690,-0.00467141518077,0.00619571947334,0.0306599216695,0.00259493996729,-0.00108819730261,0.00122411002151,0.999995291823,0.0,0.0,0.0,0.0,0.0,0.0
1609056008918852568,267,1609056008918852568,-0.0114047974469,0.00732728213118,0.0481354744418,-0.00049258434379,0.000683853268668,0.000997957245766,0.999999146893,0.0,0.0,0.0,0.0,0.0,0.0
1609056009021816492,268,1609056009021816492,0.00620148595059,0.0101446195187,0.0372982032826,0.0013361578969,-0.000525789312151,0.000831654654638,0.999998623288,0.0,0.0,0.0,0.0,0.0,0.0
1609056009124695063,269,1609056009124695063,-0.011748009602,0.00763855788335,0.0458711629569,0.00215031130874,0.000319046255698,0.000809166843812,0.999997309806,0.0,0.0,0.0,0.0,0.0,0.0
1609056009227779388,270,1609056009227779388,-0.012579436451,0.00651153739263,0.061664455441,-0.000569499006667,-0.000227247563254,0.000745436076363,0.999999534177,0.0,0.0,0.0,0.0,0.0,0.0
1609056009331152678,271,1609056009331152678,-0.00950153123952,0.00539911363289,0.0311452564235,0.00209461049101,-0.00134739081087,0.000639980385335,0.999996693779,0.0,0.0,0.0,0.0,0.0,0.0
1609056009434070826,272,1609056009434070826,-0.00520737530206,0.00895458072218,0.0229998122051,0.000844937420022,-0.000637820251405,0.000726626139518,0.99999917564,0.0,0.0,0.0,0.0,0.0,0.0
1609056009537346601,273,1609056009537346601,-0.00255166790227,0.00902175478964,0.0411759486415,0.0016228304762,9.4131054909e-05,0.000884423531732,0.999998287676,0.0,0.0,0.0,0.0,0.0,0.0
1609056009640516281,274,1609056009640516281,-0.0128481391872,0.00750150235392,0.0377801971434,0.000298126633859,-0.000445070505966,0.00082988059888,0.999999512165,0.0,0.0,0.0,0.0,0.0,0.0
1609056009710889816,275,1609056009710889816,-0.00830397661208,0.00570415482685,0.029894398554,0.00187564374279,0.00102002366919,0.000761346576799,0.999997430928,0.0,0.0,0.0,0.0,0.0,0.0
1609056009812677622,276,1609056009812677622,-0.00904206185868,0.00786189123159,0.00984280941793,0.000564712737666,-0.0015228001096,0.000749878615243,0.999998399929,0.0,0.0,0.0,0.0,0.0,0.0
1609056009915970087,277,1609056009915970087,0.00442221163414,0.0068323455682,0.035889447969,0.000216407777769,-0.000771198687175,0.00058772651609,0.999999506498,0.0,0.0,0.0,0.0,0.0,0.0
1609056010019177675,278,1609056010019177675,-0.000914290059275,0.0049729026121,0.0276832714375,0.000503631652868,-0.000465970548369,0.000711061539986,0.999999511809,0.0,0.0,0.0,0.0,0.0,0.0
1609056010122364283,279,1609056010122364283,-0.00524474311456,0.00580578853764,0.029909938342,-4.48886906343e-05,-0.000682245652028,0.000861745766833,0.99999939496,0.0,0.0,0.0,0.0,0.0,0.0
1609056010225443363,280,1609056010225443363,-0.00894651458283,0.00952551487565,0.0262242588472,0.00305927304382,-0.00100821518188,0.000849674111082,0.999994451187,0.0,0.0,0.0,0.0,0.0,0.0
1609056010328424692,281,1609056010328424692,-0.0176989087574,0.00371170287382,0.0512029836284,0.00210530323812,-0.000121677289769,0.000825218041929,0.99999743595,0.0,0.0,0.0,0.0,0.0,0.0
1609056010431550980,282,1609056010431550980,-0.00384969513303,0.00894165220656,0.0258600348464,0.00142826912529,-0.00143092823805,0.000926258453877,0.999997527265,0.0,0.0,0.0,0.0,0.0,0.0
1609056010534634352,283,1609056010534634352,-0.000284526128145,0.00501216887582,0.0379331511475,-8.43912801368e-05,-0.00112849813403,0.000912533313467,0.999998943326,0.0,0.0,0.0,0.0,0.0,0.0
1609056010637682676,284,1609056010637682676,0.00114934170332,0.0063671966122,0.0475994468733,0.00163845077503,-0.000933854559058,0.0008623465978,0.999997849874,0.0,0.0,0.0,0.0,0.0,0.0
1609056010740897894,285,1609056010740897894,-0.00681336488442,0.00649716955801,0.0271175319298,0.000694084640157,-0.000642847813749,0.00107769798214,0.999998971779,0.0,0.0,0.0,0.0,0.0,0.0
1609056010811216593,286,1609056010811216593,-0.0177406128793,0.00721631279556,0.0120392045795,0.00246381978022,-0.000393715971264,0.000930508268237,0.99999645436,0.0,0.0,0.0,0.0,0.0,0.0
1609056010912776709,287,1609056010912776709,-0.0187124674509,0.00791365371648,0.00243791119391,0.00270839567181,-0.000452725149117,0.000879395472968,0.999995843139,0.0,0.0,0.0,0.0,0.0,0.0
1609056011015960217,288,1609056011015960217,-0.0143738234613,0.00852048004341,0.0103650477937,0.00195430305356,0.000508906395594,0.00080463487328,0.999997637135,0.0,0.0,0.0,0.0,0.0,0.0
1609056011119028807,289,1609056011119028807,-0.00715263194659,0.00378831437327,0.018341350893,0.0023734985623,0.000963300105103,0.00084770344844,0.999996359971,0.0,0.0,0.0,0.0,0.0,0.0
1609056011222079992,290,1609056011222079992,-0.0078612960486,0.00608316912541,0.0100939718563,0.00197264073403,-0.000709665553018,0.000861645237203,0.999997431312,0.0,0.0,0.0,0.0,0.0,0.0
1609056011325220823,291,1609056011325220823,-0.0198920609244,0.00194889426833,0.0149124232889,0.00282126902845,0.000343103405605,0.000896412696365,0.999995559573,0.0,0.0,0.0,0.0,0.0,0.0
1609056011428414345,292,1609056011428414345,-0.0182962132582,0.00624436692226,-0.0118023702774,0.00303372739125,-0.000670121318454,0.00114542127703,0.999994517707,0.0,0.0,0.0,0.0,0.0,0.0
1609056011531591892,293,1609056011531591892,-0.0199504387939,0.00600964675971,-0.00259292272089,0.00333720657529,-0.000755133604113,0.000985346327448,0.999993660939,0.0,0.0,0.0,0.0,0.0,0.0
1609056011634883404,294,1609056011634883404,-0.0173900275536,0.00496140621698,0.00219953295832,0.00141137341752,0.000580819997506,0.000650526343914,0.999998623743,0.0,0.0,0.0,0.0,0.0,0.0
1609056011737617731,295,1609056011737617731,-0.0163032620616,0.0073013990039,0.00412956579192,0.00352798405037,3.85464588759e-05,0.00104368708529,0.999993231257,0.0,0.0,0.0,0.0,0.0,0.0
1609056011841039419,296,1609056011841039419,-0.0139610686388,0.0044475043292,-0.0103546605396,0.00305638296386,-0.000878690158762,0.000949648275364,0.999994492282,0.0,0.0,0.0,0.0,0.0,0.0
1609056011910614967,297,1609056011910614967,-0.0227324798186,0.00736243370429,0.00703053673356,0.00495343195143,-3.78519623582e-05,0.00109627576236,0.999987130046,0.0,0.0,0.0,0.0,0.0,0.0
1609056012013280869,298,1609056012013280869,-0.0181747562818,0.00704931393389,0.00618702903119,0.00383561179719,0.000253898923554,0.00101279159685,0.999992098904,0.0,0.0,0.0,0.0,0.0,0.0
1609056012116390228,299,1609056012116390228,-0.0138731653676,0.0079274066867,0.0296395913422,0.00276388717954,0.000840106093732,0.000519336590606,0.99999569271,0.0,0.0,0.0,0.0,0.0,0.0
1609056012219614506,300,1609056012219614506,-0.00333502936473,0.00498089960127,0.0242661622589,0.00115246180683,0.000387349195652,0.000719890022076,0.999999001775,0.0,0.0,0.0,0.0,0.0,0.0
1609056012322684288,301,1609056012322684288,-0.0105934809544,0.00484601109508,0.0270352915226,0.00179638765934,-4.24390651487e-05,0.000873809241394,0.999998003821,0.0,0.0,0.0,0.0,0.0,0.0
1609056012427041769,302,1609056012427041769,-0.0145135346313,0.00574728600396,0.0188783213302,0.00111309222258,0.000503264135828,0.000752796120921,0.999998970524,0.0,0.0,0.0,0.0,0.0,0.0
1609056012528434992,303,1609056012528434992,-0.0211602644719,0.00633871549181,0.021744168726,0.00360338178095,0.00100000943155,0.000839077325866,0.999992655758,0.0,0.0,0.0,0.0,0.0,0.0
1609056012632004976,304,1609056012632004976,-0.00748707380172,0.00488375041784,0.0158191353965,-6.15463092278e-05,0.00120187394508,0.000552815204633,0.999999123052,0.0,0.0,0.0,0.0,0.0,0.0
1609056012735155106,305,1609056012735155106,-0.00683417456291,0.00627231013458,0.00694583132758,0.00295454157139,-0.00111651533914,0.000691105435199,0.999994773211,0.0,0.0,0.0,0.0,0.0,0.0
1609056012837523460,306,1609056012837523460,-0.00540097715335,0.00638424409807,0.012690522728,0.00358939682455,-0.000848572226961,0.00102693934357,0.999992670748,0.0,0.0,0.0,0.0,0.0,0.0
1609056012940364122,307,1609056012940364122,-0.00731701894396,0.00802705110079,0.00521666494564,0.0016662506025,5.15766150613e-05,0.000728515370996,0.999998345105,0.0,0.0,0.0,0.0,0.0,0.0
1609056013010608196,308,1609056013010608196,-0.0152670792452,0.00485602328403,0.010274692622,0.00266780015461,5.33459532998e-05,0.00105443086531,0.999995884077,0.0,0.0,0.0,0.0,0.0,0.0
1609056013112318754,309,1609056013112318754,-0.0193957969615,0.006116172371,0.0233733251245,0.00103727805914,0.000699892225075,0.000680876627744,0.999998985305,0.0,0.0,0.0,0.0,0.0,0.0
1609056013215537548,310,1609056013215537548,-0.00574919976575,0.0071027273385,0.00586654086234,0.00122829314992,-5.8597168946e-05,0.000631106113559,0.999999044783,0.0,0.0,0.0,0.0,0.0,0.0
1609056013318789482,311,1609056013318789482,-0.000963541338637,0.00637422775403,0.0198105661349,0.00295646409194,-0.000710445540653,0.00113980952878,0.999994727696,0.0,0.0,0.0,0.0,0.0,0.0
1609056013421747446,312,1609056013421747446,0.00492558703608,0.00603700549124,0.0156619450919,0.00172692324268,-0.000220663886929,0.000793370294458,0.999998169801,0.0,0.0,0.0,0.0,0.0,0.0
1609056013525147438,313,1609056013525147438,-0.00942228940315,0.0095547822693,-0.00147732096037,0.00264618163534,-0.000134237936671,0.00096166898686,0.99999602744,0.0,0.0,0.0,0.0,0.0,0.0
1609056013627715588,314,1609056013627715588,-0.0126008565898,0.00632696883224,0.0178406172151,0.00354049012682,-3.69674486887e-05,0.000981669227818,0.999993249921,0.0,0.0,0.0,0.0,0.0,0.0
1609056013731085539,315,1609056013731085539,-0.0176303723951,0.0090245546787,-0.0148237632638,0.00349540868783,-0.000741084059826,0.000746506352066,0.999993337798,0.0,0.0,0.0,0.0,0.0,0.0
1609056013834008694,316,1609056013834008694,-0.00811100013212,0.00821224093505,0.00157553504935,0.00302217804798,-2.81600093907e-05,0.000866510500271,0.999995057391,0.0,0.0,0.0,0.0,0.0,0.0
1609056013937243938,317,1609056013937243938,-0.00826928483,0.00848656367344,0.00148726824935,0.00322649803804,-0.000221643478779,0.00105326035917,0.999994215596,0.0,0.0,0.0,0.0,0.0,0.0
1609056014040426731,318,1609056014040426731,-0.00378270594891,0.00805800838033,-0.0032794793317,0.00108103107188,-0.000452705536068,0.00064706014022,0.999999103871,0.0,0.0,0.0,0.0,0.0,0.0
1609056014110759974,319,1609056014110759974,0.00786716787783,0.00744827432918,0.00810414352398,0.000703505441795,-0.000758070138033,0.000692932515947,0.999999225126,0.0,0.0,0.0,0.0,0.0,0.0
1609056014212186813,320,1609056014212186813,-0.00550827647737,0.0087335506833,0.0400399507506,0.00333923368314,0.000540120471579,0.00107164712079,0.99999370466,0.0,0.0,0.0,0.0,0.0,0.0
1609056014315264225,321,1609056014315264225,-0.00271305729333,0.0104634392885,0.0418746976043,0.000914656705387,0.000495388578232,0.000619704729263,0.999999266979,0.0,0.0,0.0,0.0,0.0,0.0
1609056014418584347,322,1609056014418584347,0.000926185953508,0.00966773114363,0.048893691923,0.000235928762865,0.000681970604775,0.000729558275223,0.999999473499,0.0,0.0,0.0,0.0,0.0,0.0
1609056014521528721,323,1609056014521528721,0.00959352361974,0.00781796257985,0.0516047930679,0.000764623887413,-0.000554969985309,0.000734104416916,0.999999284224,0.0,0.0,0.0,0.0,0.0,0.0
1609056014624562740,324,1609056014624562740,0.00396420301252,0.00906938763908,0.022570159076,0.000855812267372,-0.000365678857101,0.000666448907729,0.999999344854,0.0,0.0,0.0,0.0,0.0,0.0
1609056014727771521,325,1609056014727771521,0.00237708188185,0.00611483225826,0.0266222836106,-0.000937024638209,0.00154135979904,0.000346603466613,0.999998313029,0.0,0.0,0.0,0.0,0.0,0.0
1609056014830964565,326,1609056014830964565,0.0195290397179,0.00525394217996,0.0223926385251,0.000709653990658,-0.00250936374099,0.000640138815965,0.999996394847,0.0,0.0,0.0,0.0,0.0,0.0
1609056014933836699,327,1609056014933836699,0.00616442127761,0.00720651708146,0.048877036749,0.00139920171508,6.37537287404e-05,0.00085788563924,0.9999986511,0.0,0.0,0.0,0.0,0.0,0.0
1609056015036932468,328,1609056015036932468,0.0189298467244,0.00673736068739,0.0390284080315,-0.000461467721674,-0.000441836940967,0.000530453579084,0.999999655223,0.0,0.0,0.0,0.0,0.0,0.0
1609056015140004873,329,1609056015140004873,0.018847268325,0.00629258656194,0.0320015852415,-0.000522264269629,0.000208669023249,0.000567827062589,0.999999680634,0.0,0.0,0.0,0.0,0.0,0.0
1609056015210304260,330,1609056015210304260,0.00813934157159,0.00444654890203,0.0405526295548,0.000189886025217,-0.000453822676716,0.000920336409571,0.999999455484,0.0,0.0,0.0,0.0,0.0,0.0
1609056015312288046,331,1609056015312288046,0.00951396980708,0.00498134915294,0.0528336180799,0.00139998723547,-0.000261089891709,0.000730702810402,0.999998718969,0.0,0.0,0.0,0.0,0.0,0.0
1609056015415541172,332,1609056015415541172,0.00893438929395,0.00744579738147,0.0462378481746,-0.00121115703463,0.000389265887461,0.000676212045699,0.999998962153,0.0,0.0,0.0,0.0,0.0,0.0
1609056015518815756,333,1609056015518815756,0.019919476693,0.00819893779357,0.0457412629631,0.000531537407916,-0.000461680405688,0.000878400203739,0.999999366365,0.0,0.0,0.0,0.0,0.0,0.0
1609056015621944904,334,1609056015621944904,0.0116637364143,0.00653325713221,0.0439047026749,0.00235017696084,-0.00038557656887,0.000745923510367,0.999996885793,0.0,0.0,0.0,0.0,0.0,0.0
1609056015725365877,335,1609056015725365877,0.0137624392051,0.00774507391241,0.0284515587366,0.000466193184956,-0.00152693336764,0.00122762727067,0.999997972032,0.0,0.0,0.0,0.0,0.0,0.0
1609056015828069925,336,1609056015828069925,0.00659482743563,0.00778963346534,0.0467377560824,0.00155512388905,-0.00236152157764,0.00101955304046,0.999995482648,0.0,0.0,0.0,0.0,0.0,0.0
1609056015931178570,337,1609056015931178570,0.00596229233455,0.00693678067939,0.0332790837841,0.00140271431652,-0.00063318698805,0.000706393581392,0.999998566236,0.0,0.0,0.0,0.0,0.0,0.0
1609056016034099579,338,1609056016034099579,0.00675146882036,0.00923454541955,0.0436862009205,0.0012249925786,-0.000456074671701,0.000834227362588,0.999998797726,0.0,0.0,0.0,0.0,0.0,0.0
1609056016137134552,339,1609056016137134552,0.0226383982126,0.00782895170283,0.047568573841,-0.000162797525469,0.00056811056821,0.000735137844207,0.999999555159,0.0,0.0,0.0,0.0,0.0,0.0
1609056016240373135,340,1609056016240373135,0.0320867420765,0.0101304352584,0.0249556114365,0.00175740181437,-0.00106446307337,0.000581659443718,0.999997720062,0.0,0.0,0.0,0.0,0.0,0.0
1609056016310524225,341,1609056016310524225,0.0349113739641,0.0109824663594,0.0362729439062,9.63466696237e-05,-0.000349035060206,0.000632354975378,0.999999734509,0.0,0.0,0.0,0.0,0.0,0.0
1609056016412005424,342,1609056016412005424,0.0455800930819,0.00777352928606,0.0454824229294,-0.000526060032929,-0.000167152538279,0.00112156182503,0.999999218709,0.0,0.0,0.0,0.0,0.0,0.0
1609056016515069485,343,1609056016515069485,0.0467697803178,0.0149275052599,0.0508908676452,-0.000378881322186,-0.00059795428892,0.000636529570255,0.999999546864,0.0,0.0,0.0,0.0,0.0,0.0
1609056016618698359,344,1609056016618698359,0.0620390646923,0.0121967647002,0.0481366739125,-0.0010139091062,-0.000520479444857,0.000971224105632,0.999998878905,0.0,0.0,0.0,0.0,0.0,0.0
1609056016720956564,345,1609056016720956564,0.0672269224645,0.0150106011979,0.0511234821825,0.00150141045547,0.00115301109665,0.00092058289566,0.999997784427,0.0,0.0,0.0,0.0,0.0,0.0
1609056016824190617,346,1609056016824190617,0.0794535737353,0.00535224542808,0.0516346515198,-0.000184067990438,-0.000705474477248,-0.000285924542052,0.999999693335,0.0,0.0,0.0,0.0,0.0,0.0
1609056016927477121,347,1609056016927477121,0.0600676706782,-0.00199589668736,0.0469717839843,0.000258602901344,-0.00295163723269,-0.00189810520194,0.99999380906,0.0,0.0,0.0,0.0,0.0,0.0
1609056017030735731,348,1609056017030735731,0.068090151978,0.00701923057458,0.038137190612,2.37029182144e-05,-0.00121305124894,-0.00435468455824,0.999989782281,0.0,0.0,0.0,0.0,0.0,0.0
1609056017134251118,349,1609056017134251118,0.0413450255593,-0.00385961468787,0.0381356480683,-0.000427901327883,-0.000456488722193,-0.0033537556351,0.999994180403,0.0,0.0,0.0,0.0,0.0,0.0
1609056017236841679,350,1609056017236841679,0.0505350921518,0.00485590082702,0.0447421587977,-0.00178753350144,0.000304955362704,-0.00407745234326,0.999990043004,0.0,0.0,0.0,0.0,0.0,0.0
1609056017339979887,351,1609056017339979887,0.0375441696734,0.0115940044829,0.0411238634716,0.00314184667094,0.00123605494353,-0.00256275062054,0.999991016598,0.0,0.0,0.0,0.0,0.0,0.0
1609056017410528183,352,1609056017410528183,0.0382910915542,0.00962349533408,0.030925723723,-0.000791838753334,-0.00109728344132,-0.00149845297973,0.999997961797,0.0,0.0,0.0,0.0,0.0,0.0
1609056017512038231,353,1609056017512038231,0.0249016415266,0.0161826021425,0.0277874386343,0.00340565461934,-0.00123355271935,0.000667444029174,0.999993217168,0.0,0.0,0.0,0.0,0.0,0.0
1609056017615155935,354,1609056017615155935,0.0221610662107,0.0156142077473,0.0283954058782,0.00260090096386,0.00242356373122,0.00281112726259,0.999989729555,0.0,0.0,0.0,0.0,0.0,0.0
1609056017718523026,355,1609056017718523026,0.024265993581,0.0130990086127,0.0186085624276,0.000785330549907,-0.00102158087723,0.00264249235213,0.999995678421,0.0,0.0,0.0,0.0,0.0,0.0
1609056017821737289,356,1609056017821737289,0.0140665925838,0.00199860027072,0.0238323360822,0.00545805219596,-0.00130869810522,0.00141128128773,0.99998325249,0.0,0.0,0.0,0.0,0.0,0.0
1609056017924861670,357,1609056017924861670,0.0222678519602,0.0072360262201,0.0348016030809,0.00241410369854,0.00154006483741,0.000912096996143,0.999995484181,0.0,0.0,0.0,0.0,0.0,0.0
1609056018027609587,358,1609056018027609587,0.0313296278382,0.0117354102833,0.0205853914871,0.00156907687314,-0.000160889715344,0.000510356252823,0.999998625823,0.0,0.0,0.0,0.0,0.0,0.0
1609056018130999804,359,1609056018130999804,0.0415069370523,0.0105160763114,0.051960662029,0.00323713006705,0.00120471018729,0.00112956929715,0.999993396845,0.0,0.0,0.0,0.0,0.0,0.0
1609056018234035969,360,1609056018234035969,0.0460983188679,0.0169873073334,0.0363255886184,0.000486647394144,0.00112505760169,0.00149134243152,0.999998136656,0.0,0.0,0.0,0.0,0.0,0.0
1609056018337191343,361,1609056018337191343,0.0155295649456,0.00931642419326,0.0289332715278,0.00255259178326,-0.000540693930331,0.00140306011759,0.999995611664,0.0,0.0,0.0,0.0,0.0,0.0
1609056018440374613,362,1609056018440374613,0.0128682652259,0.0104348354419,0.0502550949246,0.00429241685814,-0.00127190389594,0.000858383285933,0.999989610244,0.0,0.0,0.0,0.0,0.0,0.0
1609056018510383368,363,1609056018510383368,0.0250046016703,0.0098012248339,0.0334162827567,0.000472626806845,-0.000745700525028,0.000620083533339,0.999999418025,0.0,0.0,0.0,0.0,0.0,0.0
1609056018612728596,364,1609056018612728596,0.0452918224573,0.00830132208626,0.035944997627,0.00116176294274,-0.00118131850801,0.00143868926318,0.99999759248,0.0,0.0,0.0,0.0,0.0,0.0
1609056018715477943,365,1609056018715477943,0.0476004573787,0.00989603510134,0.058681088668,-0.000538683971742,-0.000801058366827,0.000757264437768,0.999999247337,0.0,0.0,0.0,0.0,0.0,0.0
1609056018818674088,366,1609056018818674088,0.0392811415372,-0.00347690706621,0.0445287015152,0.000310136050086,-0.00163125305138,-0.00126605135709,0.999997819969,0.0,0.0,0.0,0.0,0.0,0.0
