%time,field.header.seq,field.header.stamp,field.pose.pose.position.x,field.pose.pose.position.y,field.pose.pose.position.z,field.pose.pose.orientation.x,field.pose.pose.orientation.y,field.pose.pose.orientation.z,field.pose.pose.orientation.w,field.twist.twist.linear.x,field.twist.twist.linear.y,field.twist.twist.linear.z,field.twist.twist.angular.x,field.twist.twist.angular.y,field.twist.twist.angular.z
1609059612444316149,51,1609059612444316149,0.00844093595458,-0.0109528626899,-0.00490434363221,-8.1153813103e-05,0.000194819288575,0.00022053755813,0.999999953411,0.0,0.0,0.0,0.0,0.0,0.0
1609059612539931536,52,1609059612539931536,0.00920512489877,-0.0124068491287,-0.00468816697763,0.000282552894183,-5.86181287876e-05,0.000149884509698,0.999999947131,0.0,0.0,0.0,0.0,0.0,0.0
1609059612650884390,53,1609059612650884390,0.00883225231213,-0.014246855875,-0.00580559746146,5.02801687624e-05,-6.8912273374e-05,0.000169500942645,0.999999981996,0.0,0.0,0.0,0.0,0.0,0.0
1609059612745012522,54,1609059612745012522,0.00148573787392,-0.0118733324794,-0.00650134184903,0.000287711391253,-2.11085708675e-05,0.000127009864176,0.999999950323,0.0,0.0,0.0,0.0,0.0,0.0
1609059612840616703,55,1609059612840616703,0.00664276933009,-0.0116200336824,-0.00563956185135,2.27139363085e-05,0.000174295906325,7.89657323945e-05,0.999999981435,0.0,0.0,0.0,0.0,0.0,0.0
1609059612950987577,56,1609059612950987577,-0.00159289273907,-0.0198911545006,-0.00707391126233,4.36289612598e-05,-0.000264996558095,0.000138042321993,0.999999954409,0.0,0.0,0.0,0.0,0.0,0.0
1609059613044886351,57,1609059613044886351,0.00909019750268,-0.00908850992403,-0.00601860822554,0.000192560502828,-3.23934213537e-05,-1.53212524761e-05,0.999999980818,0.0,0.0,0.0,0.0,0.0,0.0
1609059613140022993,58,1609059613140022993,0.00784869540173,-0.010807648232,-0.0080354855256,2.75916029257e-05,-0.000129852229661,0.000163924657037,0.999999977753,0.0,0.0,0.0,0.0,0.0,0.0
1609059613251049280,59,1609059613251049280,0.00403275721491,-0.011678338693,-0.00598715859457,0.000292712317166,-6.01695380603e-05,0.000185782395841,0.999999938092,0.0,0.0,0.0,0.0,0.0,0.0
1609059613345152140,60,1609059613345152140,0.00517094326121,-0.0104171095801,-0.00602953086672,-7.09970324937e-05,-5.56872983517e-05,0.000154426190002,0.999999984005,0.0,0.0,0.0,0.0,0.0,0.0
1609059613439872503,61,1609059613439872503,0.012667571562,-0.00690589487782,-0.00632302437349,0.00011178895489,-9.27429967138e-05,7.55577686888e-05,0.999999986596,0.0,0.0,0.0,0.0,0.0,0.0
1609059613550514698,62,1609059613550514698,0.0113099718823,-0.00557885523463,-0.00788233224725,3.31940188737e-05,0.000232191455375,0.000150077188588,0.999999961231,0.0,0.0,0.0,0.0,0.0,0.0
1609059613645120621,63,1609059613645120621,0.00184945070834,-0.0126973728433,-0.00726002808894,9.61176036579e-05,-0.00047097175647,0.000198735620276,0.999999864726,0.0,0.0,0.0,0.0,0.0,0.0
1609059613739439487,64,1609059613739439487,0.00901041568039,-0.0205994613083,-0.00536960427768,0.00045410755351,-2.77184989171e-06,0.00025444702535,0.999999864518,0.0,0.0,0.0,0.0,0.0,0.0
1609059613850419521,65,1609059613850419521,0.00052070605267,-0.00540637474952,-0.00710307236956,3.88856460928e-05,-5.17260092048e-05,9.48518138428e-05,0.999999993408,0.0,0.0,0.0,0.0,0.0,0.0
1609059613944536924,66,1609059613944536924,0.00447077814007,-0.00830692178956,-0.00810530786134,0.000138266650103,-1.123048588e-05,-2.33995291904e-05,0.999999990104,0.0,0.0,0.0,0.0,0.0,0.0
1609059614039515734,67,1609059614039515734,0.00743872343406,-0.0102808927702,-0.00811525695673,0.000268227972781,-0.000126382787804,0.000172056788506,0.999999941239,0.0,0.0,0.0,0.0,0.0,0.0
1609059614150661469,68,1609059614150661469,0.00805534674859,-0.0157424010086,-0.00839555616191,-1.82641858241e-06,0.000133056834651,0.000108063289012,0.999999985307,0.0,0.0,0.0,0.0,0.0,0.0
1609059614244650364,69,1609059614244650364,0.00853769410265,-0.0177381392776,-0.00703689600402,0.000257969685391,-0.000377580912465,0.000226864248945,0.999999869708,0.0,0.0,0.0,0.0,0.0,0.0
1609059614341736794,70,1609059614341736794,-0.000702774490163,-0.0046812491477,-0.00763754811293,-7.7320754256e-05,0.000157253774773,0.000115753683365,0.999999977947,0.0,0.0,0.0,0.0,0.0,0.0
1609059614451108694,71,1609059614451108694,0.00581736335573,-0.0150776962433,-0.00829933432669,7.30305239632e-05,6.74853810144e-05,0.000202658807011,0.999999974521,0.0,0.0,0.0,0.0,0.0,0.0
1609059614545197248,72,1609059614545197248,0.00426492794016,-0.0111732662858,-0.00666132329712,0.000153846637056,-0.000261781753263,0.00030615862162,0.999999907034,0.0,0.0,0.0,0.0,0.0,0.0
1609059614639674425,73,1609059614639674425,0.000552712389504,-0.0116890533983,-0.00864921503275,6.63282390131e-05,-0.000166602797248,0.000278463387908,0.999999945151,0.0,0.0,0.0,0.0,0.0,0.0
1609059614750735521,74,1609059614750735521,0.00939429244068,-0.0109465201346,-0.00750570201263,0.000266717462099,-5.16184023066e-05,0.00020746489217,0.999999941578,0.0,0.0,0.0,0.0,0.0,0.0
1609059614845012665,75,1609059614845012665,0.00849434217106,-0.0166089551255,-0.00895057595416,3.9741583467e-05,3.16716105991e-05,0.000229420512052,0.999999972392,0.0,0.0,0.0,0.0,0.0,0.0
1609059614939806700,76,1609059614939806700,0.0121519030069,-0.0182830797572,-0.00692931411671,0.000297259324487,0.000194657057937,0.000254091768208,0.999999904591,0.0,0.0,0.0,0.0,0.0,0.0
1609059615050611973,77,1609059615050611973,0.00507900664235,-0.0105818352139,-0.00787202306559,2.82610730005e-05,2.177369204e-06,0.000229658627757,0.999999973227,0.0,0.0,0.0,0.0,0.0,0.0
1609059615144959450,78,1609059615144959450,0.010165767332,-0.0191705922028,-0.00847381584953,0.000154334372606,-3.2849490248e-05,0.000211436334274,0.999999965198,0.0,0.0,0.0,0.0,0.0,0.0
1609059615239545107,79,1609059615239545107,-0.00504133585681,-0.0226022271902,-0.0098189541199,0.000200624883161,-0.000122257496753,6.88253603411e-05,0.999999970033,0.0,0.0,0.0,0.0,0.0,0.0
1609059615350768805,80,1609059615350768805,0.0104850681595,-0.0175764466634,-0.00956391451211,0.000189810729719,2.19830278365e-05,0.000162855364627,0.999999968483,0.0,0.0,0.0,0.0,0.0,0.0
1609059615444312334,81,1609059615444312334,0.00362339231779,-0.0194683588688,-0.00629410182453,0.000218948621104,-0.000115539353303,0.000140434822077,0.999999959495,0.0,0.0,0.0,0.0,0.0,0.0
1609059615539756775,82,1609059615539756775,-0.000259204195025,-0.0159481689967,-0.00762325555726,0.000253802957491,-0.00018268876712,0.000150234564756,0.999999939819,0.0,0.0,0.0,0.0,0.0,0.0
1609059615651205063,83,1609059615651205063,0.00441945679399,-0.0154051366699,-0.00978426940363,1.90218034153e-05,2.84987081461e-05,0.000208230891531,0.999999977733,0.0,0.0,0.0,0.0,0.0,0.0
1609059615744613647,84,1609059615744613647,0.0115170360279,-0.0191750401526,-0.00538627494204,0.00010716677747,8.09827503445e-05,9.59761666231e-05,0.999999986373,0.0,0.0,0.0,0.0,0.0,0.0
1609059615840117455,85,1609059615840117455,0.0116069495576,-0.0220591367927,-0.00818223377323,0.000172587686447,0.000179497973971,0.000177550639429,0.999999953235,0.0,0.0,0.0,0.0,0.0,0.0
1609059615950735807,86,1609059615950735807,0.0193960274534,-0.0171778389771,-0.00727179116668,0.000229556794636,9.17919503669e-05,0.000187180830164,0.999999951921,0.0,0.0,0.0,0.0,0.0,0.0
1609059616044845581,87,1609059616044845581,-0.00304761084496,-0.0196480382017,-0.00511200157119,0.000122175659233,4.47617905717e-05,0.000259331142159,0.999999957908,0.0,0.0,0.0,0.0,0.0,0.0
1609059616139888048,88,1609059616139888048,0.0138997621204,-0.0176328206985,-0.01156128392,0.000255178817821,-0.000147384991712,0.000161635150194,0.999999943518,0.0,0.0,0.0,0.0,0.0,0.0
1609059616250955105,89,1609059616250955105,0.00681534164565,-0.0194091518321,-0.0112513735259,5.01456406381e-05,-0.000150678608959,0.000104429138912,0.999999981938,0.0,0.0,0.0,0.0,0.0,0.0
1609059616344603777,90,1609059616344603777,0.00387381738982,-0.0186895171937,-0.00818097752584,-1.36232017464e-05,-0.000128166951359,0.000298653146117,0.999999947097,0.0,0.0,0.0,0.0,0.0,0.0
1609059616439706564,91,1609059616439706564,0.00456855029805,-0.0169810874687,-0.00909020345676,-5.2812677254e-05,0.000263695643119,0.000181634059283,0.999999947342,0.0,0.0,0.0,0.0,0.0,0.0
1609059616550727606,92,1609059616550727606,0.00484555302538,-0.021753238414,-0.00937810567706,0.000367376102207,-0.000213700183153,0.000203563780005,0.999999888964,0.0,0.0,0.0,0.0,0.0,0.0
1609059616644537687,93,1609059616644537687,0.00837507624381,-0.0171089117748,-0.00894052435672,0.00029848682834,-0.000138728537327,0.00013779504122,0.999999936336,0.0,0.0,0.0,0.0,0.0,0.0
1609059616740008116,94,1609059616740008116,-0.00228537581404,-0.0180749024204,-0.00824384100196,0.000173233858041,0.000228731397278,0.000252298194378,0.999999927009,0.0,0.0,0.0,0.0,0.0,0.0
1609059616850827694,95,1609059616850827694,0.00330819565254,-0.0165434127248,-0.00867208306021,0.000214058691474,-1.03911952515e-05,0.000166500760603,0.999999963174,0.0,0.0,0.0,0.0,0.0,0.0
1609059616944585800,96,1609059616944585800,0.00283867173504,-0.014546028038,-0.00866907893123,0.000278371485902,-0.000112004532955,1.75943048243e-05,0.999999954827,0.0,0.0,0.0,0.0,0.0,0.0
1609059617039831638,97,1609059617039831638,0.00181191049115,-0.0116885879193,-0.0109706392228,-2.21854931212e-05,8.9658832125e-05,0.000284182294598,0.999999955355,0.0,0.0,0.0,0.0,0.0,0.0
1609059617152529001,98,1609059617152529001,0.00620857601611,-0.018931787466,-0.00852932878176,0.000188690868864,-0.000144604311912,0.000163281742643,0.999999958412,0.0,0.0,0.0,0.0,0.0,0.0
1609059617244947433,99,1609059617244947433,0.00795645331831,-0.0110708778626,-0.0110837372736,0.000188803982769,-1.32157210888e-05,0.000264340535086,0.999999947151,0.0,0.0,0.0,0.0,0.0,0.0
1609059617340040445,100,1609059617340040445,-0.00131151259142,-0.0204235496225,-0.00957450407867,0.000166740451344,1.53270182191e-05,0.000151063433265,0.999999974571,0.0,0.0,0.0,0.0,0.0,0.0
1609059617451854229,101,1609059617451854229,0.00355021325698,-0.014486195807,-0.0125298998046,0.000101925674864,-0.00024069416818,0.000265587588021,0.99999993057,0.0,0.0,0.0,0.0,0.0,0.0
1609059617544720888,102,1609059617544720888,0.00905123914795,-0.0129427026619,-0.0096010560951,0.00023626281694,2.43686306906e-05,0.00015041065268,0.999999960481,0.0,0.0,0.0,0.0,0.0,0.0
1609059617640109301,103,1609059617640109301,0.00437129193646,-0.0171109629,-0.0104290408611,5.99932265934e-05,8.61970344096e-05,0.000239112414414,0.999999965898,0.0,0.0,0.0,0.0,0.0,0.0
1609059617751121283,104,1609059617751121283,0.0042013490541,-0.0164070104925,-0.01023477884,0.000287774687689,-0.000183489403774,0.00017390692577,0.999999926637,0.0,0.0,0.0,0.0,0.0,0.0
1609059617844768047,105,1609059617844768047,0.00617292309793,-0.0158678854353,-0.0116087593748,0.000302222181188,-7.02559621182e-05,0.000223939020403,0.999999926789,0.0,0.0,0.0,0.0,0.0,0.0
1609059617940230131,106,1609059617940230131,0.00591392648069,-0.0157059617753,-0.00954683318861,-2.59497299958e-05,7.4642143622e-05,0.000268692358152,0.99999996078,0.0,0.0,0.0,0.0,0.0,0.0
1609059618051217318,107,1609059618051217318,0.0104539965747,-0.0152183154101,-0.0107612203383,8.09159684206e-05,9.7096931868e-05,0.000253982468021,0.999999959759,0.0,0.0,0.0,0.0,0.0,0.0
1609059618145310402,108,1609059618145310402,0.005847089545,-0.0150775331191,-0.00993037375073,0.000290249683412,-7.93284013909e-05,0.000249737495221,0.999999923547,0.0,0.0,0.0,0.0,0.0,0.0
1609059618241776466,109,1609059618241776466,0.00210435168994,-0.0203395201526,-0.0113860445899,0.000344487210716,-0.000299741170705,0.000138168778477,0.999999886197,0.0,0.0,0.0,0.0,0.0,0.0
1609059618351482153,110,1609059618351482153,-0.00042207086231,-0.0177646792846,-0.00998680851849,0.000159205685982,-1.02149944598e-05,0.000114704107789,0.999999980696,0.0,0.0,0.0,0.0,0.0,0.0
1609059618445366383,111,1609059618445366383,0.000853104164897,-0.0162312776362,-0.00927420274064,8.60413692297e-05,0.000165443301267,0.00014436177541,0.999999972193,0.0,0.0,0.0,0.0,0.0,0.0
1609059618540445566,112,1609059618540445566,0.00484599027899,-0.0145656759375,-0.00984431473401,8.7938062679e-05,0.000115291574244,0.000209418396185,0.999999967559,0.0,0.0,0.0,0.0,0.0,0.0
1609059618651310444,113,1609059618651310444,0.00424944733435,-0.0108551251596,-0.0108414291606,6.83879584032e-05,-0.000112802377172,0.000199382674735,0.999999971423,0.0,0.0,0.0,0.0,0.0,0.0
1609059618745106936,114,1609059618745106936,0.00469500830131,-0.0134894440969,-0.00984895305247,0.000412213968406,-0.000167866370071,0.000110585106821,0.999999894836,0.0,0.0,0.0,0.0,0.0,0.0
1609059618840212822,115,1609059618840212822,-0.00273527543482,-0.0183753972663,-0.0101165994972,6.18601655297e-05,-5.19341340453e-05,0.000199237008976,0.99999997689,0.0,0.0,0.0,0.0,0.0,0.0
1609059618951279879,116,1609059618951279879,0.00111034626385,-0.0148686042597,-0.0095895896471,2.24411724907e-06,0.000294113163331,0.000170931050984,0.999999942137,0.0,0.0,0.0,0.0,0.0,0.0
1609059619046012402,117,1609059619046012402,0.00422689006967,-0.0122119226247,-0.0101842354247,1.89599501826e-05,9.21986497106e-05,0.000147457746445,0.999999984698,0.0,0.0,0.0,0.0,0.0,0.0
1609059619140285254,118,1609059619140285254,0.00531126895448,-0.0144987221393,-0.00869425444668,0.000151575560301,-0.000126713803635,0.000113608135026,0.999999974031,0.0,0.0,0.0,0.0,0.0,0.0
1609059619252959967,119,1609059619252959967,0.00290349032005,-0.0221879365778,-0.0113807032779,0.000220164310701,-0.000114229026061,0.000137747457209,0.999999959753,0.0,0.0,0.0,0.0,0.0,0.0
1609059619347090483,120,1609059619347090483,-0.000467734889624,-0.0141940369159,-0.010825702033,0.000255747549943,-0.000180464071826,0.000112164239746,0.999999944723,0.0,0.0,0.0,0.0,0.0,0.0
1609059619440510035,121,1609059619440510035,0.00458352949076,-0.0194785745604,-0.012405464995,0.000385301559345,-5.26180153045e-05,0.000137786446046,0.999999914894,0.0,0.0,0.0,0.0,0.0,0.0
1609059619554473639,122,1609059619554473639,0.00646838258649,-0.0167512490787,-0.0118059898314,0.000315919101702,-0.000212434626741,0.000187902155897,0.99999990988,0.0,0.0,0.0,0.0,0.0,0.0
1609059619649059534,123,1609059619649059534,-0.00135281031547,-0.0158021962419,-0.00858876848676,9.92944304165e-05,9.86579564375e-05,0.000108189073755,0.999999984351,0.0,0.0,0.0,0.0,0.0,0.0
1609059619743403912,124,1609059619743403912,0.00748014711442,-0.0120230847139,-0.00898196517405,4.99209034978e-05,8.56933689596e-05,9.05693824133e-05,0.999999990981,0.0,0.0,0.0,0.0,0.0,0.0
1609059619854454279,125,1609059619854454279,0.00421218770815,-0.011948487769,-0.0113853636622,-5.73975572924e-05,1.31660696949e-05,0.000129666668792,0.999999989859,0.0,0.0,0.0,0.0,0.0,0.0
1609059619948391914,126,1609059619948391914,0.00116866524378,-0.00980337237485,-0.0103159636194,-2.22049253145e-05,3.41781475893e-05,0.000212280171309,0.999999976638,0.0,0.0,0.0,0.0,0.0,0.0
1609059620041976213,127,1609059620041976213,1.85414847443e-05,-0.0168557901747,-0.0103023890895,1.52766304584e-05,-0.000131304467655,0.000229033263717,0.999999965035,0.0,0.0,0.0,0.0,0.0,0.0
1609059620154183149,128,1609059620154183149,0.00623873358085,-0.0140501870319,-0.011727590017,0.000342215112874,-0.000272230527928,0.000111823523627,0.999999898137,0.0,0.0,0.0,0.0,0.0,0.0
1609059620248071909,129,1609059620248071909,0.00703094422125,-0.0122382450059,-0.0106915596828,0.000127801164825,0.000206632514199,0.000231540234919,0.999999943679,0.0,0.0,0.0,0.0,0.0,0.0
1609059620341902494,130,1609059620341902494,-0.00243105236117,-0.0124964377308,-0.0103625910641,0.000136848738138,-3.83621566983e-05,8.52354245023e-05,0.999999986268,0.0,0.0,0.0,0.0,0.0,0.0
1609059620454445839,131,1609059620454445839,0.00193004052301,-0.0104470923039,-0.00973989645129,-0.000123758582317,0.000151883275788,0.000150367200173,0.999999969502,0.0,0.0,0.0,0.0,0.0,0.0
1609059620548113585,132,1609059620548113585,0.00109709770787,-0.0121843944259,-0.00992368915866,0.000231862839175,4.2099161765e-05,0.000173404505292,0.999999957199,0.0,0.0,0.0,0.0,0.0,0.0
1609059620642411470,133,1609059620642411470,-0.000210412955321,-0.00590083009354,-0.0101013162065,-0.000111115845186,0.000192814028739,0.000232364981722,0.999999948241,0.0,0.0,0.0,0.0,0.0,0.0
1609059620755493402,134,1609059620755493402,-0.00766984614007,-0.0141675529667,-0.00928049747312,0.000235872540983,-5.85346177868e-05,0.000193015438014,0.999999951841,0.0,0.0,0.0,0.0,0.0,0.0
1609059620848266840,135,1609059620848266840,-0.00160670372755,-0.0121069689449,-0.0111957332948,-4.68068524693e-05,-8.78703370545e-05,0.00021140603341,0.999999972698,0.0,0.0,0.0,0.0,0.0,0.0
1609059620942099094,136,1609059620942099094,0.0014646354169,-0.00961696954858,-0.00985114564615,-8.0770395214e-05,-2.50397986912e-05,9.36723721578e-05,0.999999992037,0.0,0.0,0.0,0.0,0.0,0.0
1609059621054895401,137,1609059621054895401,0.00247494081642,-0.0129736665517,-0.0115195201436,-5.79208404432e-05,0.000112148115899,0.000315859876623,0.99999994215,0.0,0.0,0.0,0.0,0.0,0.0
1609059621148100376,138,1609059621148100376,0.000558584799707,-0.0138257068987,-0.0101157290366,0.00028580190822,4.5869419779e-05,0.000260717991065,0.99999992412,0.0,0.0,0.0,0.0,0.0,0.0
1609059621241881371,139,1609059621241881371,-3.15656193061e-05,-0.0169239055119,-0.0111606616705,0.000227249342958,0.000110352584183,7.04041444504e-05,0.999999965612,0.0,0.0,0.0,0.0,0.0,0.0
1609059621354220390,140,1609059621354220390,0.00257957634879,-0.015272910796,-0.0110871102941,0.000135800611266,-3.44746899584e-05,0.000303277713845,0.999999944196,0.0,0.0,0.0,0.0,0.0,0.0
1609059621449510336,141,1609059621449510336,0.0106054804905,-0.0151755555416,-0.0117021617014,0.000181872730303,-0.000208898535571,0.000116553132856,0.999999954849,0.0,0.0,0.0,0.0,0.0,0.0
1609059621543064833,142,1609059621543064833,-0.00197010325453,-0.014703512153,-0.0117151968512,0.00013268420145,6.34692295301e-05,0.00025238388161,0.999999957334,0.0,0.0,0.0,0.0,0.0,0.0
1609059621641418219,143,1609059621641418219,0.0156293705442,-0.0117754063878,-0.0101676207729,0.000254452782104,7.8704741378e-05,0.000271299742715,0.999999927728,0.0,0.0,0.0,0.0,0.0,0.0
1609059621749258280,144,1609059621749258280,0.00216189059339,-0.0142219054297,-0.0114110716737,0.000267366325633,-0.000193969876429,0.000238601671078,0.99999991698,0.0,0.0,0.0,0.0,0.0,0.0
1609059621843134642,145,1609059621843134642,0.00882989973983,-0.0202920578172,-0.00957197067835,0.000189924706983,0.000229926461808,0.000115119348965,0.999999948905,0.0,0.0,0.0,0.0,0.0,0.0
1609059621939890146,146,1609059621939890146,0.000195007799923,-0.0132501769701,-0.0113358549889,0.000142391697032,-3.0423346921e-05,0.000222033827878,0.99999996475,0.0,0.0,0.0,0.0,0.0,0.0
1609059622050305843,147,1609059622050305843,0.00652834755649,-0.0192535766824,-0.0125309460148,5.48933576187e-05,-0.000155079670801,0.000252981217323,0.999999954469,0.0,0.0,0.0,0.0,0.0,0.0
1609059622143744230,148,1609059622143744230,0.00556441995551,-0.0179227863288,-0.0116025534511,0.000177474309987,-9.5756306738e-07,0.000243843040189,0.999999954521,0.0,0.0,0.0,0.0,0.0,0.0
1609059622241899490,149,1609059622241899490,0.00626261794795,-0.0115659688212,-0.0112874903517,3.34235330607e-05,0.000120374440371,0.000238414211473,0.999999963776,0.0,0.0,0.0,0.0,0.0,0.0
1609059622349622726,150,1609059622349622726,-0.0019106277606,-0.0109418313383,-0.0112494669791,5.67981014535e-05,-0.000256205268108,0.000166272817509,0.999999951743,0.0,0.0,0.0,0.0,0.0,0.0
1609059622443579912,151,1609059622443579912,-0.00245504182032,-0.0155104375609,-0.0114274851004,0.00014243675305,-0.000184013410014,0.000118497377255,0.999999965905,0.0,0.0,0.0,0.0,0.0,0.0
1609059622540438890,152,1609059622540438890,0.0135544589349,-0.01101810357,-0.0114930956127,2.05105174871e-05,7.48246007293e-05,0.000158843264866,0.999999984375,0.0,0.0,0.0,0.0,0.0,0.0
1609059622649741650,153,1609059622649741650,-0.000210040048748,-0.0160388719517,-0.0104353843857,0.000161829812927,1.2933767108e-05,0.000176983801272,0.99999997116,0.0,0.0,0.0,0.0,0.0,0.0
1609059622743291378,154,1609059622743291378,0.00385552086531,-0.00809116110854,-0.0121933915763,0.000344136989114,-0.000304713645266,0.000126121960566,0.999999886406,0.0,0.0,0.0,0.0,0.0,0.0
1609059622840158701,155,1609059622840158701,0.0033311006733,-0.0141377998128,-0.0104830361879,0.000218251141216,0.000317928743508,0.000129467824598,0.999999917263,0.0,0.0,0.0,0.0,0.0,0.0
1609059622949543238,156,1609059622949543238,0.0124353577218,-0.00727167027368,-0.0109509024775,7.84410070267e-05,0.000124047563124,0.000265097687399,0.999999954091,0.0,0.0,0.0,0.0,0.0,0.0
1609059623043590307,157,1609059623043590307,-0.00450772616033,-0.0160308806499,-0.00933543704934,0.000196490995631,-0.000213642365756,0.000274239770567,0.99999992027,0.0,0.0,0.0,0.0,0.0,0.0
1609059623141092539,158,1609059623141092539,0.00229840133767,-0.0157591434356,-0.0113254340465,0.000354490213539,-0.000173284301422,0.000383846105526,0.999999848486,0.0,0.0,0.0,0.0,0.0,0.0
1609059623249552488,159,1609059623249552488,0.000309150355569,-0.0123408931163,-0.0122757838914,0.000138429947642,-3.55289633346e-05,0.000164361359528,0.99999997628,0.0,0.0,0.0,0.0,0.0,0.0
1609059623343284130,160,1609059623343284130,0.00397456137682,-0.0126716478633,-0.0126354496482,0.000385270060515,-0.000171232231053,0.000247123113394,0.999999880588,0.0,0.0,0.0,0.0,0.0,0.0
1609059623440180540,161,1609059623440180540,0.00180258276866,-0.0157450073504,-0.0102904153117,-3.46086615673e-05,9.07865188824e-05,0.000128752777374,0.999999986991,0.0,0.0,0.0,0.0,0.0,0.0
1609059623549568653,162,1609059623549568653,0.00254525327903,-0.0132387346475,-0.0113686085392,0.00015807729504,-3.71035369016e-06,0.000179603507871,0.99999997137,0.0,0.0,0.0,0.0,0.0,0.0
1609059623643646240,163,1609059623643646240,0.00268355254062,-0.0167814345481,-0.0117675082026,0.00026787726998,-0.000238491346908,0.000259011116978,0.999999902138,0.0,0.0,0.0,0.0,0.0,0.0
1609059623741259813,164,1609059623741259813,0.000472528990946,-0.0107580269451,-0.0125787428839,0.000273343878828,8.12383799441e-05,0.000186238718249,0.999999941999,0.0,0.0,0.0,0.0,0.0,0.0
1609059623850082636,165,1609059623850082636,0.0018207723114,-0.0116947630613,-0.0104869686207,0.000151473997577,4.9733545616e-06,0.00011630956079,0.999999981751,0.0,0.0,0.0,0.0,0.0,0.0
1609059623944103241,166,1609059623944103241,-0.00253761178548,-0.0116683765801,-0.0116970430597,7.44498920551e-05,1.64240809239e-05,0.00021292952713,0.999999974424,0.0,0.0,0.0,0.0,0.0,0.0
1609059624040393829,167,1609059624040393829,0.0122908343114,-0.0189527645753,-0.011874254095,0.00025665933602,-2.46528260766e-05,0.000132169113612,0.999999958025,0.0,0.0,0.0,0.0,0.0,0.0
1609059624150387049,168,1609059624150387049,-0.00174592150074,-0.0164826207627,-0.0119541385615,7.31832845461e-05,-1.68050393646e-05,0.000196000105423,0.999999977973,0.0,0.0,0.0,0.0,0.0,0.0
1609059624243723631,169,1609059624243723631,0.0122716449995,-0.0154632911649,-0.0108290494374,5.59384697519e-05,0.000308829610174,0.000209716129812,0.999999928757,0.0,0.0,0.0,0.0,0.0,0.0
1609059624342013121,170,1609059624342013121,0.00647984355864,-0.0151684204098,-0.0106462497818,0.000200366002242,-0.00022351970823,0.000198061020386,0.999999935332,0.0,0.0,0.0,0.0,0.0,0.0
1609059624451016188,171,1609059624451016188,0.00206807083907,-0.0161113235949,-0.0125325695418,0.000126610930696,7.50273792041e-05,0.000117296656029,0.999999982291,0.0,0.0,0.0,0.0,0.0,0.0
1609059624541338682,172,1609059624541338682,0.0101306742368,-0.0144681040422,-0.0126939624573,-2.49204940574e-06,2.97434544625e-05,9.76232945938e-05,0.999999994789,0.0,0.0,0.0,0.0,0.0,0.0
1609059624646738529,173,1609059624646738529,0.00678383790131,-0.0114891488077,-0.0123375877513,0.000146887330294,1.26013231355e-05,0.000125029868493,0.999999981316,0.0,0.0,0.0,0.0,0.0,0.0
1609059624749919653,174,1609059624749919653,0.0128611515229,-0.0135190365012,-0.0101375876249,2.42515726911e-05,0.000168271871933,0.000174753267441,0.999999970279,0.0,0.0,0.0,0.0,0.0,0.0
1609059624853056908,175,1609059624853056908,0.00761356994985,-0.0147473845921,-0.0103199030063,0.000302670375786,-0.00011422506035,0.000172668229954,0.999999932764,0.0,0.0,0.0,0.0,0.0,0.0
1609059624955962181,176,1609059624955962181,-0.00213623795284,-0.0164621831629,-0.0142463616657,0.000375620679015,-1.2006713445e-05,0.00016969528152,0.999999914984,0.0,0.0,0.0,0.0,0.0,0.0
1609059625059198380,177,1609059625059198380,0.00290903597144,-0.010582582071,-0.011033605612,-0.000117532810437,-0.000295915080879,0.00026717092806,0.99999991362,0.0,0.0,0.0,0.0,0.0,0.0
1609059625162179232,178,1609059625162179232,0.00528492055661,-0.0146365468643,-0.0116268026393,0.00049721881358,-3.80022366367e-05,0.000182451906635,0.99999985902,0.0,0.0,0.0,0.0,0.0,0.0
1609059625266400099,179,1609059625266400099,0.00472526706068,-0.00961543548063,-0.00983244530675,4.64939184099e-05,-5.4314709886e-05,0.000222378173728,0.999999972718,0.0,0.0,0.0,0.0,0.0,0.0
1609059625368346930,180,1609059625368346930,0.00789037469537,-0.0200653925834,-0.00852260097945,0.000288811704845,-1.6206031931e-05,0.000286951318678,0.999999916992,0.0,0.0,0.0,0.0,0.0,0.0
1609059625471310616,181,1609059625471310616,0.00117459253753,-0.0142091002003,-0.0106620418868,0.000258476587246,-0.000136855348199,0.000158055911884,0.999999944739,0.0,0.0,0.0,0.0,0.0,0.0
1609059625542162895,182,1609059625542162895,0.00837337462452,-0.0187220295939,-0.0132154916114,0.000155931693771,-9.02040775609e-05,0.000163081935966,0.999999970476,0.0,0.0,0.0,0.0,0.0,0.0
1609059625644007444,183,1609059625644007444,0.0054972628518,-0.0108448323013,-0.0115912949203,0.000179670176841,-0.000175369665611,0.000154563808093,0.999999956537,0.0,0.0,0.0,0.0,0.0,0.0
1609059625749497175,184,1609059625749497175,0.00226766602097,-0.0105003413436,-0.0113873177691,0.000338495579474,-2.46527356189e-05,0.000114814546764,0.999999935815,0.0,0.0,0.0,0.0,0.0,0.0
1609059625850284100,185,1609059625850284100,0.00129895013685,-0.0175167562147,-0.0123071014324,0.000510343033527,-0.000116923747223,0.00018226546659,0.999999846329,0.0,0.0,0.0,0.0,0.0,0.0
1609059625954216003,186,1609059625954216003,-0.00262121138417,-0.00976662481776,-0.011939136318,0.000283412664279,-0.000195080842793,0.000225042761935,0.999999915488,0.0,0.0,0.0,0.0,0.0,0.0
1609059626054726124,187,1609059626054726124,0.00667983651504,-0.0161899317479,-0.0107848686937,0.000195900430434,-0.000109941859563,0.000165890962879,0.999999961008,0.0,0.0,0.0,0.0,0.0,0.0
1609059626158308506,188,1609059626158308506,0.00395372134185,-0.0146484847148,-0.0119652929153,0.000174800586144,-7.72282753391e-05,0.000228031098015,0.999999955741,0.0,0.0,0.0,0.0,0.0,0.0
1609059626261777639,189,1609059626261777639,0.0041813019137,-0.0171545392053,-0.0079942858868,0.000455262364684,1.7219126969e-05,0.000227324117711,0.999999870382,0.0,0.0,0.0,0.0,0.0,0.0
1609059626366475821,190,1609059626366475821,0.0109162058452,-0.0135533057274,-0.0122004698872,6.6196669614e-05,0.000157860871222,0.000314469055848,0.999999935903,0.0,0.0,0.0,0.0,0.0,0.0
1609059626468487263,191,1609059626468487263,0.00295892766803,-0.0149628271916,-0.0117505644467,0.00010067342477,-0.000146297151778,0.000262848310873,0.999999949686,0.0,0.0,0.0,0.0,0.0,0.0
1609059626571579695,192,1609059626571579695,0.00254633943402,-0.0145735368636,-0.0121592704545,0.000353279958295,-2.69426030755e-05,0.000254319744077,0.999999904894,0.0,0.0,0.0,0.0,0.0,0.0
1609059626642094612,193,1609059626642094612,0.00116719318568,-0.0175446523376,-0.0131616057409,0.000271040802712,-6.34079058849e-06,0.00022666821762,0.999999937559,0.0,0.0,0.0,0.0,0.0,0.0
1609059626743574381,194,1609059626743574381,0.00087913486972,-0.0218681068352,-0.013244166204,0.000279708839083,2.49583546309e-05,0.000286329491309,0.999999919578,0.0,0.0,0.0,0.0,0.0,0.0
1609059626846412897,195,1609059626846412897,0.00992937623386,-0.019128133224,-0.0119299070933,0.000191782012641,-0.000107369438575,0.000241637957389,0.999999946651,0.0,0.0,0.0,0.0,0.0,0.0
1609059626949452877,196,1609059626949452877,-0.00328601993855,-0.0189705961443,-0.0104658851589,0.000240737566948,4.6436196076e-05,0.000278166765538,0.999999931256,0.0,0.0,0.0,0.0,0.0,0.0
1609059627050997496,197,1609059627050997496,0.00237962910594,-0.0110791469928,-0.0129026815184,0.000271945666004,2.34097184838e-05,0.000339484685023,0.999999905124,0.0,0.0,0.0,0.0,0.0,0.0
1609059627154438019,198,1609059627154438019,0.000709303611157,-0.0158922097445,-0.0118100604981,0.000125707108222,-0.000114660323236,0.000138556163941,0.999999975926,0.0,0.0,0.0,0.0,0.0,0.0
1609059627258007288,199,1609059627258007288,0.00715586699801,-0.0104615588117,-0.0104071745911,5.72919032784e-06,-0.000197978415907,0.000207229649424,0.999999958914,0.0,0.0,0.0,0.0,0.0,0.0
1609059627361147881,200,1609059627361147881,0.00715341500316,-0.0179234253991,-0.0134549528621,8.1792785398e-05,0.000147933598846,0.00023472254438,0.999999958165,0.0,0.0,0.0,0.0,0.0,0.0
1609059627464278698,201,1609059627464278698,0.00427657113293,-0.0146587611571,-0.0131565529643,8.95062326109e-05,-0.000131731546925,0.000115976332855,0.999999980592,0.0,0.0,0.0,0.0,0.0,0.0
1609059627567514420,202,1609059627567514420,0.00279205076738,-0.0136196556428,-0.0118201413329,-9.08192555917e-05,-2.08276881963e-05,0.00032593681103,0.999999942541,0.0,0.0,0.0,0.0,0.0,0.0
1609059627670237541,203,1609059627670237541,-0.005570525005,-0.0127248141133,-0.012174828339,0.000342246842994,-4.21756447198e-05,0.000197152648887,0.999999921109,0.0,0.0,0.0,0.0,0.0,0.0
1609059627740649939,204,1609059627740649939,0.000967777541588,-0.018023155652,-0.0122762324627,7.74663089683e-05,-3.04743393856e-05,0.000353622794147,0.99999993401,0.0,0.0,0.0,0.0,0.0,0.0
1609059627842521191,205,1609059627842521191,0.00674083787188,-0.01357154983,-0.012852164265,0.000307171141704,-0.000139409349835,0.000130360631477,0.999999934608,0.0,0.0,0.0,0.0,0.0,0.0
1609059627946083069,206,1609059627946083069,0.00475091060086,-0.0190086685449,-0.0125345401653,9.64385284236e-05,3.63148557175e-05,0.00021419075682,0.999999971751,0.0,0.0,0.0,0.0,0.0,0.0
1609059628048667669,207,1609059628048667669,0.00738944842888,-0.0198631220071,-0.0108862120618,0.000198648975373,-5.80985747376e-05,0.000182807265147,0.999999961872,0.0,0.0,0.0,0.0,0.0,0.0
1609059628151597738,208,1609059628151597738,0.00733472733474,-0.00977675757185,-0.012521989795,-3.75292084229e-05,0.000268719443261,0.000210032715532,0.999999941134,0.0,0.0,0.0,0.0,0.0,0.0
1609059628254879236,209,1609059628254879236,0.00591569564143,-0.0216673853073,-0.0129281439283,0.000406327574807,-0.000173864745489,0.000212730810293,0.999999879707,0.0,0.0,0.0,0.0,0.0,0.0
1609059628358010530,210,1609059628358010530,-0.00445545803405,-0.0152828191426,-0.0111507211321,0.000179133326167,-0.000106426661095,-2.18690788618e-05,0.999999978053,0.0,0.0,0.0,0.0,0.0,0.0
1609059628461334229,211,1609059628461334229,0.0103000522966,-0.0176529187782,-0.0123973587853,0.000122774612392,0.000201699801819,0.000169832936964,0.9999999577,0.0,0.0,0.0,0.0,0.0,0.0
1609059628564254999,212,1609059628564254999,0.010423228129,-0.0170652887444,-0.0128918514202,0.000309221871862,-0.000167055168371,0.000311896808187,0.999999889597,0.0,0.0,0.0,0.0,0.0,0.0
1609059628667524815,213,1609059628667524815,0.00454269175696,-0.0176799531884,-0.0105845408456,0.000316165212027,0.000201226518128,4.20114862128e-05,0.999999928891,0.0,0.0,0.0,0.0,0.0,0.0
1609059628770237207,214,1609059628770237207,0.000153800621684,-0.0141091520076,-0.0127770058529,-4.41223068288e-05,5.89254581755e-05,0.000121289236703,0.999999989935,0.0,0.0,0.0,0.0,0.0,0.0
1609059628840472460,215,1609059628840472460,0.0102437451809,-0.0115388540031,-0.0122877783068,0.000261099761253,-0.000162783603778,0.000292075531646,0.99999991001,0.0,0.0,0.0,0.0,0.0,0.0
1609059628942599297,216,1609059628942599297,0.00657186089511,-0.0156622366972,-0.0118243096994,0.000100010685862,-6.41011066473e-06,0.000171840183492,0.999999980214,0.0,0.0,0.0,0.0,0.0,0.0
1609059629045954227,217,1609059629045954227,0.00325418176286,-0.0119899215764,-0.0127038204999,7.02098119498e-05,8.3865915991e-05,0.000340029662313,0.999999936208,0.0,0.0,0.0,0.0,0.0,0.0
1609059629148391008,218,1609059629148391008,0.00316783848352,-0.020318342426,-0.0118676253606,0.000411873258831,-4.3037325426e-05,0.000162287870114,0.999999901085,0.0,0.0,0.0,0.0,0.0,0.0
1609059629251374006,219,1609059629251374006,0.00856552222582,-0.0184982467225,-0.0134282986364,0.000181972031368,0.000167308409936,0.000309980749551,0.999999921403,0.0,0.0,0.0,0.0,0.0,0.0
1609059629354388237,220,1609059629354388237,-0.000259717706953,-0.0178278119139,-0.0126205148842,6.16602344384e-05,-1.46839251694e-05,0.000172266999794,0.999999983153,0.0,0.0,0.0,0.0,0.0,0.0
1609059629457515001,221,1609059629457515001,-0.000674325630282,-0.0124366267259,-0.0137968815248,0.000280204094478,0.000340530502413,0.000110634834682,0.999999896642,0.0,0.0,0.0,0.0,0.0,0.0
1609059629561185837,222,1609059629561185837,0.00669784534625,-0.0135118425631,-0.0113475781502,0.00020381251734,3.93330104671e-05,0.000194481476636,0.999999959545,0.0,0.0,0.0,0.0,0.0,0.0
1609059629663714170,223,1609059629663714170,-0.00199293821764,-0.00844124118484,-0.0140865736536,0.000179834869774,-0.000230098296466,0.000236313202781,0.999999929435,0.0,0.0,0.0,0.0,0.0,0.0
1609059629766873121,224,1609059629766873121,0.00578263437555,-0.0200172056032,-0.0140219520899,0.000176079368019,-0.000218611494797,0.000196774857034,0.999999941242,0.0,0.0,0.0,0.0,0.0,0.0
1609059629870262384,225,1609059629870262384,0.00828036542226,-0.00952406871489,-0.0117273483975,-6.14876626227e-05,0.000136686280742,0.000207937517793,0.999999967149,0.0,0.0,0.0,0.0,0.0,0.0
1609059629940274954,226,1609059629940274954,0.00167685308492,-0.0119871803844,-0.0128776924603,0.000350888567816,-6.34352077747e-05,0.000262725009939,0.999999901914,0.0,0.0,0.0,0.0,0.0,0.0
1609059630042287350,227,1609059630042287350,8.52720010463e-05,-0.0171068946838,-0.014247708598,0.000311726140677,-0.000114463332397,0.000189039563238,0.999999926994,0.0,0.0,0.0,0.0,0.0,0.0
1609059630145982265,228,1609059630145982265,0.00914596644977,-0.0155377004345,-0.0111687040485,0.000179504112671,1.22848606465e-06,0.000231313885563,0.999999957135,0.0,0.0,0.0,0.0,0.0,0.0
1609059630248558521,229,1609059630248558521,0.00459323712306,-0.012196340726,-0.0144765212705,0.000158882159096,5.7191096138e-05,0.000318601781593,0.999999934989,0.0,0.0,0.0,0.0,0.0,0.0
1609059630351599932,230,1609059630351599932,0.00161973199998,-0.00680662316488,-0.013377618004,2.49654217412e-05,-0.000158778926466,0.000148570107157,0.999999976046,0.0,0.0,0.0,0.0,0.0,0.0
1609059630454874277,231,1609059630454874277,-0.00485449550516,-0.0170869606689,-0.0123939338045,0.000209911926925,-9.7880589004e-05,0.000144558483333,0.999999962729,0.0,0.0,0.0,0.0,0.0,0.0
1609059630557589531,232,1609059630557589531,-0.000224063765204,-0.0182257271023,-0.0139552830143,0.000334269316384,-0.000316289239262,0.000232738507161,0.999999867029,0.0,0.0,0.0,0.0,0.0,0.0
1609059630660714865,233,1609059630660714865,0.00241799062937,-0.0129996342288,-0.0138662184865,0.000127191597389,-0.000301697681968,0.000154850302362,0.999999934411,0.0,0.0,0.0,0.0,0.0,0.0
1609059630764342546,234,1609059630764342546,0.000657364218558,-0.0135234257254,-0.0116098702774,0.000218806989656,1.88646423736e-06,0.00020250100508,0.999999955556,0.0,0.0,0.0,0.0,0.0,0.0
1609059630867688179,235,1609059630867688179,-0.000599349566319,-0.009569134095,-0.0150306956915,0.000262075841787,0.00025193611087,0.000214289220796,0.999999910962,0.0,0.0,0.0,0.0,0.0,0.0
1609059630969963789,236,1609059630969963789,0.00480286532237,-0.00612288421335,-0.0126331489494,0.000102020991389,-0.000155946636367,0.000215746558082,0.999999959363,0.0,0.0,0.0,0.0,0.0,0.0
1609059631040233612,237,1609059631040233612,-0.00122639647486,-0.0114699302607,-0.0132804040638,5.08906319599e-05,-0.000109652566448,0.00021923878534,0.99999996866,0.0,0.0,0.0,0.0,0.0,0.0
1609059631142629862,238,1609059631142629862,0.00559808681829,-0.0190285991607,-0.0144172189422,0.000305210838925,5.41691567202e-05,0.000209427520543,0.999999930026,0.0,0.0,0.0,0.0,0.0,0.0
1609059631245857239,239,1609059631245857239,0.00977055771129,-0.017854145781,-0.0128221805838,9.52272076091e-05,8.21081308624e-05,0.000213436153243,0.999999969317,0.0,0.0,0.0,0.0,0.0,0.0
1609059631348634243,240,1609059631348634243,0.00196921609017,-0.0100896033006,-0.0131891301751,9.66409524743e-05,-0.000226424848911,0.000200389106267,0.999999949618,0.0,0.0,0.0,0.0,0.0,0.0
1609059631451478004,241,1609059631451478004,0.00113165124542,-0.0165265910443,-0.0124562894243,6.33695472933e-05,-0.000272174811393,0.000257042195057,0.999999927917,0.0,0.0,0.0,0.0,0.0,0.0
1609059631554595709,242,1609059631554595709,0.00122106168815,-0.0145203767135,-0.0133931822192,-6.94937497033e-05,-0.00011539375731,0.000218314817999,0.999999967097,0.0,0.0,0.0,0.0,0.0,0.0
1609059631657731056,243,1609059631657731056,0.00394215453846,-0.011036772503,-0.0141822718913,5.98278595083e-05,8.37935391728e-05,6.53141460553e-05,0.999999992566,0.0,0.0,0.0,0.0,0.0,0.0
1609059631761119604,244,1609059631761119604,-0.00169289425458,-0.0125085647753,-0.0142655035277,0.00019283284444,-0.000195392024773,0.000321958414025,0.99999991049,0.0,0.0,0.0,0.0,0.0,0.0
1609059631863940001,245,1609059631863940001,0.00625483529572,-0.00978519091564,-0.0123121958585,0.000333657120083,4.33878174134e-05,0.000234268817581,0.999999915954,0.0,0.0,0.0,0.0,0.0,0.0
1609059631967845440,246,1609059631967845440,-0.00164866557797,-0.00922326748511,-0.0116961886985,4.1043096124e-05,-0.000211061367445,0.000240017037978,0.99999994808,0.0,0.0,0.0,0.0,0.0,0.0
1609059632070766211,247,1609059632070766211,-0.00359655715865,-0.0135464032525,-0.0151635994019,0.000307273722278,-0.000101955377865,0.00024067327052,0.999999918632,0.0,0.0,0.0,0.0,0.0,0.0
1609059632140625954,248,1609059632140625954,0.00762051417733,-0.00857895005471,-0.0135007901793,-5.79629315821e-05,-0.000193623405134,0.000173511118075,0.999999964522,0.0,0.0,0.0,0.0,0.0,0.0
1609059632243268013,249,1609059632243268013,0.00337243837148,-0.0180257121749,-0.012982755314,0.000379159790967,5.759287041e-05,0.000113249859985,0.999999920047,0.0,0.0,0.0,0.0,0.0,0.0
1609059632344876528,250,1609059632344876528,0.00277960132018,-0.00978728656429,-0.0125999321864,1.9006682643e-05,-0.0001122257124,0.000293953537741,0.999999950318,0.0,0.0,0.0,0.0,0.0,0.0
1609059632448350430,251,1609059632448350430,0.00104655999931,-0.010587273788,-0.0162855148162,0.000218601359286,0.000107016347639,0.00020913141755,0.999999948512,0.0,0.0,0.0,0.0,0.0,0.0
1609059632550857306,252,1609059632550857306,0.00182789891182,-0.0142311279652,-0.0117406062263,-0.000103675569147,-0.000318705139631,0.00028852677584,0.999999902215,0.0,0.0,0.0,0.0,0.0,0.0
1609059632654719114,253,1609059632654719114,0.00352918251287,-0.0181231264661,-0.014037256352,0.000355167697236,-6.78151277081e-05,0.000124142078585,0.999999926923,0.0,0.0,0.0,0.0,0.0,0.0
1609059632757835388,254,1609059632757835388,0.012075970491,-0.0143102223235,-0.0140558202417,4.87855120292e-05,-4.03430164669e-05,0.000173350552381,0.999999982971,0.0,0.0,0.0,0.0,0.0,0.0
1609059632861136913,255,1609059632861136913,0.000441737847353,-0.0118629130116,-0.0121463188675,-3.34325341626e-05,2.89341323974e-05,0.000223068736234,0.999999974142,0.0,0.0,0.0,0.0,0.0,0.0
1609059632964036703,256,1609059632964036703,0.00339703464182,-0.0185981631954,-0.0142674604159,-0.000313204905506,-0.000216664006874,0.000158563069528,0.999999914908,0.0,0.0,0.0,0.0,0.0,0.0
1609059633067565918,257,1609059633067565918,-0.000818446208517,-0.00995378024737,-0.0131007239633,0.000216354581377,-0.000283428449648,0.00019935450488,0.999999916558,0.0,0.0,0.0,0.0,0.0,0.0
1609059633171382904,258,1609059633171382904,-0.00245583853586,-0.00639448985309,-0.0134879374633,-6.42743131956e-05,0.000340988157707,0.000121129857302,0.999999932461,0.0,0.0,0.0,0.0,0.0,0.0
1609059633240575314,259,1609059633240575314,0.0046368908099,-0.0184879822616,-0.015141076519,0.000278911102481,-0.000206006632489,0.000222412787951,0.999999915151,0.0,0.0,0.0,0.0,0.0,0.0
1609059633342576981,260,1609059633342576981,0.00129363544478,-0.0156699055564,-0.0147252390322,7.74573399631e-05,-0.000151493906798,0.000165341142529,0.999999971856,0.0,0.0,0.0,0.0,0.0,0.0
1609059633444869518,261,1609059633444869518,0.00883179318806,-0.0136596562272,-0.015043483735,0.000101783413219,7.72991771639e-07,0.00017492482145,0.99999997952,0.0,0.0,0.0,0.0,0.0,0.0
1609059633548509598,262,1609059633548509598,0.00621489475369,-0.0185956698356,-0.0132432247135,0.000121493006743,-0.000300673664873,0.00013679782799,0.99999993806,0.0,0.0,0.0,0.0,0.0,0.0
1609059633651117802,263,1609059633651117802,-0.00525954120046,-0.0170256282367,-0.01490247788,0.000341817277505,-0.000178550078303,0.000246644603236,0.999999895223,0.0,0.0,0.0,0.0,0.0,0.0
1609059633756008387,264,1609059633756008387,-0.00441087801788,-0.00997309260593,-0.0133417075532,-0.000125359480189,-0.000171165284548,8.93290797318e-05,0.999999973504,0.0,0.0,0.0,0.0,0.0,0.0
1609059633857959270,265,1609059633857959270,-0.00428756380918,-0.0181510212301,-0.0132457827178,0.000237580782262,0.000156067674803,0.000187625909774,0.999999941997,0.0,0.0,0.0,0.0,0.0,0.0
1609059633961118698,266,1609059633961118698,0.00508820273431,-0.00940333801516,-0.015386926972,0.000177433882459,-0.000142969462622,0.00026989702784,0.999999937616,0.0,0.0,0.0,0.0,0.0,0.0
1609059634064155817,267,1609059634064155817,0.00531600669908,-0.0173617014065,-0.012820137123,0.000111607491801,4.14336513898e-05,0.00015424701107,0.999999981017,0.0,0.0,0.0,0.0,0.0,0.0
1609059634167503595,268,1609059634167503595,0.0105061655413,-0.00934303191645,-0.0136277964813,0.000119024424334,-9.42598559246e-05,0.000174217711086,0.999999973298,0.0,0.0,0.0,0.0,0.0,0.0
1609059634270431280,269,1609059634270431280,0.000319694080286,-0.0144398803129,-0.0138419325349,0.000235302232719,-0.000235048668859,3.42925758803e-05,0.999999944104,0.0,0.0,0.0,0.0,0.0,0.0
1609059634340927839,270,1609059634340927839,0.00483724872908,-0.0142762819457,-0.0138598489432,4.08652234693e-05,-0.000228597737833,8.87711614413e-05,0.999999969096,0.0,0.0,0.0,0.0,0.0,0.0
1609059634443070412,271,1609059634443070412,0.00540360933989,-0.0118790579242,-0.0138524533135,-8.38551926286e-05,0.000208751446285,0.000337845933697,0.999999917625,0.0,0.0,0.0,0.0,0.0,0.0
1609059634546288729,272,1609059634546288729,0.000655880890644,-0.0178987288405,-0.0140957159176,0.000148207180822,1.25416992815e-05,0.000262249363138,0.999999954551,0.0,0.0,0.0,0.0,0.0,0.0
1609059634648950338,273,1609059634648950338,0.00679732225856,-0.0162092078998,-0.0143781725039,0.000377629288113,-3.1526234665e-05,0.00025413721914,0.999999895908,0.0,0.0,0.0,0.0,0.0,0.0
1609059634751736164,274,1609059634751736164,0.00480080116654,-0.0122738214853,-0.014009480251,0.00011431994185,-0.000204937891002,0.000137180709035,0.999999963056,0.0,0.0,0.0,0.0,0.0,0.0
1609059634854748726,275,1609059634854748726,0.00401325315634,-0.00747380298893,-0.0165975803886,3.55034983729e-06,4.17083318626e-05,0.000162933862911,0.99999998585,0.0,0.0,0.0,0.0,0.0,0.0
1609059634956871748,276,1609059634956871748,-0.00251181570867,-0.0191482899545,-0.012403278014,0.000310303035744,-0.000352216244181,0.000204359542601,0.999999868946,0.0,0.0,0.0,0.0,0.0,0.0
1609059635061185837,277,1609059635061185837,0.00491524737871,-0.00786386525136,-0.013031407799,0.000216361922504,0.000282776809521,8.14794937386e-05,0.999999933293,0.0,0.0,0.0,0.0,0.0,0.0
1609059635163706064,278,1609059635163706064,0.00804630371271,-0.0144624817265,-0.0111971667803,0.000133662795932,-3.21774164069e-05,0.000286360741235,0.999999949548,0.0,0.0,0.0,0.0,0.0,0.0
1609059635267838955,279,1609059635267838955,0.00240576903227,-0.0223542654192,-0.0148519476379,0.000302677710126,-0.0001947783805,0.000174218631005,0.999999920047,0.0,0.0,0.0,0.0,0.0,0.0
1609059635370737076,280,1609059635370737076,0.0095144742574,-0.0158695849136,-0.0138311424231,-3.12770987794e-05,0.00027851482462,0.000185956594484,0.999999943435,0.0,0.0,0.0,0.0,0.0,0.0
1609059635440284252,281,1609059635440284252,-0.00191483575984,-0.0111285224995,-0.0125241500496,0.000312277518093,-0.000132069529242,7.21127245753e-05,0.99999993992,0.0,0.0,0.0,0.0,0.0,0.0
1609059635542498350,282,1609059635542498350,0.0132622649452,-0.0132814027625,-0.0131260149505,0.00021911894216,8.39290590869e-05,0.000256865168306,0.999999939481,0.0,0.0,0.0,0.0,0.0,0.0
1609059635645349026,283,1609059635645349026,-0.00218975609278,-0.00539809307601,-0.0139377157563,0.000133561238908,-0.000228899508211,0.00024655957229,0.999999934487,0.0,0.0,0.0,0.0,0.0,0.0
1609059635748491764,284,1609059635748491764,-0.00101375008714,-0.0200116063493,-0.0146580270028,0.000204283139084,-0.000461148267908,0.00024442888586,0.999999842932,0.0,0.0,0.0,0.0,0.0,0.0
1609059635851588488,285,1609059635851588488,0.00844212419119,-0.0128853639368,-0.0125873516353,0.000130746061529,2.07753873944e-05,0.000217483153415,0.999999967587,0.0,0.0,0.0,0.0,0.0,0.0
1609059635954748392,286,1609059635954748392,-9.69497294008e-05,-0.0105272783226,-0.0139635970609,0.000133111035253,-9.46762815259e-05,0.000122810334335,0.999999979117,0.0,0.0,0.0,0.0,0.0,0.0
1609059636057807684,287,1609059636057807684,0.00115149746913,-0.0163075017105,-0.0137942047954,0.000320983493837,-0.000146317182433,7.70691632072e-05,0.99999993481,0.0,0.0,0.0,0.0,0.0,0.0
1609059636160921812,288,1609059636160921812,0.00147466028283,-0.0172315880491,-0.0145193999712,0.000319167582605,-0.000121592094027,0.000267242421724,0.999999905964,0.0,0.0,0.0,0.0,0.0,0.0
1609059636263975620,289,1609059636263975620,-0.0108839632347,-0.00549863959823,-0.0143900509776,-0.000127586093806,-5.63623209902e-05,0.000220331776578,0.999999965999,0.0,0.0,0.0,0.0,0.0,0.0
1609059636367682934,290,1609059636367682934,0.0100067522523,-0.0178992559012,-0.0132594756017,0.000140456157123,0.000228469890392,0.000138269773043,0.999999954477,0.0,0.0,0.0,0.0,0.0,0.0
1609059636470263958,291,1609059636470263958,-0.000339717659623,-0.0101984595924,-0.0125283190661,6.75040357207e-05,-0.000246477004265,0.000241832514898,0.999999938104,0.0,0.0,0.0,0.0,0.0,0.0
1609059636540706158,292,1609059636540706158,0.00393495214306,-0.0185257146352,-0.0121725623006,-3.12711251651e-05,-0.000211201256274,0.000339602644389,0.999999919543,0.0,0.0,0.0,0.0,0.0,0.0
1609059636642848253,293,1609059636642848253,-0.00265321190153,-0.0138980810465,-0.0139197077703,0.000168131392783,-0.000204424465118,7.54445228664e-05,0.999999962125,0.0,0.0,0.0,0.0,0.0,0.0
1609059636745905638,294,1609059636745905638,-0.0046983089922,-0.0160801724864,-0.014378410119,0.00044518134683,9.54416168063e-05,1.97692379714e-05,0.999999896156,0.0,0.0,0.0,0.0,0.0,0.0
1609059636848819256,295,1609059636848819256,0.00213390380179,-0.0076349144391,-0.0133173107622,0.000110284378547,-1.88958023466e-05,0.000208477294793,0.999999972008,0.0,0.0,0.0,0.0,0.0,0.0
1609059636951866388,296,1609059636951866388,0.00155314025034,-0.0112101927212,-0.0141003085123,2.64776534219e-05,-1.73750701675e-05,0.00022318768897,0.999999974592,0.0,0.0,0.0,0.0,0.0,0.0
1609059637054830313,297,1609059637054830313,0.00431989952619,-0.0173170996884,-0.0127647179398,0.0001199998728,-7.56900576251e-05,0.000123043939824,0.999999982365,0.0,0.0,0.0,0.0,0.0,0.0
1609059637157818079,298,1609059637157818079,-0.00059569687224,-0.00960675698552,-0.0153246528848,-0.000116543620347,-3.79203067917e-05,0.000122846076043,0.999999984944,0.0,0.0,0.0,0.0,0.0,0.0
1609059637261689186,299,1609059637261689186,0.00747958718282,-0.0152038167118,-0.0137919131364,-0.000139311475254,-4.4406876271e-05,0.000163707537255,0.99999997591,0.0,0.0,0.0,0.0,0.0,0.0
1609059637363964558,300,1609059637363964558,0.000543803243206,-0.0173628583961,-0.0147143703446,0.000264557943487,-0.000119176163678,0.000205026461168,0.999999936885,0.0,0.0,0.0,0.0,0.0,0.0
1609059637467119455,301,1609059637467119455,0.0051321471006,-0.0175408963465,-0.0124857633179,0.000177388323309,0.000211093825373,5.9983361941e-05,0.999999960187,0.0,0.0,0.0,0.0,0.0,0.0
1609059637570128679,302,1609059637570128679,-9.14232717631e-05,-0.0157707694498,-0.0136956538472,0.000320852509074,-0.000339546637803,0.000138246941307,0.999999881324,0.0,0.0,0.0,0.0,0.0,0.0
1609059637640229464,303,1609059637640229464,-0.00801469504415,-0.0181759774253,-0.0144896955118,0.00010198230187,-0.000174061718792,6.27280970846e-05,0.999999977683,0.0,0.0,0.0,0.0,0.0,0.0
1609059637742368698,304,1609059637742368698,0.000146353357031,-0.0153813844067,-0.0155887885435,0.000144650589084,-0.000189416120584,0.000104961740481,0.99999996609,0.0,0.0,0.0,0.0,0.0,0.0
1609059637845342875,305,1609059637845342875,0.00204967931249,-0.0108779889759,-0.0121341221989,-8.56217952166e-05,-2.70934711389e-05,0.000100084777352,0.999999990959,0.0,0.0,0.0,0.0,0.0,0.0
1609059637948607206,306,1609059637948607206,0.00477281694322,-0.0142710133518,-0.0149420195551,0.000142896032867,-9.82150221813e-05,5.389140939e-05,0.999999983515,0.0,0.0,0.0,0.0,0.0,0.0
1609059638051672220,307,1609059638051672220,-0.00203407669746,-0.0204860113417,-0.0136666537918,0.000281178248371,-0.000265701735908,0.000182710770352,0.999999908479,0.0,0.0,0.0,0.0,0.0,0.0
1609059638155035257,308,1609059638155035257,0.00676931372888,-0.00946443932586,-0.0120422866469,2.57057487171e-05,-0.000120768406913,0.000167252200028,0.99999997839,0.0,0.0,0.0,0.0,0.0,0.0
1609059638257940531,309,1609059638257940531,0.00144068196175,-0.0153905018182,-0.0147779724837,0.000192376739362,-0.000142278711456,0.000218415771364,0.999999947521,0.0,0.0,0.0,0.0,0.0,0.0
1609059638361246347,310,1609059638361246347,-0.000491807069996,-0.0133331372553,-0.0139947596387,0.000119265303426,5.7486169507e-05,0.000179806875796,0.99999997507,0.0,0.0,0.0,0.0,0.0,0.0
1609059638464171886,311,1609059638464171886,0.002871287435,-0.0124035599748,-0.0123412817542,0.000293155135686,-0.000185918422735,0.000141830917346,0.999999929689,0.0,0.0,0.0,0.0,0.0,0.0
1609059638567869425,312,1609059638567869425,0.00198050762976,-0.0162332505166,-0.0132322401256,1.69115504441e-05,-7.4959109616e-08,0.000199912131455,0.999999979874,0.0,0.0,0.0,0.0,0.0,0.0
1609059638669744492,313,1609059638669744492,0.00473753322101,-0.0120976065402,-0.0136908401846,0.000295455129556,-0.000139603084707,0.000176661184064,0.999999931004,0.0,0.0,0.0,0.0,0.0,0.0
1609059638742183447,314,1609059638742183447,0.00370545910477,-0.0181501894071,-0.0139902576342,0.000211678954487,2.53769863897e-05,0.00023602384692,0.99999994942,0.0,0.0,0.0,0.0,0.0,0.0
1609059638843070984,315,1609059638843070984,-0.00956078422306,-0.0128491097717,-0.013916630159,0.000158023543709,-0.000303643541809,6.86078055395e-05,0.999999939061,0.0,0.0,0.0,0.0,0.0,0.0
1609059638945852041,316,1609059638945852041,-0.00352135250529,-0.0142435503807,-0.014729510939,0.000191846003462,-3.14798850976e-05,4.99649551736e-05,0.999999979853,0.0,0.0,0.0,0.0,0.0,0.0
1609059639048739433,317,1609059639048739433,-0.00432380481273,-0.0127386443789,-0.0143707115077,0.000280567491363,-0.000144159934287,0.000219833059573,0.999999926086,0.0,0.0,0.0,0.0,0.0,0.0
1609059639151747704,318,1609059639151747704,-0.00209060893918,-0.0191495615748,-0.0135267784157,0.000209303730653,0.000153314971947,0.000137990575091,0.999999956822,0.0,0.0,0.0,0.0,0.0,0.0
1609059639254476786,319,1609059639254476786,0.0100984944679,-0.0125073046776,-0.0145990593587,0.000192743216625,-0.000171132523645,0.000196755168686,0.999999947425,0.0,0.0,0.0,0.0,0.0,0.0
1609059639357740641,320,1609059639357740641,0.00988121983069,-0.0196544243585,-0.0146756075082,0.000271477010182,-0.000166482154112,4.5291173296e-05,0.999999948266,0.0,0.0,0.0,0.0,0.0,0.0
1609059639460936308,321,1609059639460936308,0.00370583610451,-0.0200614361529,-0.0136900754565,9.345923382e-05,-8.67951647836e-06,0.000129343214485,0.99999998723,0.0,0.0,0.0,0.0,0.0,0.0
1609059639564024687,322,1609059639564024687,-0.00129685381962,-0.0109742687293,-0.0145696237314,1.26799265163e-05,-3.56924707412e-05,0.000199875531745,0.999999979307,0.0,0.0,0.0,0.0,0.0,0.0
1609059639667537451,323,1609059639667537451,0.00613162756511,-0.016755465466,-0.0145975606163,0.000140969056578,-0.000188942833689,0.000202427808349,0.999999951725,0.0,0.0,0.0,0.0,0.0,0.0
1609059639770946264,324,1609059639770946264,-0.000905890582942,-0.0137235928371,-0.0147769788969,0.000141774053297,-0.000310127244255,0.000209471820567,0.999999919921,0.0,0.0,0.0,0.0,0.0,0.0
1609059639840313673,325,1609059639840313673,0.00244365771286,-0.0129174064819,-0.0130380128457,0.000160640528743,-0.000136897659408,7.46687850106e-05,0.999999974939,0.0,0.0,0.0,0.0,0.0,0.0
1609059639942510843,326,1609059639942510843,0.0073575978666,-0.00434526338263,-0.0130592625094,-3.03953733265e-05,0.000239019135799,0.000196364810674,0.999999951693,0.0,0.0,0.0,0.0,0.0,0.0
1609059640045302391,327,1609059640045302391,0.00129867306161,-0.0186486345269,-0.0143014469192,0.000139305839266,9.88199305646e-06,0.000187962332602,0.999999972583,0.0,0.0,0.0,0.0,0.0,0.0
1609059640148955822,328,1609059640148955822,0.0046997872876,-0.0139932318229,-0.0134916450361,0.000299506322625,5.80377896807e-05,0.000167424989709,0.999999939448,0.0,0.0,0.0,0.0,0.0,0.0
1609059640251667738,329,1609059640251667738,0.00254663988273,-0.0147926706643,-0.014938501705,-3.47586966819e-05,0.000235502187338,0.000147260579524,0.999999960822,0.0,0.0,0.0,0.0,0.0,0.0
1609059640355035305,330,1609059640355035305,0.00079792670316,-0.0145795534541,-0.0131304172927,0.000376707290722,-0.000152333076839,0.000215786233406,0.999999894161,0.0,0.0,0.0,0.0,0.0,0.0
1609059640457949162,331,1609059640457949162,0.00114881285025,-0.00652784630626,-0.0145015665295,0.000192080685999,-4.64380519014e-05,0.000237582033616,0.999999952251,0.0,0.0,0.0,0.0,0.0,0.0
1609059640561670780,332,1609059640561670780,-0.000468567268326,-0.0118287210992,-0.0132983557013,0.000327463595848,-0.000257618053942,0.000216505018326,0.999999889763,0.0,0.0,0.0,0.0,0.0,0.0
1609059640664230347,333,1609059640664230347,0.00732299823314,-0.011362642994,-0.014774683014,7.02601040307e-05,0.000166334924944,0.000154845673833,0.999999971709,0.0,0.0,0.0,0.0,0.0,0.0
1609059640767337322,334,1609059640767337322,0.0038249913715,-0.00389967196392,-0.0151515243217,0.000146422191241,-1.76196996131e-05,0.000141359657801,0.999999979133,0.0,0.0,0.0,0.0,0.0,0.0
1609059640870260715,335,1609059640870260715,-0.000534046832305,-0.0153986289327,-0.0157467741563,3.77814790311e-05,1.62373547121e-05,0.000135571386686,0.999999989964,0.0,0.0,0.0,0.0,0.0,0.0
1609059640940513134,336,1609059640940513134,0.0067756250158,-0.0132845352169,-0.0129698235836,0.000203821705605,7.41779370316e-05,0.000161366336676,0.999999963457,0.0,0.0,0.0,0.0,0.0,0.0
1609059641042613745,337,1609059641042613745,0.00295157888367,-0.0136980882542,-0.0148682408473,0.000116957060952,3.98557952635e-05,0.000121547165101,0.999999984979,0.0,0.0,0.0,0.0,0.0,0.0
1609059641145589590,338,1609059641145589590,-0.00303545246912,-0.0126287287745,-0.0126661485079,0.00036720137715,-0.000266733213517,8.91143835737e-05,0.999999893037,0.0,0.0,0.0,0.0,0.0,0.0
1609059641248315334,339,1609059641248315334,-0.00170761294458,-0.0152616992857,-0.0146067414722,-3.6337577785e-05,7.81174865774e-05,0.000165233592766,0.999999982637,0.0,0.0,0.0,0.0,0.0,0.0
1609059641351305962,340,1609059641351305962,-0.00128530501211,-0.0185564767262,-0.0148553452429,0.000275919217567,6.09030344549e-05,0.000257757867729,0.99999992686,0.0,0.0,0.0,0.0,0.0,0.0
1609059641454667330,341,1609059641454667330,-0.00371675923563,-0.0143714303552,-0.0149224218491,0.000349761087176,-0.000234108553532,0.000137940307426,0.999999901916,0.0,0.0,0.0,0.0,0.0,0.0
1609059641557387829,342,1609059641557387829,-0.00511951538218,-0.011793775219,-0.0133967222362,0.000291061114122,-0.000302704770119,0.000150349093559,0.999999900524,0.0,0.0,0.0,0.0,0.0,0.0
1609059641660469294,343,1609059641660469294,0.008548833622,-0.0212440102101,-0.0135581437101,0.000354802342259,0.000140350198649,0.000246788458246,0.999999896756,0.0,0.0,0.0,0.0,0.0,0.0
1609059641763750792,344,1609059641763750792,0.00435988693217,-0.0133124207427,-0.0146424241679,7.90194705018e-05,-2.62471771467e-05,9.37654191808e-05,0.999999992137,0.0,0.0,0.0,0.0,0.0,0.0
1609059641866935253,345,1609059641866935253,-0.00374688564774,-0.0148234321877,-0.0172905333364,0.000183719853629,2.5057975349e-05,0.000201312331387,0.999999962546,0.0,0.0,0.0,0.0,0.0,0.0
1609059641970881939,346,1609059641970881939,0.0112192125281,-0.0150760555069,-0.014709769313,0.000319959964352,0.000139523222678,0.000167633424912,0.999999925028,0.0,0.0,0.0,0.0,0.0,0.0
1609059642039943218,347,1609059642039943218,0.00199609890976,-0.0176021176089,-0.0113772224302,0.000276129385727,3.10347213462e-05,7.3303203985e-05,0.999999958708,0.0,0.0,0.0,0.0,0.0,0.0
1609059642142550468,348,1609059642142550468,-0.00531306526487,-0.0178945356955,-0.0147785758211,-5.08089001982e-05,0.00010323271089,0.000157650683048,0.999999980953,0.0,0.0,0.0,0.0,0.0,0.0
1609059642245106220,349,1609059642245106220,-0.00466551469646,-0.0149813902172,-0.0167680869233,0.000211683564736,-0.000216714119574,0.000160250935549,0.999999941272,0.0,0.0,0.0,0.0,0.0,0.0
1609059642348171473,350,1609059642348171473,0.00385976562635,-0.0137150140195,-0.0126337826515,1.62175726692e-05,6.85252086219e-05,0.000100634294267,0.999999992457,0.0,0.0,0.0,0.0,0.0,0.0
1609059642451626778,351,1609059642451626778,0.00436727804904,-0.012767138669,-0.0149724581639,6.3210903584e-05,-3.12772048019e-05,5.71050427397e-05,0.999999995882,0.0,0.0,0.0,0.0,0.0,0.0
1609059642554716825,352,1609059642554716825,0.00534961059001,-0.0159766279716,-0.0155057438941,9.1933777991e-05,0.000158963691989,0.000234987616237,0.999999955529,0.0,0.0,0.0,0.0,0.0,0.0
1609059642657505989,353,1609059642657505989,0.0041811601609,-0.0146822096148,-0.0132980600375,3.78669041397e-05,-6.37272640583e-05,0.000224847105303,0.999999971974,0.0,0.0,0.0,0.0,0.0,0.0
1609059642761380911,354,1609059642761380911,0.00756449543877,-0.0215362291518,-0.0139554265202,0.000141935403316,0.000141309321107,0.000108924774797,0.99999997401,0.0,0.0,0.0,0.0,0.0,0.0
1609059642863876343,355,1609059642863876343,0.00261341032083,-0.0216286422611,-0.0159777289589,0.000107796881368,-3.47938616211e-05,0.000302310131329,0.999999947888,0.0,0.0,0.0,0.0,0.0,0.0
1609059642967548847,356,1609059642967548847,0.00451070119285,-0.018720665856,-0.0138507782071,0.000294165456898,0.000127402702334,0.000200869270285,0.999999928443,0.0,0.0,0.0,0.0,0.0,0.0
1609059643070142984,357,1609059643070142984,0.00918565501196,-0.0154261011188,-0.0141815852667,0.000212486093484,-1.25151162743e-05,0.000315637716965,0.999999927532,0.0,0.0,0.0,0.0,0.0,0.0
1609059643139916420,358,1609059643139916420,0.00643924850687,-0.0222145103699,-0.0150580691131,0.000193032763027,-0.000441537646013,0.000284913068705,0.999999843303,0.0,0.0,0.0,0.0,0.0,0.0
1609059643241876841,359,1609059643241876841,0.0070480030997,-0.00949839863553,-0.0145206435808,-0.000206648908314,0.000194518873292,0.000267777434086,0.999999923876,0.0,0.0,0.0,0.0,0.0,0.0
1609059643345610857,360,1609059643345610857,0.0107867608999,-0.0151661587339,-0.0137222613923,0.000253061081941,-0.000143461142264,0.000268707497446,0.999999921587,0.0,0.0,0.0,0.0,0.0,0.0
1609059643447978735,361,1609059643447978735,0.00186179318045,-0.0166400326661,-0.0136823359959,0.000373106539536,-0.000374147483609,0.000262508244385,0.999999825947,0.0,0.0,0.0,0.0,0.0,0.0
1609059643550931454,362,1609059643550931454,0.00087802866245,-0.0147271352386,-0.0155342609236,0.000246534037778,0.000115189923159,8.48581607748e-05,0.999999959375,0.0,0.0,0.0,0.0,0.0,0.0
1609059643654123783,363,1609059643654123783,-0.00237896093359,-0.0191791344797,-0.015066842564,0.000136855604018,-0.000201382051181,0.000168952585249,0.999999956085,0.0,0.0,0.0,0.0,0.0,0.0
1609059643757308245,364,1609059643757308245,0.00309557993094,-0.0174025231542,-0.0150712777986,0.000507916744925,-2.63004870161e-05,0.000144122828022,0.999999860278,0.0,0.0,0.0,0.0,0.0,0.0
1609059643859513998,365,1609059643859513998,0.00670434182113,-0.0228317408255,-0.0146732819619,-9.40167681219e-05,7.54829914408e-05,0.000149849158794,0.999999981504,0.0,0.0,0.0,0.0,0.0,0.0
1609059643964254856,366,1609059643964254856,0.00419311292522,-0.0177255019394,-0.015762003513,-1.74653486703e-05,-5.28562907443e-05,0.000250127704358,0.999999967168,0.0,0.0,0.0,0.0,0.0,0.0
