%time,field.header.seq,field.header.stamp,field.pose.pose.position.x,field.pose.pose.position.y,field.pose.pose.position.z,field.pose.pose.orientation.x,field.pose.pose.orientation.y,field.pose.pose.orientation.z,field.pose.pose.orientation.w,field.twist.twist.linear.x,field.twist.twist.linear.y,field.twist.twist.linear.z,field.twist.twist.angular.x,field.twist.twist.angular.y,field.twist.twist.angular.z
1609059612308210373,49,1609059612308210373,-0.0023217010708,-0.00488865443243,0.0154639214143,0.00104571033716,-3.48116783781e-05,0.000640797981121,0.999999247328,0.0,0.0,0.0,0.0,0.0,0.0
1609059612402169466,50,1609059612402169466,0.000519545376355,-0.00253821848458,0.0136428739194,0.000571617612495,0.000399719806542,0.00062871653591,0.999999559096,0.0,0.0,0.0,0.0,0.0,0.0
1609059612495954990,51,1609059612495954990,-0.0071680213898,-0.00429442661587,0.0139725567158,0.000459528851204,0.000183387405924,0.000639273485615,0.999999673266,0.0,0.0,0.0,0.0,0.0,0.0
1609059612610753775,52,1609059612610753775,0.00486793217736,-0.000832146240623,0.0112316334734,0.000435983159378,-4.78843042721e-05,0.000637244405209,0.999999700773,0.0,0.0,0.0,0.0,0.0,0.0
1609059612702178240,53,1609059612702178240,-0.0139465310393,-0.00225162701363,0.0254227170225,0.000812954913403,0.000343626474545,0.000755200750552,0.999999325348,0.0,0.0,0.0,0.0,0.0,0.0
1609059612795922756,54,1609059612795922756,0.00728590861249,-0.00383278900894,0.0316254288116,0.000345283426859,-1.7741593306e-06,0.000638628681001,0.999999736465,0.0,0.0,0.0,0.0,0.0,0.0
1609059612908238649,55,1609059612908238649,-0.0112434458306,-0.00140479062464,0.0318054844677,0.000452160384973,0.0003667913225,0.000573139034191,0.999999666263,0.0,0.0,0.0,0.0,0.0,0.0
1609059613001935005,56,1609059613001935005,-0.00208179128918,-0.00669972125423,0.0182090989976,0.000615089565104,0.000286674692918,0.000674060910685,0.999999542562,0.0,0.0,0.0,0.0,0.0,0.0
1609059613095802069,57,1609059613095802069,-0.00996611534373,-0.000203187213487,0.0218032503415,0.000494052618485,-0.000152444511437,0.000574216313124,0.999999701474,0.0,0.0,0.0,0.0,0.0,0.0
1609059613208169937,58,1609059613208169937,0.000784509416858,-0.00593359166442,0.0218262901441,0.000817075904534,0.000393696384339,0.000693097348459,0.999999348503,0.0,0.0,0.0,0.0,0.0,0.0
1609059613302143574,59,1609059613302143574,0.00342072005492,-0.00362916531483,0.0206110177727,0.000456302337708,-0.000112117115069,0.00053570827434,0.999999746117,0.0,0.0,0.0,0.0,0.0,0.0
1609059613395900488,60,1609059613395900488,-0.0110178392711,0.000235054375231,0.0260592995251,0.000403060162184,8.66136654576e-05,0.00058228615163,0.999999745492,0.0,0.0,0.0,0.0,0.0,0.0
1609059613508971930,61,1609059613508971930,0.00616932608941,-0.0054028975137,0.0147990834854,0.000529736042681,-8.88008046933e-05,0.000583749610176,0.999999685365,0.0,0.0,0.0,0.0,0.0,0.0
1609059613602153301,62,1609059613602153301,-0.0118676258043,-0.00368633931846,0.0309013440578,0.000125538040241,-0.000182681805846,0.000626020450782,0.999999779483,0.0,0.0,0.0,0.0,0.0,0.0
1609059613696782827,63,1609059613696782827,-0.00885891762408,-0.00261301527356,0.00450065818218,0.00053578031023,-0.000114726971098,0.000686841823769,0.999999614013,0.0,0.0,0.0,0.0,0.0,0.0
1609059613808231592,64,1609059613808231592,0.0159020630212,-0.00508204621507,0.0278550511513,-0.000422826367102,0.000104634265538,0.000529659878922,0.999999764865,0.0,0.0,0.0,0.0,0.0,0.0
1609059613902011156,65,1609059613902011156,-0.0136103852423,-0.000946680921666,0.0144788398287,0.000763126281143,-0.00014034707762,0.000650226557338,0.999999487573,0.0,0.0,0.0,0.0,0.0,0.0
1609059613995716810,66,1609059613995716810,0.00455524440704,-0.00635997334063,0.0203783797525,0.00039130086686,1.40343267117e-05,0.000547084656809,0.999999773692,0.0,0.0,0.0,0.0,0.0,0.0
1609059614109590530,67,1609059614109590530,-0.00190013664567,-0.00135100062036,0.0303520646427,0.000211315599945,0.000322433276133,0.000567196308613,0.999999764835,0.0,0.0,0.0,0.0,0.0,0.0
1609059614201650858,68,1609059614201650858,-0.00184418113715,-0.00258083772141,0.0272823652689,0.00111913770168,0.000264860431366,0.00043974493629,0.999999242002,0.0,0.0,0.0,0.0,0.0,0.0
1609059614295348406,69,1609059614295348406,0.00296697820474,-0.00410840191583,0.0416158582035,0.000207612313876,0.000230689656886,0.000455159152507,0.999999848255,0.0,0.0,0.0,0.0,0.0,0.0
1609059614407947063,70,1609059614407947063,-0.0130379467675,-0.00408514199847,0.0484127556638,0.000356095395866,0.00067993142325,0.000520990950891,0.999999569729,0.0,0.0,0.0,0.0,0.0,0.0
1609059614501574993,71,1609059614501574993,-0.00400648796096,-0.00041943297441,0.0249056769769,0.000254686499022,-9.47499580944e-05,0.000574597757532,0.999999797997,0.0,0.0,0.0,0.0,0.0,0.0
1609059614595478535,72,1609059614595478535,-0.00207900561474,-0.00351620614898,0.000578899436249,0.000444046222162,-0.000213875567769,0.000527402072701,0.999999739464,0.0,0.0,0.0,0.0,0.0,0.0
1609059614708052158,73,1609059614708052158,0.00260962544743,-0.00426064731127,0.019407496809,0.000317819233271,0.000184487108874,0.000526203892031,0.999999794032,0.0,0.0,0.0,0.0,0.0,0.0
1609059614801670790,74,1609059614801670790,-8.19820414439e-05,-0.00120197322638,0.0147152155262,0.000471296903854,0.00017972963705,0.000531322587615,0.999999731636,0.0,0.0,0.0,0.0,0.0,0.0
1609059614895665169,75,1609059614895665169,-0.00751541443571,-0.00280017140652,0.00863027089039,0.000674030967886,0.000213535343147,0.000615334977825,0.999999560724,0.0,0.0,0.0,0.0,0.0,0.0
1609059615008339167,76,1609059615008339167,-0.00993856413217,-0.00448719797677,0.0217552333632,0.000788393250867,0.000184227753553,0.000481176944642,0.999999556482,0.0,0.0,0.0,0.0,0.0,0.0
1609059615102513313,77,1609059615102513313,-0.00261170996888,-0.000927786351719,0.0094301565377,0.000389042339431,-5.60357161831e-05,0.000538061376365,0.999999777998,0.0,0.0,0.0,0.0,0.0,0.0
1609059615196102858,78,1609059615196102858,-0.0132800860974,-0.00284783831898,0.0214102256722,0.000989991131525,4.04202318871e-05,0.000643930354725,0.999999301818,0.0,0.0,0.0,0.0,0.0,0.0
1609059615308354855,79,1609059615308354855,0.0100250239718,-0.00496408909037,0.0398491154505,0.000430390261824,0.000312121448086,0.000556452649176,0.999999703852,0.0,0.0,0.0,0.0,0.0,0.0
1609059615402081251,80,1609059615402081251,-0.010912524622,-0.00155541546145,0.0425695506455,0.000795070529471,4.70226612559e-05,0.00051713512091,0.999999549111,0.0,0.0,0.0,0.0,0.0,0.0
1609059615496081114,81,1609059615496081114,-0.00928542643703,-0.00294276435642,0.0154128439371,0.000506647950607,-4.33112547207e-05,0.000529010842975,0.99999973079,0.0,0.0,0.0,0.0,0.0,0.0
1609059615608304501,82,1609059615608304501,3.14598575901e-06,-6.24467382359e-05,0.026022507201,0.000662759970758,-7.70432231259e-05,0.000549696105237,0.999999626324,0.0,0.0,0.0,0.0,0.0,0.0
1609059615701954842,83,1609059615701954842,-0.00363701825635,-0.00522686932651,0.0243525570807,0.000620747240961,5.99586556343e-05,0.000568558836691,0.999999643909,0.0,0.0,0.0,0.0,0.0,0.0
1609059615795728922,84,1609059615795728922,-0.00407142684207,-0.00375053270799,0.0241904416542,0.000341173763198,1.86934409891e-05,0.00050709394484,0.999999813053,0.0,0.0,0.0,0.0,0.0,0.0
1609059615907920361,85,1609059615907920361,-0.00849924514062,-0.00161568096013,0.015765372242,0.000376986921832,0.000277097500818,0.000542654832062,0.999999743312,0.0,0.0,0.0,0.0,0.0,0.0
1609059616002673388,86,1609059616002673388,-0.000756472203773,-0.00307786675364,0.0133286233424,2.89895694381e-05,-0.000156598995519,0.000566592292809,0.999999826805,0.0,0.0,0.0,0.0,0.0,0.0
1609059616095001698,87,1609059616095001698,-0.00641756351404,-0.00391675821163,0.0177544337195,0.000828986213437,-3.69995646284e-05,0.000528026582066,0.9999995163,0.0,0.0,0.0,0.0,0.0,0.0
1609059616207488537,88,1609059616207488537,-0.00530451235551,-0.002784661737,0.0227122928607,0.000608922195043,0.000259727856091,0.000557299557385,0.999999625586,0.0,0.0,0.0,0.0,0.0,0.0
1609059616301316261,89,1609059616301316261,-0.00730207326109,-0.00150245813957,0.0294878858311,0.000604723133509,0.000108924298585,0.000502991567485,0.999999684722,0.0,0.0,0.0,0.0,0.0,0.0
1609059616394973755,90,1609059616394973755,0.00646960466097,-0.00417734947814,0.014327206765,2.21625818869e-05,-5.01858755014e-05,0.000613699961708,0.999999810181,0.0,0.0,0.0,0.0,0.0,0.0
1609059616507784843,91,1609059616507784843,-0.00377088734838,-0.00208413548043,0.0139846224245,0.000135168706803,2.18466009675e-05,0.000407351768315,0.999999907658,0.0,0.0,0.0,0.0,0.0,0.0
1609059616601612091,92,1609059616601612091,-0.00933420077475,-0.00248098125048,0.0156413485948,0.000872464358149,4.61400965699e-05,0.00064998863908,0.999999407096,0.0,0.0,0.0,0.0,0.0,0.0
1609059616695566416,93,1609059616695566416,-0.00151323072722,-0.00182534865279,0.0269472348667,0.000622512765704,0.000521857441374,0.000575464350576,0.999999504492,0.0,0.0,0.0,0.0,0.0,0.0
1609059616808456182,94,1609059616808456182,-0.0049664194512,-0.0030687230707,0.0258270491969,0.00042165311907,5.74243733784e-05,0.000484738509896,0.99999979197,0.0,0.0,0.0,0.0,0.0,0.0
1609059616901839972,95,1609059616901839972,-0.00138218600604,-0.00452968463091,0.0141814763797,0.00076015970696,0.000151972584615,0.000498542737368,0.999999575258,0.0,0.0,0.0,0.0,0.0,0.0
1609059616995696068,96,1609059616995696068,-0.00668006400097,-0.00321782099384,0.0167467898349,0.000455318303484,5.28337979657e-05,0.000637892464962,0.999999691493,0.0,0.0,0.0,0.0,0.0,0.0
1609059617107992649,97,1609059617107992649,-0.0048884017552,-0.00289844361345,0.0229250208246,0.000880607897807,5.38197003705e-05,0.000486419431543,0.999999492514,0.0,0.0,0.0,0.0,0.0,0.0
1609059617201881647,98,1609059617201881647,0.00795642121069,-0.00607604856559,0.0162966247357,0.000226283848526,3.82933516219e-05,0.000543056271915,0.999999826209,0.0,0.0,0.0,0.0,0.0,0.0
1609059617295540571,99,1609059617295540571,-0.00795812873521,-0.00255288724763,0.022723356213,-0.000120378190663,0.000381998412965,0.000594778277407,0.999999742912,0.0,0.0,0.0,0.0,0.0,0.0
1609059617407947063,100,1609059617407947063,-0.00361816914421,-0.00297984387457,0.0104246236764,0.000549225326252,-0.000146384384069,0.000498193925882,0.999999714363,0.0,0.0,0.0,0.0,0.0,0.0
1609059617502630472,101,1609059617502630472,-0.016979045331,-0.00344273212907,0.0119299765891,0.000516617412608,-0.000180804494101,0.000524872108651,0.999999712463,0.0,0.0,0.0,0.0,0.0,0.0
1609059617595062494,102,1609059617595062494,-0.0131814033572,-0.00393677949556,0.0252251019127,0.000700450062661,-5.2547550456e-06,0.000530244817017,0.999999614091,0.0,0.0,0.0,0.0,0.0,0.0
1609059617707426071,103,1609059617707426071,-0.000155557605078,-0.00412469866328,0.0296433051263,0.000584995565741,0.00028975573727,0.0004831119375,0.999999670212,0.0,0.0,0.0,0.0,0.0,0.0
1609059617801222801,104,1609059617801222801,-0.0124089105284,-0.00704742910514,0.0144800214344,0.000842032165436,6.05436626e-05,0.000570723738557,0.999999480795,0.0,0.0,0.0,0.0,0.0,0.0
1609059617895168304,105,1609059617895168304,-0.0117241897124,-0.00229087053487,0.0147592248363,0.000245586957245,-0.000111748688467,0.000515003537304,0.999999830985,0.0,0.0,0.0,0.0,0.0,0.0
1609059618007444143,106,1609059618007444143,0.00190432385462,-0.00599754491636,0.023418108792,0.000534586478527,0.000228087315889,0.000532513623141,0.999999689311,0.0,0.0,0.0,0.0,0.0,0.0
1609059618101599932,107,1609059618101599932,7.0262900884e-05,-0.00542844804867,0.0247625404621,0.00049560246486,9.11157666461e-05,0.000541278463302,0.999999726547,0.0,0.0,0.0,0.0,0.0,0.0
1609059618195364952,108,1609059618195364952,-0.00691105680403,-0.00459329779021,0.0246404149847,0.000413568363838,0.000107712628381,0.000628566499999,0.999999711132,0.0,0.0,0.0,0.0,0.0,0.0
1609059618307770252,109,1609059618307770252,-0.00944850873095,-0.00301522663839,0.0321242188695,0.00074902401155,0.000128086017469,0.000533731985633,0.999999568843,0.0,0.0,0.0,0.0,0.0,0.0
1609059618402882576,110,1609059618402882576,0.00351704412531,-0.00245530209594,0.0357135325101,6.39803208256e-05,0.000196374664992,0.000450758126807,0.99999987708,0.0,0.0,0.0,0.0,0.0,0.0
1609059618495486498,111,1609059618495486498,-0.0101041777538,-0.00635184290459,0.0289228397479,0.000293577965619,5.64075522623e-05,0.000550918356302,0.999999803559,0.0,0.0,0.0,0.0,0.0,0.0
1609059618610842466,112,1609059618610842466,0.00172059795325,-0.00446791628991,0.00797884301641,0.00065239974381,-0.00022223989887,0.000442185999422,0.999999664728,0.0,0.0,0.0,0.0,0.0,0.0
1609059618703334570,113,1609059618703334570,0.00266233599739,-0.0073513650032,0.00434123166237,0.000564315861435,9.10307966807e-05,0.000530537292636,0.999999695895,0.0,0.0,0.0,0.0,0.0,0.0
1609059618797312260,114,1609059618797312260,-0.00715459252242,-0.00480913708878,0.00758392653684,0.000349764570739,-6.20340809655e-05,0.000529715428975,0.999999796609,0.0,0.0,0.0,0.0,0.0,0.0
1609059618895035982,115,1609059618895035982,0.0022940637224,-0.00496504973937,0.0166389467855,2.17741214723e-05,-0.000198009050575,0.000468822523717,0.999999870262,0.0,0.0,0.0,0.0,0.0,0.0
1609059619003383636,116,1609059619003383636,-0.00813206535844,-0.00488885182238,0.0146497820691,0.00049416157143,0.000389799212252,0.000573645975695,0.999999637395,0.0,0.0,0.0,0.0,0.0,0.0
1609059619097301483,117,1609059619097301483,-0.0192719579896,-0.00465647659884,0.0190971340006,0.000900022244192,0.000157580478824,0.0005336991039,0.999999440147,0.0,0.0,0.0,0.0,0.0,0.0
1609059619195175886,118,1609059619195175886,0.00581506544855,-0.0045074842201,0.00532692483046,0.000708707654815,-0.000148531375518,0.000425980442761,0.999999647106,0.0,0.0,0.0,0.0,0.0,0.0
1609059619303657293,119,1609059619303657293,-0.0075815882645,-0.0025589824123,0.0333165174561,0.000352159823479,0.000164923938419,0.000551301753755,0.999999772425,0.0,0.0,0.0,0.0,0.0,0.0
1609059619398056030,120,1609059619398056030,-0.0100631295803,-0.00238001098525,0.0176092313669,0.000336910639545,0.000148658634523,0.00046743469259,0.999999822948,0.0,0.0,0.0,0.0,0.0,0.0
1609059619494664192,121,1609059619494664192,0.00188033369442,-0.00361978285304,0.0356090936837,0.00034357255818,0.000106030596136,0.000478830939677,0.999999820718,0.0,0.0,0.0,0.0,0.0,0.0
1609059619603518724,122,1609059619603518724,-0.00853603189395,-0.00411139825941,0.00479950051153,0.000706371222192,-6.94184131172e-06,0.000551342598176,0.999999598506,0.0,0.0,0.0,0.0,0.0,0.0
1609059619697128773,123,1609059619697128773,-0.0111520879048,-0.000135772064778,0.0501041808086,0.000652130189083,0.000102507519708,0.000448687716554,0.999999681449,0.0,0.0,0.0,0.0,0.0,0.0
1609059619794789553,124,1609059619794789553,0.000135852585921,-0.00664576868393,0.0239999802614,0.000266653792916,-2.12116431243e-05,0.00062507507185,0.999999768863,0.0,0.0,0.0,0.0,0.0,0.0
1609059619903783321,125,1609059619903783321,-0.00199455218248,-0.00245173755008,0.0072589662933,0.00102815058241,-6.78577128686e-05,0.000466226148294,0.999999360467,0.0,0.0,0.0,0.0,0.0,0.0
1609059619997563601,126,1609059619997563601,-0.0163792773421,-0.00462874980598,0.0144159962959,0.000308727024636,-0.000221930530335,0.000583036890239,0.999999757751,0.0,0.0,0.0,0.0,0.0,0.0
1609059620094063759,127,1609059620094063759,-0.0110327627742,-0.00433564956387,0.0172658053811,0.000403228958351,0.000202410932754,0.000490843291784,0.999999777754,0.0,0.0,0.0,0.0,0.0,0.0
1609059620203426123,128,1609059620203426123,-0.00631468252768,-0.00368194877876,0.0325703543376,0.000697512675594,7.66193471065e-05,0.000528917690195,0.999999613926,0.0,0.0,0.0,0.0,0.0,0.0
1609059620297172070,129,1609059620297172070,0.00670171751933,-0.00251851146366,0.0242654968203,0.000222657878393,-9.99424721086e-05,0.000484779849805,0.999999852712,0.0,0.0,0.0,0.0,0.0,0.0
1609059620395757437,130,1609059620395757437,-0.00265739717569,-0.00324821485334,0.0171518472089,0.000466041655586,-0.00010712055715,0.000499960448179,0.999999760685,0.0,0.0,0.0,0.0,0.0,0.0
1609059620508115530,131,1609059620508115530,-0.00669043091215,-0.00329075877488,0.0174784512677,0.000541724762833,-1.92201542979e-05,0.000503966263905,0.999999726091,0.0,0.0,0.0,0.0,0.0,0.0
1609059620602262259,132,1609059620602262259,-0.0064771444897,-0.0041163647156,0.0258234899477,0.000561279721555,0.000349285111112,0.000464930911465,0.999999673402,0.0,0.0,0.0,0.0,0.0,0.0
1609059620696007729,133,1609059620696007729,-0.0069197160119,-0.00361199677846,0.00668496375367,0.000735876756389,-7.88708313353e-05,0.000550240712772,0.99999957475,0.0,0.0,0.0,0.0,0.0,0.0
1609059620808830738,134,1609059620808830738,0.0047709105221,-0.00661017506601,0.00807255482229,9.33717623522e-05,-0.000286620965608,0.000468207036639,0.999999844956,0.0,0.0,0.0,0.0,0.0,0.0
1609059620903622627,135,1609059620903622627,-0.00830872825674,-0.00307502334839,0.03157741932,0.000756224596294,0.000102375539545,0.000491119426372,0.999999588222,0.0,0.0,0.0,0.0,0.0,0.0
1609059620997191668,136,1609059620997191668,-0.00207989506583,-0.00325211324133,0.0401533461031,0.000214014197531,0.000291405451643,0.000538282816247,0.999999789766,0.0,0.0,0.0,0.0,0.0,0.0
1609059621108324051,137,1609059621108324051,-0.00618781136467,-0.00477208351369,-0.00207999512616,0.000383939516913,-0.000369393238635,0.000531376763767,0.999999716889,0.0,0.0,0.0,0.0,0.0,0.0
1609059621203673840,138,1609059621203673840,-0.010784172534,-0.00343749646298,0.00921269746179,0.000303553323773,-0.00022607528157,0.000499650143342,0.999999803547,0.0,0.0,0.0,0.0,0.0,0.0
1609059621297195435,139,1609059621297195435,0.00143878632636,-0.00209281645743,0.0323253732435,0.000730934366755,0.000294628392903,0.000454303478524,0.999999586269,0.0,0.0,0.0,0.0,0.0,0.0
1609059621394870758,140,1609059621394870758,-0.000983982604504,-0.00220245532649,0.0349826310539,0.000568250604731,-0.000130030032431,0.000497334760778,0.999999706421,0.0,0.0,0.0,0.0,0.0,0.0
1609059621505222321,141,1609059621505222321,-0.00159733678369,-0.00291952990222,0.0353916804735,0.000475001585439,0.000250466965726,0.000531447628304,0.999999714601,0.0,0.0,0.0,0.0,0.0,0.0
1609059621599499464,142,1609059621599499464,-0.00487113374858,-0.00173529853122,0.019942685494,0.000180794523843,-1.14160166762e-05,0.00049049176421,0.9999998633,0.0,0.0,0.0,0.0,0.0,0.0
1609059621694573402,143,1609059621694573402,-0.0169190246435,-0.00177347164231,0.0285394351929,0.000838992269479,0.000208385211146,0.000566551123787,0.999999465843,0.0,0.0,0.0,0.0,0.0,0.0
1609059621804986000,144,1609059621804986000,-0.00303670887557,-0.00147757456998,0.00926837394496,0.000202210988357,-0.000344943804845,0.000507120873018,0.999999791476,0.0,0.0,0.0,0.0,0.0,0.0
1609059621898968458,145,1609059621898968458,-0.000852251083944,-0.00213217343804,0.000373202321422,0.000463273699052,-0.000130533915777,0.000489823248757,0.999999764206,0.0,0.0,0.0,0.0,0.0,0.0
1609059621994237185,146,1609059621994237185,-0.00177959646547,-0.00243366869112,0.0207466984678,0.000392115875337,0.000196266562085,0.000452062974575,0.999999801682,0.0,0.0,0.0,0.0,0.0,0.0
1609059622105288029,147,1609059622105288029,-0.00628122055611,-0.00708768689541,0.0320763192745,0.000553730905499,1.01057343515e-05,0.000621473754894,0.999999653525,0.0,0.0,0.0,0.0,0.0,0.0
1609059622199121952,148,1609059622199121952,-0.00469551586983,-0.000415577992738,0.0266441859673,0.000267600115413,0.000330861960045,0.000477323616835,0.999999795541,0.0,0.0,0.0,0.0,0.0,0.0
1609059622294374466,149,1609059622294374466,-0.00790899901523,-0.00258110541115,0.0273798261294,0.000398813716275,0.000101193571121,0.000553648151452,0.99999976209,0.0,0.0,0.0,0.0,0.0,0.0
1609059622409173489,150,1609059622409173489,0.000907624391981,-0.00460750056776,0.0270498885997,0.00036199588906,2.9252415417e-05,0.000516021304611,0.999999800913,0.0,0.0,0.0,0.0,0.0,0.0
1609059622502348423,151,1609059622502348423,-0.00881579041282,-0.0061819710728,0.0193052072403,0.000761574575072,0.000234920562571,0.000562725350232,0.999999524078,0.0,0.0,0.0,0.0,0.0,0.0
1609059622596421719,152,1609059622596421719,0.00542514296641,-0.0030992006992,0.0400165303768,0.000419685941309,0.000148941657926,0.000568063370214,0.999999739492,0.0,0.0,0.0,0.0,0.0,0.0
1609059622708142042,153,1609059622708142042,-0.000360194051951,-0.00270742489121,0.0194065971493,0.000273904784919,0.000153977682787,0.000566156394697,0.999999790367,0.0,0.0,0.0,0.0,0.0,0.0
1609059622801964283,154,1609059622801964283,-0.0141159229416,-0.0043799777597,0.0193223945923,0.00110636125674,2.76602575231e-05,0.000617868874483,0.999999196718,0.0,0.0,0.0,0.0,0.0,0.0
1609059622895802021,155,1609059622895802021,-0.000334925964369,-0.00257991217555,0.0363856158628,0.000861282177623,0.000339091386907,0.000504737880642,0.999999444225,0.0,0.0,0.0,0.0,0.0,0.0
1609059623009116173,156,1609059623009116173,-0.0146780021359,-0.00132199290793,0.0380708596905,0.000272732252291,-1.78763434073e-05,0.000559260014228,0.999999806263,0.0,0.0,0.0,0.0,0.0,0.0
1609059623102023125,157,1609059623102023125,-0.0011665511352,-0.000281297298978,0.0272504209648,0.000264312416899,0.000184003058161,0.000468982047676,0.999999838169,0.0,0.0,0.0,0.0,0.0,0.0
1609059623195907354,158,1609059623195907354,-0.00856700784878,-0.000903068934854,0.0254538066682,0.000526084946875,2.02761412942e-05,0.000514618601879,0.999999728995,0.0,0.0,0.0,0.0,0.0,0.0
1609059623308360100,159,1609059623308360100,-0.000372765294938,-0.00448669608128,0.0212518996241,0.000204704452091,6.27067140523e-05,0.000543548431478,0.999999829359,0.0,0.0,0.0,0.0,0.0,0.0
1609059623402307749,160,1609059623402307749,0.00460088469199,-0.00498086082349,0.0225404366154,0.000610547033363,0.000114129520457,0.000502054875084,0.999999681074,0.0,0.0,0.0,0.0,0.0,0.0
1609059623496150017,161,1609059623496150017,-0.00477883836532,-0.00353861912861,0.0218655956034,0.000184261587008,0.000286017396885,0.000519578939186,0.99999980714,0.0,0.0,0.0,0.0,0.0,0.0
1609059623609039068,162,1609059623609039068,-0.00715374064515,-0.00246639584469,0.0242684257617,0.000543063250271,0.000307846430287,0.000433089115863,0.999999711373,0.0,0.0,0.0,0.0,0.0,0.0
1609059623702395916,163,1609059623702395916,-0.00297039412397,-0.00528729177264,0.0382960974395,0.000656800701478,0.000238754384013,0.000613796680873,0.999999567431,0.0,0.0,0.0,0.0,0.0,0.0
1609059623796455622,164,1609059623796455622,0.0015289315165,-0.00347086777589,0.027744204912,0.000441901080009,0.000151917609231,0.000524331798941,0.99999975336,0.0,0.0,0.0,0.0,0.0,0.0
1609059623909781694,165,1609059623909781694,-0.00265546999709,-0.00310015541665,0.0123328250548,3.78602468404e-05,-0.000322529633752,0.000470045915775,0.999999836799,0.0,0.0,0.0,0.0,0.0,0.0
1609059624005218983,166,1609059624005218983,0.000951327805773,-0.00292589628068,0.0279685267902,0.00043207571735,-2.52031982248e-05,0.000468012630767,0.99999979682,0.0,0.0,0.0,0.0,0.0,0.0
1609059624104778767,167,1609059624104778767,0.00585157327416,-0.00381088080087,0.0127961587146,0.00029421217264,0.000118156246462,0.000488904343331,0.999999830225,0.0,0.0,0.0,0.0,0.0,0.0
1609059624195862770,168,1609059624195862770,-0.0087577233338,-0.00376158386462,0.0222879153533,0.000485962804741,0.000140826538514,0.000517209802766,0.999999738251,0.0,0.0,0.0,0.0,0.0,0.0
1609059624309864998,169,1609059624309864998,-0.0081975223992,-0.0042022939654,0.025278927621,0.000593403271729,2.10204454854e-05,0.000509789420494,0.999999693773,0.0,0.0,0.0,0.0,0.0,0.0
1609059624404598713,170,1609059624404598713,-0.00819254764534,-0.00185399295841,0.0220364545758,0.000192349176317,-3.56176270115e-05,0.000434383399895,0.999999886522,0.0,0.0,0.0,0.0,0.0,0.0
1609059624498536587,171,1609059624498536587,-0.00798822640662,-0.00469093298599,0.030887744733,0.000750358402449,0.000387591806014,0.000565936713303,0.999999483225,0.0,0.0,0.0,0.0,0.0,0.0
1609059624597632647,172,1609059624597632647,0.00515517882174,-0.00337524843191,0.0230760651424,0.000631698350744,-0.000253838762029,0.000500688152953,0.999999642917,0.0,0.0,0.0,0.0,0.0,0.0
1609059624695911646,173,1609059624695911646,-0.00311660401467,-0.00417213969236,0.0314196740804,0.000382244794366,0.000165623529449,0.000485994089948,0.999999795134,0.0,0.0,0.0,0.0,0.0,0.0
1609059624805408239,174,1609059624805408239,-0.00549322111162,-0.001509735315,0.0303342174517,0.000294613866767,-9.70474761987e-05,0.00055213456754,0.999999799466,0.0,0.0,0.0,0.0,0.0,0.0
1609059624899676085,175,1609059624899676085,-0.00252797315541,-0.000504826208558,0.0371793644667,0.000546646403976,0.000379076433307,0.000470969034396,0.999999667833,0.0,0.0,0.0,0.0,0.0,0.0
1609059624996373415,176,1609059624996373415,-0.0121532986257,-0.00557206111249,0.00948731916129,0.000712908601388,-1.64765006178e-05,0.000546137806995,0.999999596611,0.0,0.0,0.0,0.0,0.0,0.0
1609059625105733633,177,1609059625105733633,-0.000399144885393,-0.00245519206111,0.00934357776383,0.000366102094476,6.60828319628e-05,0.000516109011937,0.999999797617,0.0,0.0,0.0,0.0,0.0,0.0
1609059625199414015,178,1609059625199414015,-0.0241812810029,-0.00170863551162,0.0154468604589,0.000910107080087,9.02266418191e-05,0.000514006918993,0.99999944968,0.0,0.0,0.0,0.0,0.0,0.0
1609059625295521259,179,1609059625295521259,-0.00836711639854,-0.00561530469147,0.0174710900714,0.000191044124844,0.000182852315284,0.00048640814286,0.999999846737,0.0,0.0,0.0,0.0,0.0,0.0
1609059625405011415,180,1609059625405011415,-0.00309839610914,-0.00328352554809,0.0184836040034,0.000763190400234,0.000402242160074,0.000453634099031,0.999999524979,0.0,0.0,0.0,0.0,0.0,0.0
1609059625498814821,181,1609059625498814821,-0.000416113334927,-0.00482314256441,-0.00689220086261,0.000135704006169,-0.000451938064894,0.000438666329192,0.999999792454,0.0,0.0,0.0,0.0,0.0,0.0
1609059625595587730,182,1609059625595587730,0.000735190122351,-0.00279178269945,0.0284098716545,0.000564539214305,0.000173999461756,0.000426776627635,0.999999734441,0.0,0.0,0.0,0.0,0.0,0.0
1609059625705034971,183,1609059625705034971,-0.0139631614196,-0.0060716544741,0.027283547246,0.000998557870336,0.000349830026189,0.000627711069742,0.99999924324,0.0,0.0,0.0,0.0,0.0,0.0
1609059625799444437,184,1609059625799444437,0.0047080350597,-0.00716326984776,0.0267109017645,-3.00360382588e-05,-5.97410139532e-05,0.000522443417308,0.999999861291,0.0,0.0,0.0,0.0,0.0,0.0
1609059625895665884,185,1609059625895665884,-0.00374868181841,-0.00282205626265,0.019248968261,0.00053725695731,-1.05263565317e-05,0.000430960831644,0.999999762758,0.0,0.0,0.0,0.0,0.0,0.0
1609059626005056381,186,1609059626005056381,-0.0109578503191,-0.00321478026494,0.0284789682939,0.000782406882623,0.000376470462305,0.000418217568261,0.999999535602,0.0,0.0,0.0,0.0,0.0,0.0
1609059626097329378,187,1609059626097329378,-3.67908087697e-05,-0.00529983277489,0.0195989524188,0.000441993516552,9.82527952438e-05,0.000431883896145,0.999999804232,0.0,0.0,0.0,0.0,0.0,0.0
1609059626195652246,188,1609059626195652246,0.00335303909885,-0.00494647042041,0.0223369338087,0.000422997468917,0.000347632439583,0.00044335530237,0.99999975183,0.0,0.0,0.0,0.0,0.0,0.0
1609059626304649115,189,1609059626304649115,0.00226133447395,-0.00159441867443,0.0236852477072,-0.000144081696397,-0.000293230058265,0.000455915906289,0.999999842698,0.0,0.0,0.0,0.0,0.0,0.0
1609059626398725510,190,1609059626398725510,-0.0127748287264,-0.00236935941827,0.0316462048719,0.000283462170609,-4.20027549674e-05,0.000525898494885,0.999999820658,0.0,0.0,0.0,0.0,0.0,0.0
1609059626495373011,191,1609059626495373011,-0.00227735719115,-0.00615693184042,0.0326937709834,0.000910919629438,0.000265061946995,0.000457375043594,0.999999445388,0.0,0.0,0.0,0.0,0.0,0.0
1609059626605505228,192,1609059626605505228,-0.00622066428765,-0.00346408622924,0.0415298289549,0.000954228007088,0.000261542517564,0.000526205842821,0.999999372076,0.0,0.0,0.0,0.0,0.0,0.0
1609059626698790073,193,1609059626698790073,-0.000720603122497,-0.00282780263121,0.0139380311974,0.000364775024208,5.80426752878e-06,0.000501376319234,0.999999807763,0.0,0.0,0.0,0.0,0.0,0.0
1609059626796001911,194,1609059626796001911,-0.0239312044792,-0.00233429736006,0.00848178752267,0.000975972386893,-2.33030196321e-05,0.000413787235396,0.999999437857,0.0,0.0,0.0,0.0,0.0,0.0
1609059626905401468,195,1609059626905401468,0.00504439845315,-0.00469065735472,0.0394365622181,0.000385777091456,0.000352171906572,0.000406994675604,0.999999780753,0.0,0.0,0.0,0.0,0.0,0.0
1609059626997517824,196,1609059626997517824,-0.00657088609516,-0.00451519297123,0.0204981670786,0.000126642866175,-2.73423764253e-05,0.000497455052125,0.999999867876,0.0,0.0,0.0,0.0,0.0,0.0
1609059627094501495,197,1609059627094501495,-0.00252125161124,-0.00547536032263,0.0232471801981,0.000961968197718,-1.39983574363e-05,0.00049601135228,0.999999414197,0.0,0.0,0.0,0.0,0.0,0.0
1609059627204315901,198,1609059627204315901,0.00578221488837,-0.00600971225667,0.0172984604947,0.000595877929265,-6.30785259676e-05,0.000422199105947,0.999999731349,0.0,0.0,0.0,0.0,0.0,0.0
1609059627298164845,199,1609059627298164845,-0.00559926004181,-0.0047572306417,0.028473572041,0.000814165163634,0.000234229412221,0.000500582339765,0.999999515844,0.0,0.0,0.0,0.0,0.0,0.0
1609059627394990683,200,1609059627394990683,-0.00206742664999,-0.00554096517649,0.00499639567137,0.000554748808493,-0.000148337040652,0.00052090761468,0.999999699452,0.0,0.0,0.0,0.0,0.0,0.0
1609059627504567862,201,1609059627504567862,-0.00182269459594,-0.00580775950237,0.00810232487231,0.000194887618756,4.4935605729e-06,0.000412334981675,0.999999895989,0.0,0.0,0.0,0.0,0.0,0.0
1609059627598381996,202,1609059627598381996,-0.00333950810702,-0.00396211038201,0.00481859525733,0.000425869090402,3.46114262456e-05,0.000413212446233,0.999999823346,0.0,0.0,0.0,0.0,0.0,0.0
1609059627695645332,203,1609059627695645332,-0.011088870195,-0.00439595510332,0.0432403568143,0.000460740332766,0.000597984949308,0.000492689898625,0.999999593694,0.0,0.0,0.0,0.0,0.0,0.0
1609059627805097818,204,1609059627805097818,-0.00598310106807,-0.00319188551701,0.0126254452046,0.000382642237666,-0.000227857015246,0.000440055534628,0.999999804008,0.0,0.0,0.0,0.0,0.0,0.0
1609059627898427248,205,1609059627898427248,0.00131434334968,-0.0029650722653,0.0354604259752,0.000231387655747,0.000203324990664,0.00045858690979,0.999999847408,0.0,0.0,0.0,0.0,0.0,0.0
1609059627995097637,206,1609059627995097637,0.00375170965488,-0.00191237709854,0.017581552796,0.000112892345635,-4.35172001191e-05,0.000386769014189,0.999999917885,0.0,0.0,0.0,0.0,0.0,0.0
1609059628104719400,207,1609059628104719400,-0.0117635557559,-0.00274962064764,0.0192373666647,0.000417372566565,0.000283547771771,0.00057667163092,0.999999706425,0.0,0.0,0.0,0.0,0.0,0.0
1609059628198583841,208,1609059628198583841,0.00553163771364,-0.00240966511417,0.0223175851007,0.000321375945963,-9.27463266894e-05,0.000441336097651,0.999999846669,0.0,0.0,0.0,0.0,0.0,0.0
1609059628295778275,209,1609059628295778275,-0.00237749482566,-0.0058359713002,0.0126738606422,0.000407390542777,6.05215869699e-05,0.000468147239109,0.999999805604,0.0,0.0,0.0,0.0,0.0,0.0
1609059628404722452,210,1609059628404722452,0.000257664362233,-0.00190344047567,0.0238175987781,0.000590123899077,0.000134624421879,0.000474313365248,0.999999704328,0.0,0.0,0.0,0.0,0.0,0.0
1609059628498455524,211,1609059628498455524,-0.00852251512352,-0.00131841119535,0.0189706329935,0.000206329983168,-0.000120510943348,0.000429329430911,0.99999987929,0.0,0.0,0.0,0.0,0.0,0.0
1609059628595124006,212,1609059628595124006,0.00412660535924,-0.00364609372906,0.00213993583451,0.000434499268728,0.000116551067018,0.00035796605306,0.999999834743,0.0,0.0,0.0,0.0,0.0,0.0
1609059628704654217,213,1609059628704654217,-0.00366320997204,-0.000866702894664,0.0139111601601,0.000358502701202,1.67710315044e-05,0.000429357163024,0.999999843423,0.0,0.0,0.0,0.0,0.0,0.0
1609059628798819065,214,1609059628798819065,-0.00314749541819,-0.00301177750976,0.0146959382248,0.000594153291374,0.000143989986785,0.000537987222381,0.999999668409,0.0,0.0,0.0,0.0,0.0,0.0
1609059628895819187,215,1609059628895819187,-0.0063448577239,-0.00530691480776,0.0152538730626,0.000336342204556,8.69387820526e-05,0.000512757884886,0.999999808197,0.0,0.0,0.0,0.0,0.0,0.0
1609059629005088568,216,1609059629005088568,-0.00870418960766,-0.00283330127963,0.0246100234618,0.000617105482304,0.000217520613636,0.000492221802453,0.999999664791,0.0,0.0,0.0,0.0,0.0,0.0
1609059629098433495,217,1609059629098433495,-0.00558616712452,-0.00499241267613,0.017438957381,0.000275440181141,-1.61935283384e-05,0.00045613674801,0.999999857905,0.0,0.0,0.0,0.0,0.0,0.0
1609059629195126057,218,1609059629195126057,0.00247354989771,-0.00719374293947,0.0040883460858,0.000853211302982,0.000162968103382,0.000511437115585,0.999999491952,0.0,0.0,0.0,0.0,0.0,0.0
1609059629304473162,219,1609059629304473162,0.0026181598904,-0.00262253119113,0.0372228202457,9.34953267772e-05,0.000356859794223,0.000455171665559,0.999999828364,0.0,0.0,0.0,0.0,0.0,0.0
1609059629398295403,220,1609059629398295403,-0.00644894887984,-0.00648423385317,0.0111490325148,0.000776830264741,-0.000137375023405,0.000488770734009,0.999999569383,0.0,0.0,0.0,0.0,0.0,0.0
1609059629495580435,221,1609059629495580435,-0.00924228587274,-0.00633918370554,0.0235573109416,0.000535237441571,9.97910800733e-05,0.000532298710979,0.99999971011,0.0,0.0,0.0,0.0,0.0,0.0
1609059629604296923,222,1609059629604296923,0.000875156049999,-0.0027027613245,0.00371255142747,0.000281418297702,-0.000158594289868,0.000419561496646,0.99999985981,0.0,0.0,0.0,0.0,0.0,0.0
1609059629698050261,223,1609059629698050261,-0.0144905175747,-0.0027002073296,0.0116423069037,0.000817097817016,0.00020656159133,0.00039754976903,0.999999565819,0.0,0.0,0.0,0.0,0.0,0.0
1609059629795026302,224,1609059629795026302,-0.000891276625952,-0.00597358388701,0.0239660022678,0.000435977506278,0.000225377866733,0.000427825864415,0.999999788047,0.0,0.0,0.0,0.0,0.0,0.0
1609059629904288292,225,1609059629904288292,0.00502389221834,-0.00274755085604,0.0169346480483,0.000576372425592,0.000219762965989,0.000389949345752,0.999999733719,0.0,0.0,0.0,0.0,0.0,0.0
1609059629997841120,226,1609059629997841120,-0.010521712868,-0.00561452652072,0.00965491929649,0.000212909590553,-0.000296882898639,0.000475313296886,0.999999820303,0.0,0.0,0.0,0.0,0.0,0.0
1609059630094537973,227,1609059630094537973,-0.00569423697187,-0.00306436983815,0.0243908466217,0.00029072353172,0.000116820880747,0.000379747772193,0.999999878812,0.0,0.0,0.0,0.0,0.0,0.0
1609059630204473734,228,1609059630204473734,-0.00918178737879,-0.00107177989741,0.0207453768063,0.00022532796525,-4.56295871014e-05,0.00037499605717,0.999999903261,0.0,0.0,0.0,0.0,0.0,0.0
1609059630298058271,229,1609059630298058271,-0.00172346042163,-0.00333504227245,0.0223057239314,-1.09399003533e-05,-8.45349391795e-05,0.000420723655938,0.999999907863,0.0,0.0,0.0,0.0,0.0,0.0
1609059630394806623,230,1609059630394806623,-0.0136371485997,-0.00427274329084,0.00353314526905,1.05926450703e-05,-9.83615493009e-05,0.000393154670418,0.999999917821,0.0,0.0,0.0,0.0,0.0,0.0
1609059630504362822,231,1609059630504362822,0.00773194704303,-0.00486991565381,0.0160023653706,4.1345246598e-05,6.32307651299e-05,0.000404699509736,0.999999915255,0.0,0.0,0.0,0.0,0.0,0.0
1609059630598208904,232,1609059630598208904,-0.00876585614169,-0.00297361139032,0.0230115319433,0.000562756988488,-9.65299443945e-06,0.000465024743062,0.999999733481,0.0,0.0,0.0,0.0,0.0,0.0
1609059630695203543,233,1609059630695203543,-0.00374840891467,-0.00354492874553,0.0151567054926,0.000722407645191,-1.11450465379e-05,0.000466562825457,0.999999630161,0.0,0.0,0.0,0.0,0.0,0.0
1609059630805304050,234,1609059630805304050,-0.00644716246945,-0.00452636613457,0.0233674935478,0.000265691136395,3.08525592183e-05,0.000425395470593,0.999999873747,0.0,0.0,0.0,0.0,0.0,0.0
1609059630898564816,235,1609059630898564816,0.00358252719491,-0.00495839522296,0.0209848037017,0.000277067269112,0.000200291013634,0.00047735779912,0.999999827623,0.0,0.0,0.0,0.0,0.0,0.0
1609059630995630741,236,1609059630995630741,0.00798771338516,-0.00269296586434,0.0245720582224,-0.000153538745299,-0.000201836094147,0.000369215058561,0.999999899684,0.0,0.0,0.0,0.0,0.0,0.0
1609059631105083942,237,1609059631105083942,-0.0043948823991,-0.00657084155744,0.00710389365993,0.000537945796009,0.000332640286708,0.00043541996517,0.999999705187,0.0,0.0,0.0,0.0,0.0,0.0
1609059631199059486,238,1609059631199059486,-0.00596515085498,-0.00441603415456,0.0209207158147,0.000655910613615,-1.31300754281e-05,0.000437268815742,0.999999689202,0.0,0.0,0.0,0.0,0.0,0.0
1609059631296011209,239,1609059631296011209,-0.00174419987508,-0.00410425878299,0.0213294085428,3.91396620148e-05,3.26387273984e-05,0.000512657614822,0.999999867292,0.0,0.0,0.0,0.0,0.0,0.0
1609059631405018091,240,1609059631405018091,0.0131057635616,-0.00612354537529,0.0153626800228,0.000632278401935,0.000137184407282,0.000508445458155,0.999999661444,0.0,0.0,0.0,0.0,0.0,0.0
1609059631498703957,241,1609059631498703957,-0.00305768581473,-0.0016443728155,0.0207302086143,0.000331795987116,0.000225578868232,0.00046631196462,0.999999810789,0.0,0.0,0.0,0.0,0.0,0.0
1609059631595472574,242,1609059631595472574,-0.00971000528502,-0.00514319973906,0.0316529263053,0.000604335648865,6.64104336055e-05,0.000504977814955,0.999999687683,0.0,0.0,0.0,0.0,0.0,0.0
1609059631705449581,243,1609059631705449581,-0.00750289663161,-0.00435784120005,0.0279712528704,0.000334890763087,0.000357726481635,0.000531991539286,0.999999738432,0.0,0.0,0.0,0.0,0.0,0.0
1609059631798740864,244,1609059631798740864,-0.00172234931284,-0.00418089767078,0.0258732810669,0.000562913057311,0.000168432556757,0.000400387089225,0.999999747225,0.0,0.0,0.0,0.0,0.0,0.0
1609059631896175861,245,1609059631896175861,-0.00859288003418,-0.00128439044569,0.017932414178,7.45143016542e-05,-0.000377569576811,0.000455651652901,0.999999822135,0.0,0.0,0.0,0.0,0.0,0.0
1609059632005013704,246,1609059632005013704,-0.00408952291207,-0.00496816325365,0.0303551331878,0.000439130317323,-5.89153276436e-05,0.000449065353337,0.999999801017,0.0,0.0,0.0,0.0,0.0,0.0
1609059632098555088,247,1609059632098555088,0.0017815249005,2.90423202832e-05,0.0216638175423,0.000304271714845,-3.70303729363e-05,0.000461418821359,0.99999984657,0.0,0.0,0.0,0.0,0.0,0.0
1609059632195221663,248,1609059632195221663,0.00490654609311,-0.00390779196356,0.0345648388889,0.000574620871174,7.13721955264e-05,0.000442749390501,0.999999734345,0.0,0.0,0.0,0.0,0.0,0.0
1609059632304206848,249,1609059632304206848,-0.0221839994173,-0.000427011276926,0.0254871081351,0.000119106049798,0.000182428471678,0.000442874950017,0.999999878198,0.0,0.0,0.0,0.0,0.0,0.0
1609059632397955418,250,1609059632397955418,-0.00149626291306,-0.00581713115417,0.0191954995588,0.00104646766873,-2.51921763678e-05,0.000460130761154,0.999999346275,0.0,0.0,0.0,0.0,0.0,0.0
1609059632494987965,251,1609059632494987965,-0.000351181996947,-0.00212567741018,0.0274878562726,-9.19942265876e-05,6.16399624254e-05,0.000342913216534,0.999999935074,0.0,0.0,0.0,0.0,0.0,0.0
1609059632604939222,252,1609059632604939222,-0.00620524708271,-0.000994096004162,0.0115335700093,0.000372106071177,-0.000117000161126,0.000376896816156,0.999999852898,0.0,0.0,0.0,0.0,0.0,0.0
1609059632698843718,253,1609059632698843718,-0.00406616018783,-0.00208399692084,0.0128895509903,0.000348930796258,-0.00026088906617,0.000378211111754,0.99999983357,0.0,0.0,0.0,0.0,0.0,0.0
1609059632795548916,254,1609059632795548916,0.0064541766882,-0.00270734321062,0.0399646231389,0.000440776363047,0.000392424066762,0.000406212622778,0.999999743355,0.0,0.0,0.0,0.0,0.0,0.0
1609059632905182838,255,1609059632905182838,-0.00705482056768,-0.00480276546331,0.0123089596149,5.27802375433e-05,8.08497296524e-05,0.000485804499123,0.999999877336,0.0,0.0,0.0,0.0,0.0,0.0
1609059632999365568,256,1609059632999365568,-0.00387289775781,-0.00333223071006,-0.00379940977759,0.00058710355554,-4.15696336796e-07,0.000511251584081,0.999999696965,0.0,0.0,0.0,0.0,0.0,0.0
1609059633096182346,257,1609059633096182346,-0.00701598332669,-0.00516089334911,0.0318929067877,-0.000159328273599,0.000390926029074,0.000484067388748,0.999999793735,0.0,0.0,0.0,0.0,0.0,0.0
1609059633205361366,258,1609059633205361366,-0.00125307374362,-0.00517868987316,0.0153356680964,0.000274794513796,0.000152167072126,0.000370393394612,0.999999882071,0.0,0.0,0.0,0.0,0.0,0.0
1609059633299412012,259,1609059633299412012,0.00555858753354,-0.00773934951788,0.023322134523,0.000614450035948,-7.35116627519e-05,0.000464375235636,0.999999700701,0.0,0.0,0.0,0.0,0.0,0.0
1609059633395841122,260,1609059633395841122,-0.0142903111698,-0.00590471126688,0.000908087904041,0.00102350542269,9.94855087115e-05,0.000436927218045,0.999999375817,0.0,0.0,0.0,0.0,0.0,0.0
1609059633504708767,261,1609059633504708767,-0.0087269919715,-0.00310797186917,0.0292538041807,0.00028087065471,0.000152871364491,0.000439922007557,0.999999852105,0.0,0.0,0.0,0.0,0.0,0.0
1609059633599006176,262,1609059633599006176,0.00194783344573,-0.00333213473749,0.0122270249866,0.000274186706264,0.000103233522885,0.000428644191712,0.999999865214,0.0,0.0,0.0,0.0,0.0,0.0
1609059633696171522,263,1609059633696171522,-0.00328057243325,-0.00529042719028,0.00701216267254,0.000389396642831,-0.000247233877733,0.000384963408393,0.999999819524,0.0,0.0,0.0,0.0,0.0,0.0
1609059633806310654,264,1609059633806310654,-0.00554832084224,-0.00540272921778,0.0103953850548,0.000419330248993,-0.000115116486781,0.000486871829285,0.999999786933,0.0,0.0,0.0,0.0,0.0,0.0
1609059633899302959,265,1609059633899302959,0.0104954936233,-0.00208244569016,0.0117735064447,0.00054364542883,2.34467074304e-05,0.00039377820865,0.999999774419,0.0,0.0,0.0,0.0,0.0,0.0
1609059633996862173,266,1609059633996862173,-0.0143826661598,-0.00266324738598,0.0132521138633,0.000783773861875,-0.000103997285577,0.000413284138557,0.999999602039,0.0,0.0,0.0,0.0,0.0,0.0
1609059634105476856,267,1609059634105476856,0.00173126661796,-0.00664959326038,0.0124053143432,-8.10515955238e-05,9.00787866907e-07,0.000464252113897,0.99999988895,0.0,0.0,0.0,0.0,0.0,0.0
1609059634199232817,268,1609059634199232817,-0.0108459906273,-0.00520528984856,0.0261881875897,0.000248100574797,0.00021066219269,0.000514132982017,0.999999814867,0.0,0.0,0.0,0.0,0.0,0.0
1609059634296420574,269,1609059634296420574,-0.00698591775807,-0.00306162605885,0.0244893844456,0.000631286277822,1.15466540455e-05,0.000427289782148,0.999999709384,0.0,0.0,0.0,0.0,0.0,0.0
1609059634405401945,270,1609059634405401945,0.000987912662216,-0.00273290367607,0.00858742336067,0.000330974036983,4.2544889976e-05,0.000512356500966,0.999999813068,0.0,0.0,0.0,0.0,0.0,0.0
1609059634499334335,271,1609059634499334335,-0.00885336778837,-0.0031160575613,0.0155873160057,0.000342640236009,9.69628309823e-05,0.00049382841296,0.999999814664,0.0,0.0,0.0,0.0,0.0,0.0
1609059634596210957,272,1609059634596210957,-0.00764861841164,-0.00346648520077,0.0201179420394,0.00079355341039,0.000240715320743,0.000467495863592,0.999999546888,0.0,0.0,0.0,0.0,0.0,0.0
1609059634705383539,273,1609059634705383539,-0.00377978135553,-0.0041655294882,0.020043803758,0.000181063203023,-7.7538864322e-05,0.000520125436259,0.999999845336,0.0,0.0,0.0,0.0,0.0,0.0
1609059634799029827,274,1609059634799029827,-0.0145340131225,-0.0011586147446,0.0350327952672,0.000254544413667,0.000434158747068,0.000486774010493,0.999999754882,0.0,0.0,0.0,0.0,0.0,0.0
1609059634895670414,275,1609059634895670414,-0.00310590652418,-0.00624435042304,0.0259693177056,0.000213477504102,-7.38604917808e-05,0.000413021871637,0.999999889192,0.0,0.0,0.0,0.0,0.0,0.0
1609059635004694939,276,1609059635004694939,-0.0121481021804,-0.00457665161689,0.0318239694484,0.000311582828661,0.000231370715053,0.000488653979271,0.9999998053,0.0,0.0,0.0,0.0,0.0,0.0
1609059635099501848,277,1609059635099501848,0.00631680909477,-0.00514131323929,0.00100396890395,0.000575134021789,-0.000538517044012,0.000501310478426,0.999999563954,0.0,0.0,0.0,0.0,0.0,0.0
1609059635195922375,278,1609059635195922375,-0.00210514932602,-0.00397040783284,0.0212207546091,0.000439589482931,2.65760743141e-06,0.000409316586917,0.999999819607,0.0,0.0,0.0,0.0,0.0,0.0
1609059635304986715,279,1609059635304986715,-0.00386254666832,-0.00290137178395,0.0289693580348,0.00063352606395,-7.46727163244e-05,0.000410250270021,0.999999712381,0.0,0.0,0.0,0.0,0.0,0.0
1609059635398900747,280,1609059635398900747,0.00130151598919,-0.00572283752777,0.0219248790009,-0.000242302397921,-8.78636740065e-05,0.000489031556066,0.999999847209,0.0,0.0,0.0,0.0,0.0,0.0
1609059635495497227,281,1609059635495497227,-0.0105618980131,-0.00456531345373,0.00167323007602,0.00104130237702,-2.0121739668e-05,0.00042112456476,0.999999368969,0.0,0.0,0.0,0.0,0.0,0.0
1609059635605286598,282,1609059635605286598,0.00782718484632,-0.00504274183537,0.0211855875525,0.000297595361392,0.000188933538652,0.000470474223318,0.999999827197,0.0,0.0,0.0,0.0,0.0,0.0
1609059635698734999,283,1609059635698734999,-0.0155582581593,-0.00469517808935,0.0289448574111,0.000804840489071,0.000229231478772,0.000473135338515,0.999999537914,0.0,0.0,0.0,0.0,0.0,0.0
1609059635795943499,284,1609059635795943499,-0.0112815790345,-0.0025014792411,0.0172277609199,0.000310407971771,0.000164381514032,0.00053219016845,0.999999796699,0.0,0.0,0.0,0.0,0.0,0.0
1609059635905104876,285,1609059635905104876,-0.00698775420284,-0.00465607176057,0.0129160077581,0.000353860790243,0.000168380333853,0.000487461206174,0.999999804406,0.0,0.0,0.0,0.0,0.0,0.0
1609059635998809338,286,1609059635998809338,0.00336771072322,-0.00631958259061,0.0120136792601,0.00037937824508,-0.000152853429474,0.000389788409589,0.999999840386,0.0,0.0,0.0,0.0,0.0,0.0
1609059636095833302,287,1609059636095833302,-0.00653676619007,-0.00453432895079,0.0112594581539,0.000138747995823,0.000103898203658,0.000523093288235,0.999999848164,0.0,0.0,0.0,0.0,0.0,0.0
1609059636204848766,288,1609059636204848766,-0.0107007166664,-0.00311386033067,0.00488983770566,0.000271098571193,-0.000253976083387,0.000367131824304,0.999999863608,0.0,0.0,0.0,0.0,0.0,0.0
1609059636298808813,289,1609059636298808813,-0.00280830612188,-0.00480239101046,0.0138740015935,0.00118962432097,0.000345644286584,0.000467826854953,0.99999912323,0.0,0.0,0.0,0.0,0.0,0.0
1609059636395336866,290,1609059636395336866,-0.0217510882437,-0.00204981280204,0.0359176793948,0.000266287998216,0.000193073383493,0.000481915116078,0.999999829785,0.0,0.0,0.0,0.0,0.0,0.0
1609059636504980326,291,1609059636504980326,-0.00474807532897,-0.00724212961632,0.0146314947181,0.000338778619018,-0.000164821997951,0.000477022869113,0.999999815256,0.0,0.0,0.0,0.0,0.0,0.0
1609059636598752260,292,1609059636598752260,0.0106129897209,-0.00382280019952,0.0344784231591,-3.82079054131e-05,0.000174556779551,0.000425093564525,0.999999893683,0.0,0.0,0.0,0.0,0.0,0.0
1609059636696049690,293,1609059636696049690,-0.0165667029226,-0.00502852329123,0.014112847375,0.000528867955443,-7.11120755089e-05,0.000451401371739,0.999999755739,0.0,0.0,0.0,0.0,0.0,0.0
1609059636804936886,294,1609059636804936886,-0.000870845048242,-0.00325603740532,-0.00218061756643,0.000633856264046,-0.00017073052402,0.000403283138067,0.99999970322,0.0,0.0,0.0,0.0,0.0,0.0
1609059636898827791,295,1609059636898827791,4.65542927419e-05,-0.00813961820055,0.0113254265662,-5.33306090186e-05,-0.000155110540756,0.000485884838471,0.999999868506,0.0,0.0,0.0,0.0,0.0,0.0
1609059636995437384,296,1609059636995437384,-0.0100770566737,-0.00249925422029,0.0311586899596,0.00057246240206,0.000110250335936,0.000443183257879,0.99999973186,0.0,0.0,0.0,0.0,0.0,0.0
1609059637105320930,297,1609059637105320930,-0.000888901662147,-0.00714911104704,0.00198196159306,0.000482884103324,-3.29272020507e-05,0.000435793967352,0.999999787911,0.0,0.0,0.0,0.0,0.0,0.0
1609059637199000597,298,1609059637199000597,-0.0120035245464,-0.00594453190882,0.0264705052164,0.000491964918788,0.000311045465158,0.000486104562616,0.999999712462,0.0,0.0,0.0,0.0,0.0,0.0
1609059637295650482,299,1609059637295650482,-0.00674414329162,-0.00298743498015,0.0118784667583,0.0001447313553,-0.000283447603633,0.000422441179783,0.999999860127,0.0,0.0,0.0,0.0,0.0,0.0
1609059637404986620,300,1609059637404986620,-0.00635401169883,-0.00576841116577,0.00984809503457,4.02685314822e-05,0.000116521726193,0.00032203106989,0.999999940548,0.0,0.0,0.0,0.0,0.0,0.0
1609059637498919725,301,1609059637498919725,-0.020913788527,-0.00407566837118,0.0117098476706,0.000169276653868,0.000166160450625,0.000461843333347,0.999999865218,0.0,0.0,0.0,0.0,0.0,0.0
1609059637596049786,302,1609059637596049786,-0.00250561848078,-0.00350394905049,0.031805644662,0.000476294733443,0.000214968771468,0.00040588319757,0.999999781095,0.0,0.0,0.0,0.0,0.0,0.0
1609059637705136299,303,1609059637705136299,-0.0119573314644,-0.00269299003784,0.0124298698654,0.000309903028792,-7.05207140015e-05,0.000408949961771,0.999999865873,0.0,0.0,0.0,0.0,0.0,0.0
1609059637799126625,304,1609059637799126625,0.00169190870768,-0.00398681516146,0.00145245219778,0.000511339637816,6.08929410803e-05,0.000463268439392,0.999999760103,0.0,0.0,0.0,0.0,0.0,0.0
1609059637897128105,305,1609059637897128105,-0.00459281362881,-0.00516378094173,0.0236101159314,0.000845714904289,0.000451725682249,0.000451738453448,0.999999438321,0.0,0.0,0.0,0.0,0.0,0.0
1609059638005546808,306,1609059638005546808,-0.00408103344794,-0.00369714531907,0.0325072192916,-0.000152395210443,7.5375706836e-05,0.000471162134683,0.99999987455,0.0,0.0,0.0,0.0,0.0,0.0
1609059638099406719,307,1609059638099406719,-0.00404678978197,-0.00714255442643,0.0300050451917,0.00055392054476,-7.70092136207e-05,0.000497306758014,0.999999719964,0.0,0.0,0.0,0.0,0.0,0.0
1609059638196474314,308,1609059638196474314,-0.00621280148339,-0.00408046535097,0.0229983861111,0.000881283111707,0.000100131759432,0.000494738472521,0.999999484273,0.0,0.0,0.0,0.0,0.0,0.0
1609059638305867434,309,1609059638305867434,-0.00516957569506,-0.00392507231742,0.0186055897247,0.000454097856142,4.97981541461e-05,0.000469648077973,0.999999785373,0.0,0.0,0.0,0.0,0.0,0.0
1609059638399498224,310,1609059638399498224,-0.00601666729373,-0.00612941798992,0.0285296964698,0.000416623927736,0.000172330602114,0.000539270583002,0.999999752957,0.0,0.0,0.0,0.0,0.0,0.0
1609059638496348858,311,1609059638496348858,0.00354902925978,-0.00499344493437,0.0272960836076,0.000606088531015,0.000296964855055,0.000420971676716,0.999999683625,0.0,0.0,0.0,0.0,0.0,0.0
1609059638605793476,312,1609059638605793476,0.00506006054981,-0.00345510621514,0.0202124472095,7.74045947744e-05,0.000107670890507,0.000382496670104,0.999999918056,0.0,0.0,0.0,0.0,0.0,0.0
1609059638698924065,313,1609059638698924065,-0.0017645321073,-0.00496137829916,0.0412798798703,0.000129436273905,0.000111228065158,0.000495526829412,0.999999862664,0.0,0.0,0.0,0.0,0.0,0.0
1609059638796207428,314,1609059638796207428,0.00086528207494,-0.00780433580805,0.036357413419,-0.000137269206356,0.000134852751051,0.000422538967502,0.999999892216,0.0,0.0,0.0,0.0,0.0,0.0
1609059638905427933,315,1609059638905427933,-0.00518770397928,-0.00447966469584,0.010863135043,-5.25850166694e-05,-0.000215690776546,0.000393766298457,0.99999989783,0.0,0.0,0.0,0.0,0.0,0.0
1609059638999220848,316,1609059638999220848,0.000900903557133,-0.00670369132637,0.0166395299925,0.00137345333429,0.000117239447217,0.00047172131079,0.999998938679,0.0,0.0,0.0,0.0,0.0,0.0
1609059639095710039,317,1609059639095710039,-0.0112502994948,-0.00568717057764,0.0270461531951,5.76811089744e-06,-8.81901229112e-05,0.000442520289274,0.999999898182,0.0,0.0,0.0,0.0,0.0,0.0
1609059639204817772,318,1609059639204817772,-0.00783563765013,-0.00360850164055,0.0125570349397,3.33685400347e-05,0.000148669092243,0.000466325526439,0.999999879662,0.0,0.0,0.0,0.0,0.0,0.0
1609059639298618078,319,1609059639298618078,-0.0123282612865,-0.00781264242768,-0.00843899691113,0.000389304448817,1.95226744004e-07,0.000485614195873,0.99999980631,0.0,0.0,0.0,0.0,0.0,0.0
1609059639395615101,320,1609059639395615101,-0.00757345012234,-0.00507316677815,0.0102735589833,0.000411348978686,-8.79270586939e-05,0.000452583893557,0.999999809114,0.0,0.0,0.0,0.0,0.0,0.0
1609059639505429745,321,1609059639505429745,-0.00840909211222,-0.00265026182055,0.00543628263657,-1.71745749227e-05,-0.000224648828482,0.000380468889298,0.99999990224,0.0,0.0,0.0,0.0,0.0,0.0
1609059639599440098,322,1609059639599440098,-0.00567833925426,-0.00559195059125,0.0265300437037,0.000325462817641,0.000207152485766,0.000456707503609,0.99999982129,0.0,0.0,0.0,0.0,0.0,0.0
1609059639695794106,323,1609059639695794106,-0.000103781044742,-0.00766005115834,0.0313287380627,8.94552779199e-05,0.000112903181478,0.000415224696166,0.999999903419,0.0,0.0,0.0,0.0,0.0,0.0
1609059639805341959,324,1609059639805341959,-0.012004776389,-0.00511555949354,0.0222035743511,0.000183918710652,-0.000136773474575,0.000465111761472,0.999999865569,0.0,0.0,0.0,0.0,0.0,0.0
1609059639899458647,325,1609059639899458647,-0.0152927109922,-0.00657291451764,0.0278223519919,0.000703871333418,0.000384646965924,0.00054932322964,0.999999527428,0.0,0.0,0.0,0.0,0.0,0.0
1609059639996366024,326,1609059639996366024,0.00130117783596,-0.004223045388,0.0113149926991,8.04808409183e-05,-2.81141662288e-05,0.00035681624736,0.999999932707,0.0,0.0,0.0,0.0,0.0,0.0
1609059640105868340,327,1609059640105868340,-0.00897582810841,-0.00616827603105,0.00875474147466,0.000438420050163,4.84665824266e-05,0.000430472836606,0.999999810066,0.0,0.0,0.0,0.0,0.0,0.0
1609059640199612141,328,1609059640199612141,-0.00851359984013,-0.0041130206637,0.0277493092488,0.000718234576327,0.000286850199321,0.000365550680965,0.999999634114,0.0,0.0,0.0,0.0,0.0,0.0
1609059640296333551,329,1609059640296333551,-0.0199096598335,-0.00258408307954,0.00954206441574,0.000356389250296,-0.000272329905257,0.000464912232801,0.99999979134,0.0,0.0,0.0,0.0,0.0,0.0
1609059640405627966,330,1609059640405627966,0.00313403812657,-0.00107291434141,0.0373430759513,0.000433175765111,0.000381047561578,0.000298732733707,0.99999978896,0.0,0.0,0.0,0.0,0.0,0.0
1609059640499384880,331,1609059640499384880,-0.00916914629489,-0.00897560343242,-0.0158656709843,0.000728868706056,-0.000276933232463,0.000439253155731,0.999999599557,0.0,0.0,0.0,0.0,0.0,0.0
1609059640596176863,332,1609059640596176863,-0.0104128116854,-0.00567637429173,0.000647509846963,0.000650902925701,0.000174196150978,0.000464329750026,0.999999665189,0.0,0.0,0.0,0.0,0.0,0.0
1609059640705540180,333,1609059640705540180,-0.00509118706729,-0.00510027165751,0.0161476154728,0.000205772611316,0.000194699995016,0.000434032615666,0.999999865682,0.0,0.0,0.0,0.0,0.0,0.0
1609059640799375296,334,1609059640799375296,-0.013670466791,-0.00611661275484,0.0159978619913,0.000963925287843,0.000407828992878,0.00053465047183,0.999999309336,0.0,0.0,0.0,0.0,0.0,0.0
1609059640896052599,335,1609059640896052599,-0.0159686976881,-0.00228568770264,-0.00823763420278,0.000352431067857,-0.000127947061522,0.000483996771599,0.999999812584,0.0,0.0,0.0,0.0,0.0,0.0
1609059641005408287,336,1609059641005408287,-0.0016778664488,-0.00556386033822,0.0043688346044,0.000499146532704,0.000122984480691,0.000398808420017,0.999999788339,0.0,0.0,0.0,0.0,0.0,0.0
1609059641099177361,337,1609059641099177361,-0.00933827935947,-0.00680509372644,0.0272413606863,-0.000183262836003,1.80214076827e-05,0.000437889891527,0.999999887171,0.0,0.0,0.0,0.0,0.0,0.0
1609059641195910692,338,1609059641195910692,-0.01224449725,-0.00332859822392,0.0355223195139,0.000917388217859,0.000378738980428,0.000387775088258,0.999999432293,0.0,0.0,0.0,0.0,0.0,0.0
1609059641305586100,339,1609059641305586100,-0.00556592235381,-0.00845503243725,0.0248443865154,0.000293519876296,7.95767032817e-05,0.00047294691326,0.999999841917,0.0,0.0,0.0,0.0,0.0,0.0
1609059641399357080,340,1609059641399357080,-0.0112617292884,-0.00683884603018,0.0175018501566,0.000727438084896,0.000255094675924,0.000381324977009,0.999999630176,0.0,0.0,0.0,0.0,0.0,0.0
1609059641496258497,341,1609059641496258497,-0.00451694050875,-0.00424046251637,0.0396042224863,0.00068020172021,0.000161862123012,0.000461355168904,0.999999649139,0.0,0.0,0.0,0.0,0.0,0.0
1609059641605766773,342,1609059641605766773,-0.0136764881489,-0.00696724911561,0.0225794404522,0.00101997641712,7.54949553852e-05,0.000448969111557,0.999999376187,0.0,0.0,0.0,0.0,0.0,0.0
1609059641699643373,343,1609059641699643373,-0.00252320966371,-0.00489905039614,0.0151447408822,0.000742595822511,0.0003041847166,0.000439758550106,0.999999581317,0.0,0.0,0.0,0.0,0.0,0.0
1609059641796494484,344,1609059641796494484,-0.0316155114003,-0.00530158607329,0.0115652628466,-2.19975667316e-05,-0.000357662827892,0.00053039775753,0.999999795136,0.0,0.0,0.0,0.0,0.0,0.0
1609059641906130552,345,1609059641906130552,-0.0122197095122,-0.00580114122599,0.0227136378456,0.000298408315499,5.05717711112e-05,0.000382969806972,0.999999880864,0.0,0.0,0.0,0.0,0.0,0.0
1609059642000221252,346,1609059642000221252,-0.00870443702474,-0.00814961819098,0.0251714679687,0.000689725847446,-6.17084577712e-05,0.000380112809269,0.999999687992,0.0,0.0,0.0,0.0,0.0,0.0
1609059642097141266,347,1609059642097141266,-0.00381401651956,-0.0067628597548,0.0298744842534,7.55330757115e-06,5.63423154512e-05,0.00048088575816,0.999999882758,0.0,0.0,0.0,0.0,0.0,0.0
1609059642205714703,348,1609059642205714703,-0.0114548655395,-0.00853774058295,0.0200221057023,0.000497214049057,0.000492545268891,0.000450585544715,0.999999653575,0.0,0.0,0.0,0.0,0.0,0.0
1609059642299345493,349,1609059642299345493,0.00216800294905,-0.00848015856207,0.0208852609075,0.000676470074422,0.000141163717081,0.000389689481257,0.999999685301,0.0,0.0,0.0,0.0,0.0,0.0
1609059642396457434,350,1609059642396457434,-0.0203353452321,-0.00697565213125,0.0177628066572,0.000402213399708,0.000360266512648,0.000469758837033,0.999999743879,0.0,0.0,0.0,0.0,0.0,0.0
1609059642505222321,351,1609059642505222321,-0.00142149582652,-0.00592072380175,0.0195825206616,0.000631763644989,-0.000165280551051,0.000467902911256,0.999999677312,0.0,0.0,0.0,0.0,0.0,0.0
1609059642599033833,352,1609059642599033833,-0.0235988561654,-0.00348863000436,0.0158154675141,0.000381409030754,-0.000230268354738,0.00047827621002,0.999999786377,0.0,0.0,0.0,0.0,0.0,0.0
1609059642695595980,353,1609059642695595980,0.00796437471876,-0.00612305110441,0.0290273603307,0.000382759965366,0.000407778851932,0.000259918180743,0.999999809827,0.0,0.0,0.0,0.0,0.0,0.0
1609059642805192232,354,1609059642805192232,-0.0185087454965,-0.00617806293122,0.0168330724361,-1.40091281408e-05,-0.000112670030605,0.000564034262986,0.999999834487,0.0,0.0,0.0,0.0,0.0,0.0
1609059642899042606,355,1609059642899042606,-0.011638929731,-0.00620419160815,0.0237467863919,0.000566374138585,5.19438920505e-05,0.00046824151964,0.999999728636,0.0,0.0,0.0,0.0,0.0,0.0
1609059642996191263,356,1609059642996191263,-0.00583443462208,-0.0050682058922,0.00314855521846,0.000212051040847,6.10589922813e-06,0.000378046538458,0.999999906039,0.0,0.0,0.0,0.0,0.0,0.0
1609059643105491161,357,1609059643105491161,-0.0142201798483,-0.00547047842844,0.0158821586542,-0.000169595379516,-2.29978561084e-05,0.000463210204072,0.999999878072,0.0,0.0,0.0,0.0,0.0,0.0
1609059643199479818,358,1609059643199479818,-0.0106007591993,-0.0049331663722,0.0148232294341,0.000732096779586,0.00038132754667,0.000383386809803,0.999999585819,0.0,0.0,0.0,0.0,0.0,0.0
1609059643296237946,359,1609059643296237946,-0.00804319287671,-0.00600299902287,0.00932267897984,0.000403722023911,0.000151985999544,0.000437853022719,0.999999811096,0.0,0.0,0.0,0.0,0.0,0.0
1609059643405829191,360,1609059643405829191,-0.0149976007472,-0.00522083275879,0.00333949661507,0.000174050377382,-0.000148424817598,0.000412478769899,0.999999888769,0.0,0.0,0.0,0.0,0.0,0.0
1609059643499599934,361,1609059643499599934,-0.0130593950154,-0.00778037664401,0.021980969075,0.00026469016354,4.40441445656e-05,0.000531619183467,0.99999982269,0.0,0.0,0.0,0.0,0.0,0.0
1609059643596349001,362,1609059643596349001,-0.0107998146695,-0.00414596272412,0.0354850658522,0.000220242801017,-1.89780167334e-05,0.000474288289494,0.999999863091,0.0,0.0,0.0,0.0,0.0,0.0
1609059643705693483,363,1609059643705693483,-0.00406685948606,-0.00725945861532,0.037308481778,0.000224438173658,0.000423535709973,0.00044053848253,0.999999788085,0.0,0.0,0.0,0.0,0.0,0.0
1609059643799389839,364,1609059643799389839,-0.012681867549,-0.00603420301153,0.000401094028419,-2.25742586988e-05,-0.000185916370634,0.000347118645054,0.999999922217,0.0,0.0,0.0,0.0,0.0,0.0
