%time,field.header.seq,field.header.stamp,field.pose.pose.position.x,field.pose.pose.position.y,field.pose.pose.position.z,field.pose.pose.orientation.x,field.pose.pose.orientation.y,field.pose.pose.orientation.z,field.pose.pose.orientation.w,field.twist.twist.linear.x,field.twist.twist.linear.y,field.twist.twist.linear.z,field.twist.twist.angular.x,field.twist.twist.angular.y,field.twist.twist.angular.z
1609046844619249821,29,1609046844619249821,0.0169419789173,0.012434534506,0.0240674838473,-0.000649298145525,0.000561131711715,-0.000664654641578,0.999999410888,0.0,0.0,0.0,0.0,0.0,0.0
1609046844690102100,30,1609046844690102100,0.00734344271411,0.015387436577,0.0190405173346,-0.0012434042901,0.000395989848747,-0.000829905888162,0.999998804196,0.0,0.0,0.0,0.0,0.0,0.0
1609046844791795254,31,1609046844791795254,0.00849219892177,0.0115388132343,0.0326789856522,-1.61047902301e-05,0.000430543865136,-0.000575335015651,0.999999741681,0.0,0.0,0.0,0.0,0.0,0.0
1609046844894303560,32,1609046844894303560,0.0166099225371,0.0127770698257,0.029506748629,0.000988537042942,0.000690884421199,-0.000545486405318,0.999999123959,0.0,0.0,0.0,0.0,0.0,0.0
1609046844998040438,33,1609046844998040438,0.0245997008568,0.00533578772049,0.0148423435642,0.00242515044627,0.000161291547978,-0.000299418642935,0.999997001485,0.0,0.0,0.0,0.0,0.0,0.0
1609046845100713491,34,1609046845100713491,0.0114810851015,0.0117308412662,0.0112637819278,0.00105134059247,0.000104750299568,-0.000431713234099,0.999999348667,0.0,0.0,0.0,0.0,0.0,0.0
1609046845203588247,35,1609046845203588247,0.0085336602835,0.0121423878346,0.016678184195,0.00164828096709,0.000620907116598,-0.000551451570494,0.999998296771,0.0,0.0,0.0,0.0,0.0,0.0
1609046845306785345,36,1609046845306785345,0.0156308753879,0.0126772240734,-0.00132659490484,0.000949361401126,0.00034705261808,-0.000483853785231,0.999999372076,0.0,0.0,0.0,0.0,0.0,0.0
1609046845409681559,37,1609046845409681559,0.011031530883,-0.000705634612867,0.0141892716196,0.00231262642708,-0.000298029611389,0.000285025618361,0.999997240845,0.0,0.0,0.0,0.0,0.0,0.0
1609046845513205767,38,1609046845513205767,0.0188030679413,0.00882565350175,-0.000124602905108,-0.00039674820749,0.000539989101545,-0.000420321059568,0.999999687166,0.0,0.0,0.0,0.0,0.0,0.0
1609046845615619183,39,1609046845615619183,0.0160485234724,0.00913291246055,0.0152613116635,-0.000907187719139,0.000143185340971,-0.000473353705893,0.999999466222,0.0,0.0,0.0,0.0,0.0,0.0
1609046845719873428,40,1609046845719873428,0.0125159713653,0.00879536218194,0.0300448185635,-0.000234027132201,0.000292658550635,-0.000570421827537,0.999999767101,0.0,0.0,0.0,0.0,0.0,0.0
1609046845789110899,41,1609046845789110899,0.0147628643152,0.0177259131801,0.0210315313511,0.000698509728679,0.000780505628764,-0.00067149650665,0.999999225993,0.0,0.0,0.0,0.0,0.0,0.0
1609046845892122984,42,1609046845892122984,0.0183898850224,0.00836347460117,0.026134387519,-0.000374827191656,0.000703247993818,-0.000400403208311,0.999999602312,0.0,0.0,0.0,0.0,0.0,0.0
1609046845994946718,43,1609046845994946718,0.000733015045231,0.0030015092002,0.0253039857991,0.000610628961169,0.000652685021699,0.000139897335736,0.999999590782,0.0,0.0,0.0,0.0,0.0,0.0
1609046846096986532,44,1609046846096986532,0.0147439501854,0.00587815848173,0.0100868977406,0.00328925799959,-0.000624625049386,-7.21423421361e-05,0.999994392695,0.0,0.0,0.0,0.0,0.0,0.0
1609046846200346470,45,1609046846200346470,0.0260651344892,0.0111500410366,0.0342007824186,0.000115297350152,0.000495515175681,-0.000784829212607,0.999999562607,0.0,0.0,0.0,0.0,0.0,0.0
1609046846303477287,46,1609046846303477287,0.0158708413154,0.00565543754731,0.0159944625107,0.00144520818451,0.000739034327421,-0.000119725831125,0.999998675433,0.0,0.0,0.0,0.0,0.0,0.0
1609046846407293558,47,1609046846407293558,0.00821546439779,0.0122051297411,0.0215999259724,-0.00195161992168,0.000417870654406,-0.000602842193579,0.99999782657,0.0,0.0,0.0,0.0,0.0,0.0
1609046846509883881,48,1609046846509883881,0.0247334201482,0.0163195193397,0.0188582310985,0.000459659029802,0.000847669204506,-0.000940458114167,0.999999092854,0.0,0.0,0.0,0.0,0.0,0.0
1609046846613430262,49,1609046846613430262,0.0113440993408,0.0123214288286,0.0157990038366,0.000611581281443,9.54223226681e-05,-0.000562756826655,0.999999650084,0.0,0.0,0.0,0.0,0.0,0.0
1609046846716653347,50,1609046846716653347,0.0176760483945,0.0203614958632,0.0398718469839,-0.00175371041495,0.001339286476,-0.00113920433755,0.999996916508,0.0,0.0,0.0,0.0,0.0,0.0
1609046846821369171,51,1609046846821369171,0.0162406439305,0.0131206272696,0.0374964304623,-0.000888515352004,0.00076326186888,-0.00054668030928,0.999999164556,0.0,0.0,0.0,0.0,0.0,0.0
1609046846892926216,52,1609046846892926216,0.0202403595788,0.0270990054604,0.00837973254158,-0.00468678202925,0.00161552337487,-0.00142475015521,0.999986697034,0.0,0.0,0.0,0.0,0.0,0.0
1609046846996242762,53,1609046846996242762,0.0255820325704,0.0117397939118,0.0353587649912,0.00153585800738,6.12713049138e-05,-0.000537914746975,0.999998674016,0.0,0.0,0.0,0.0,0.0,0.0
1609046847098886251,54,1609046847098886251,0.0225355428838,0.0125538649163,0.0242550840857,0.00196241226541,-2.48003139695e-05,-0.000511308703391,0.999997943441,0.0,0.0,0.0,0.0,0.0,0.0
1609046847201905251,55,1609046847201905251,0.0185680840046,0.00698270801894,0.0154809389252,0.00154986170629,0.000256160938791,-0.000112695009976,0.999998759804,0.0,0.0,0.0,0.0,0.0,0.0
1609046847305431366,56,1609046847305431366,0.0196595629746,0.0149715420896,0.0118493313725,-0.00227973463236,0.000706524997252,-0.000769495612916,0.999996855749,0.0,0.0,0.0,0.0,0.0,0.0
1609046847413342714,57,1609046847413342714,0.0240880196969,0.0138397902875,0.0218526118462,0.000481979649647,0.000133141242661,-0.000534596540132,0.999999732088,0.0,0.0,0.0,0.0,0.0,0.0
1609046847517559290,58,1609046847517559290,0.022205343401,0.0100679773074,0.0180481409628,0.00179442946261,0.000337197696318,-0.000562723567319,0.99999817483,0.0,0.0,0.0,0.0,0.0,0.0
1609046847619265556,59,1609046847619265556,0.0279581008228,0.00996809312424,0.0196755169609,9.58426567066e-06,0.000712213501133,-0.000564749833345,0.999999586859,0.0,0.0,0.0,0.0,0.0,0.0
1609046847689568520,60,1609046847689568520,0.0252028714983,0.0131405058946,0.0264672101702,0.000299292918791,0.000702783702078,-0.00066139383004,0.999999489538,0.0,0.0,0.0,0.0,0.0,0.0
1609046847791221619,61,1609046847791221619,0.0173367401865,0.0282257153044,0.0312934832173,0.000846368365271,0.000869641676354,-0.00147504673141,0.999998175809,0.0,0.0,0.0,0.0,0.0,0.0
1609046847894464016,62,1609046847894464016,0.0237054357223,0.00927093647802,0.0218091330504,0.00101311891017,0.00069225199347,-0.00077261826202,0.999998948719,0.0,0.0,0.0,0.0,0.0,0.0
1609046847997640610,63,1609046847997640610,0.0245590928676,0.0140053060429,0.0313386436553,0.000599899266173,0.000484723791485,-0.000550441256457,0.999999551089,0.0,0.0,0.0,0.0,0.0,0.0
1609046848100779533,64,1609046848100779533,0.0200039886897,0.0125704148711,0.0150876911138,0.000369851932802,0.000447844218448,-0.00083839169065,0.999999479872,0.0,0.0,0.0,0.0,0.0,0.0
1609046848203600645,65,1609046848203600645,0.0281434943696,0.0214714606331,0.019480215831,0.00316425392881,-0.000155694994023,-0.00108652862026,0.99999439134,0.0,0.0,0.0,0.0,0.0,0.0
1609046848306643009,66,1609046848306643009,0.0266928492194,0.00807030520156,0.0101577145954,0.00265439805625,-0.00100960621278,-0.00027811890277,0.99999592875,0.0,0.0,0.0,0.0,0.0,0.0
1609046848409811497,67,1609046848409811497,0.0278959668197,0.00401169027165,0.027120526856,9.80304565124e-05,0.000479044449141,-0.000437595528359,0.999999784708,0.0,0.0,0.0,0.0,0.0,0.0
1609046848512696743,68,1609046848512696743,0.0207389101823,0.0113905357678,0.0107807788973,0.00103257186639,0.00037957271296,-0.000620580272387,0.9999992023,0.0,0.0,0.0,0.0,0.0,0.0
1609046848615458012,69,1609046848615458012,0.0249882452284,0.00516359312392,0.0215980448841,0.000920824746035,0.000237601240825,-0.000299552856007,0.999999502948,0.0,0.0,0.0,0.0,0.0,0.0
1609046848718500376,70,1609046848718500376,0.0228514207526,0.00968936459039,0.0186851614348,0.00175092131168,0.000110855224027,-0.000249900228691,0.999998429766,0.0,0.0,0.0,0.0,0.0,0.0
1609046848790325642,71,1609046848790325642,0.0289539448325,0.0126523482514,0.016713084193,0.00158389141843,-2.36879375091e-05,-0.000597722976038,0.999998566726,0.0,0.0,0.0,0.0,0.0,0.0
1609046848892101049,72,1609046848892101049,0.0318380550853,0.0156357976105,0.0204383920947,0.000606064929082,0.00109147127686,-0.000920574136247,0.999998796959,0.0,0.0,0.0,0.0,0.0,0.0
1609046848993703365,73,1609046848993703365,0.0223833779239,0.013863526389,0.0239831781444,-0.000430367892509,0.000209510692083,-0.000825982103733,0.999999544321,0.0,0.0,0.0,0.0,0.0,0.0
1609046849097230673,74,1609046849097230673,0.023700819002,0.0131034402414,0.0435887902955,-0.000815399006694,0.000525705295685,-0.000810626476622,0.999999200821,0.0,0.0,0.0,0.0,0.0,0.0
1609046849200089455,75,1609046849200089455,0.0256820327503,0.0082475283869,0.0255788712213,0.00103598172469,0.000146148106392,-0.000558167968156,0.999999296915,0.0,0.0,0.0,0.0,0.0,0.0
1609046849303489447,76,1609046849303489447,0.022540328677,-0.00262008904987,0.0143632715265,0.00376811184349,-0.00076669187821,0.000502867036503,0.999992480292,0.0,0.0,0.0,0.0,0.0,0.0
1609046849406725168,77,1609046849406725168,0.032915139135,0.0131645046902,0.0130435617661,-0.000106791603896,0.00066538961374,-0.000837318201968,0.999999422375,0.0,0.0,0.0,0.0,0.0,0.0
1609046849509760141,78,1609046849509760141,0.0199085388899,0.0142887733191,0.0230593377875,-0.00103174839697,0.000296026266756,-0.000731680845475,0.999999156253,0.0,0.0,0.0,0.0,0.0,0.0
1609046849612880468,79,1609046849612880468,0.029920415595,0.00874294338563,0.00649676447236,-0.000240984839719,0.000730466618931,-0.000635604451696,0.999999502176,0.0,0.0,0.0,0.0,0.0,0.0
1609046849715819597,80,1609046849715819597,0.0206439100686,0.0316728088916,0.0401572066549,-0.000484788468271,0.000724683486634,-0.00151235196503,0.999998476302,0.0,0.0,0.0,0.0,0.0,0.0
1609046849818536997,81,1609046849818536997,0.0263091350015,0.00667171319928,0.0133192633817,0.000803965148839,0.000571850806715,-0.000624234759315,0.999999318479,0.0,0.0,0.0,0.0,0.0,0.0
1609046849888779640,82,1609046849888779640,0.0301367089534,0.0159099345356,0.00949575668063,0.000524654750423,0.000714189144464,-0.000710018220287,0.999999355272,0.0,0.0,0.0,0.0,0.0,0.0
1609046849991008043,83,1609046849991008043,0.019975817742,0.0062786661378,0.015699372526,0.000102625662671,0.000607756799762,-0.000414566204088,0.999999724117,0.0,0.0,0.0,0.0,0.0,0.0
1609046850093369246,84,1609046850093369246,0.0223570020252,0.00984393669271,0.00752301186672,-0.00151570663381,7.69400920517e-05,-0.000425357411466,0.999998757891,0.0,0.0,0.0,0.0,0.0,0.0
1609046850196303606,85,1609046850196303606,0.0217437607484,0.0126088490378,0.00169289027642,0.000667058758691,0.000525308919919,-0.000676337083092,0.999999410825,0.0,0.0,0.0,0.0,0.0,0.0
1609046850299527168,86,1609046850299527168,0.0294245217153,-0.00743004000288,0.0211965004918,0.00294701708548,-0.000269050966292,0.000458123381372,0.999995516402,0.0,0.0,0.0,0.0,0.0,0.0
1609046850403048992,87,1609046850403048992,0.028024470644,0.0104230502316,0.0335757719146,0.000518179298621,0.000504654596793,-0.000679470128007,0.999999507567,0.0,0.0,0.0,0.0,0.0,0.0
1609046850505945206,88,1609046850505945206,0.00808133366475,-0.00282336560704,0.00701470235984,-0.000643584949654,0.00112654901099,0.000411283460205,0.999999073765,0.0,0.0,0.0,0.0,0.0,0.0
1609046850609353542,89,1609046850609353542,0.0289904655206,0.0127512591183,0.0247386216536,-0.00224933091182,0.000475451413437,-0.000909943729447,0.999996943225,0.0,0.0,0.0,0.0,0.0,0.0
1609046850712779045,90,1609046850712779045,0.0164416067869,0.0165079936237,0.0312257100764,-0.000362189098427,0.000600272634855,-0.00105283015822,0.99999920002,0.0,0.0,0.0,0.0,0.0,0.0
1609046850815780163,91,1609046850815780163,0.0246049577111,0.0177986591981,0.0135319154197,-0.000813864944746,0.000366348040186,-0.00108110548829,0.999999017311,0.0,0.0,0.0,0.0,0.0,0.0
1609046850918873549,92,1609046850918873549,0.0139380923485,0.00651068523348,0.0130569395034,-0.00172904199768,0.000862387383777,-0.000425426963821,0.999998042855,0.0,0.0,0.0,0.0,0.0,0.0
1609046850989302158,93,1609046850989302158,0.0282818871628,0.0109925986141,0.0182195545249,-0.000375116679681,0.00018186185233,-0.000718804260013,0.999999654767,0.0,0.0,0.0,0.0,0.0,0.0
1609046851090608358,94,1609046851090608358,0.0225432948593,0.0109977675744,0.02025514911,-0.000228944512405,0.000407201908874,-0.000710009624885,0.999999638829,0.0,0.0,0.0,0.0,0.0,0.0
1609046851193604231,95,1609046851193604231,0.0281895874651,0.0119881266777,0.0309850579118,0.00163307737179,-0.000891338933389,-0.000709203486938,0.9999980178,0.0,0.0,0.0,0.0,0.0,0.0
1609046851296146631,96,1609046851296146631,0.0274017406131,0.0099644584532,0.0272757566879,0.0012389388934,0.00027147602582,-0.000631060965119,0.999998996546,0.0,0.0,0.0,0.0,0.0,0.0
1609046851399279594,97,1609046851399279594,0.0236019678478,0.0141975750246,0.0208389303319,0.00054044237767,0.000335955682271,-0.000529190766692,0.999999657506,0.0,0.0,0.0,0.0,0.0,0.0
1609046851502596855,98,1609046851502596855,0.025649417334,0.0138045190549,0.0414880155868,-0.000417796627338,0.000976486759536,-0.000849632782786,0.999999075021,0.0,0.0,0.0,0.0,0.0,0.0
1609046851605797529,99,1609046851605797529,0.0258811555056,0.013323312298,0.0239881278818,-0.000552221839948,0.000497567999781,-0.000993875066925,0.999999229844,0.0,0.0,0.0,0.0,0.0,0.0
1609046851709024191,100,1609046851709024191,0.030627600907,0.0135080028622,0.0258884335761,0.000380126113149,0.000570114735574,-0.000847011182744,0.999999406522,0.0,0.0,0.0,0.0,0.0,0.0
1609046851812197685,101,1609046851812197685,0.0246925445196,0.0132441488247,0.0166800328151,-0.00119668312008,0.000537504523504,-0.00065542952483,0.999998924725,0.0,0.0,0.0,0.0,0.0,0.0
1609046851916122437,102,1609046851916122437,0.02647404696,0.0117173040386,0.0235880493065,0.000932979138142,0.000186426086146,-0.000510112566545,0.99999941729,0.0,0.0,0.0,0.0,0.0,0.0
1609046852018460989,103,1609046852018460989,0.0293806346428,0.020570245812,0.0363878709534,-0.000618028924257,-3.26061587542e-05,-0.00137075553466,0.999998869002,0.0,0.0,0.0,0.0,0.0,0.0
1609046852088406324,104,1609046852088406324,0.0190724945346,0.0141609949505,0.0242614104428,-8.41080542586e-05,0.000488927506825,-0.000544049142703,0.999999728943,0.0,0.0,0.0,0.0,0.0,0.0
1609046852190936804,105,1609046852190936804,0.0294332940842,0.0146792793373,0.0337244079713,-0.00102535456855,0.000855324054029,-0.000896386230984,0.999998706779,0.0,0.0,0.0,0.0,0.0,0.0
1609046852293334246,106,1609046852293334246,0.0208344331011,0.00947847818847,0.0329520324921,-0.00126820072829,0.000800002583473,-0.00073911261921,0.999998602687,0.0,0.0,0.0,0.0,0.0,0.0
1609046852396407604,107,1609046852396407604,0.0185170559902,0.0111720286711,0.00914422953132,0.000459753117489,0.000133852608512,-0.000522125692523,0.999999749048,0.0,0.0,0.0,0.0,0.0,0.0
1609046852499363184,108,1609046852499363184,0.0235531144739,0.00593773285137,0.0496898027323,0.000210919854642,-2.9953043846e-05,-0.000467132478862,0.999999868201,0.0,0.0,0.0,0.0,0.0,0.0
1609046852602392197,109,1609046852602392197,0.0227258507721,0.00840289954476,0.0255918643161,0.000508989531288,0.000446115310056,-0.000369708642297,0.999999702613,0.0,0.0,0.0,0.0,0.0,0.0
1609046852705548763,110,1609046852705548763,0.0187289139967,0.0045532431697,0.0419735362863,0.00443046106062,-0.000553587303687,-0.000253348523858,0.999990000135,0.0,0.0,0.0,0.0,0.0,0.0
1609046852808768272,111,1609046852808768272,0.0278200587281,0.00966732744117,0.0361608697585,0.000415050969383,0.000727093672673,-0.000592948220678,0.99999947374,0.0,0.0,0.0,0.0,0.0,0.0
1609046852912319183,112,1609046852912319183,0.0222874398813,0.0105909713024,0.0206130321919,0.000238250788499,0.000142308670732,-0.000737628752271,0.999999689444,0.0,0.0,0.0,0.0,0.0,0.0
1609046853015857935,113,1609046853015857935,0.0147695674871,0.0069042455046,0.0345494205443,0.000625511283703,0.000171248917594,-0.000344410131588,0.999999730395,0.0,0.0,0.0,0.0,0.0,0.0
1609046853118349791,114,1609046853118349791,0.030972095625,0.0164008082121,0.0158637571601,-0.000613788831708,0.000966448824742,-0.000961948920804,0.999998881946,0.0,0.0,0.0,0.0,0.0,0.0
1609046853188770294,115,1609046853188770294,0.0336844579464,0.0159457138422,0.00325292247229,0.00173194236831,-0.000445872065094,-0.000650594730798,0.999998189148,0.0,0.0,0.0,0.0,0.0,0.0
1609046853290704966,116,1609046853290704966,0.0176252725201,0.00886974224917,0.0204184154065,-5.04022348945e-05,0.000361613101946,-0.000560227870822,0.99999977642,0.0,0.0,0.0,0.0,0.0,0.0
1609046853393429518,117,1609046853393429518,0.0194098321084,0.01435293261,0.044600488637,0.000169936232317,0.000473396984517,-0.000775687548322,0.999999572663,0.0,0.0,0.0,0.0,0.0,0.0
1609046853496785879,118,1609046853496785879,0.0246797118894,0.0165558473401,0.0324315616916,-0.000453427740259,0.000517927036018,-0.000972165942736,0.999999290524,0.0,0.0,0.0,0.0,0.0,0.0
1609046853599884272,119,1609046853599884272,0.0249327017834,0.0130620329558,0.0271475788032,-0.000194815968457,0.000464159998648,-0.0005497634164,0.999999722181,0.0,0.0,0.0,0.0,0.0,0.0
1609046853703104973,120,1609046853703104973,0.012478046744,0.007824417287,0.0227429860245,-0.00172500740022,0.000522101712665,-0.000348032117364,0.999998315315,0.0,0.0,0.0,0.0,0.0,0.0
1609046853806207657,121,1609046853806207657,0.0330474098628,0.0237144052008,0.0256797381323,0.000553451331422,0.000630890394316,-0.00151151913894,0.999998505488,0.0,0.0,0.0,0.0,0.0,0.0
1609046853909101009,122,1609046853909101009,0.0263190113819,0.00557985964527,0.0320255849325,9.9979683235e-05,0.00021586364467,-0.000458503997033,0.99999986659,0.0,0.0,0.0,0.0,0.0,0.0
1609046854012426615,123,1609046854012426615,0.0197299099968,0.0172491865022,0.0418511025768,0.000304396086674,0.000988203836226,-0.000964522505424,0.999999000246,0.0,0.0,0.0,0.0,0.0,0.0
1609046854115062952,124,1609046854115062952,0.0283342003765,0.0150871002755,0.0410305746015,0.000266742060517,0.000534161576699,-0.000967247131994,0.999999353976,0.0,0.0,0.0,0.0,0.0,0.0
1609046854218175173,125,1609046854218175173,0.0273402822235,0.0151058082616,0.0266040319163,0.000439826583744,9.30796327464e-05,-0.000619545269248,0.999999707026,0.0,0.0,0.0,0.0,0.0,0.0
1609046854288497448,126,1609046854288497448,0.0378691419957,0.0149412919925,0.0319100634252,-0.000266405948159,0.000230082199803,-0.000872984306569,0.999999556994,0.0,0.0,0.0,0.0,0.0,0.0
1609046854391028881,127,1609046854391028881,0.0265435340152,0.0128511839363,0.0477840126751,2.80048443626e-05,0.000259249414607,-0.000848296523787,0.999999606199,0.0,0.0,0.0,0.0,0.0,0.0
1609046854493316650,128,1609046854493316650,0.0266228013778,0.0153841063652,0.0419924009116,0.0024938741266,0.000390116652471,-0.000730203495723,0.999996547596,0.0,0.0,0.0,0.0,0.0,0.0
1609046854596354246,129,1609046854596354246,0.0304360902608,0.0106173728044,0.00977083389997,-3.14941240509e-05,0.000729290558537,-0.000668313258502,0.99999951025,0.0,0.0,0.0,0.0,0.0,0.0
1609046854699563980,130,1609046854699563980,0.0229925599969,0.00910805300472,0.0448091618596,0.00245749094516,0.000261954103097,-0.00022698763202,0.999996920293,0.0,0.0,0.0,0.0,0.0,0.0
1609046854802758455,131,1609046854802758455,0.0236740071245,0.0124560599637,0.0473956575487,0.000688498342985,0.000658643578282,-0.000650653182692,0.999999334404,0.0,0.0,0.0,0.0,0.0,0.0
1609046854905544519,132,1609046854905544519,0.031511668404,0.0226131498351,0.032014828257,-0.00118063396905,0.000480446178498,-0.00139645425942,0.999998212593,0.0,0.0,0.0,0.0,0.0,0.0
1609046855009471416,133,1609046855009471416,0.02358522059,0.00961054348667,0.0472874621954,0.000958186213755,-0.000273722953639,-0.000418147766937,0.999999416053,0.0,0.0,0.0,0.0,0.0,0.0
1609046855112470865,134,1609046855112470865,0.0234616852318,0.0125712215844,0.0526761880338,0.000465726565576,0.00076668206436,-0.000624912564415,0.99999940239,0.0,0.0,0.0,0.0,0.0,0.0
1609046855215281010,135,1609046855215281010,0.0296130078144,0.0185198553489,0.0412130270392,0.000195350636267,0.000108438281422,-0.000959955518364,0.999999514282,0.0,0.0,0.0,0.0,0.0,0.0
1609046855318123341,136,1609046855318123341,0.0258332316993,0.0199187752094,0.0302011556114,-0.000837517284279,0.000845021730192,-0.0011756905065,0.999998601126,0.0,0.0,0.0,0.0,0.0,0.0
1609046855388630867,137,1609046855388630867,0.0328062855604,0.0205165975805,0.0365652765828,0.00117777489921,0.000292135516283,-0.000883183993232,0.999998873744,0.0,0.0,0.0,0.0,0.0,0.0
1609046855490737438,138,1609046855490737438,0.027187496899,0.0209127621673,0.0419582176698,0.00179862053538,0.00025288660648,-0.000945754488578,0.999997903278,0.0,0.0,0.0,0.0,0.0,0.0
1609046855593360186,139,1609046855593360186,0.0290104167284,0.0155806356243,0.0281310220947,0.000158166060988,0.0010658915707,-0.000867402757635,0.999999043235,0.0,0.0,0.0,0.0,0.0,0.0
1609046855696198940,140,1609046855696198940,0.0295896778308,0.0171809351984,0.0368724351741,0.000133150707413,0.000457954154655,-0.000531107167541,0.999999745237,0.0,0.0,0.0,0.0,0.0,0.0
1609046855799600124,141,1609046855799600124,0.0284846232821,0.0153687637974,0.0153691349672,-0.00184197933414,0.00063857555676,-0.000714699715188,0.999997844266,0.0,0.0,0.0,0.0,0.0,0.0
1609046855903038979,142,1609046855903038979,0.026593501901,0.0120677024198,0.0281442020734,8.50991195997e-05,0.000467167645593,-0.000629445818831,0.999999689155,0.0,0.0,0.0,0.0,0.0,0.0
1609046856005481958,143,1609046856005481958,0.0248540224076,0.013453600279,0.0262121416863,0.000182027368092,-0.000135441751552,-0.000715302070143,0.999999718432,0.0,0.0,0.0,0.0,0.0,0.0
1609046856108912945,144,1609046856108912945,0.0261341903097,0.01088184468,0.0276986216893,-0.000116345161124,0.000867952429496,-0.00101065072789,0.999999105853,0.0,0.0,0.0,0.0,0.0,0.0
1609046856212024212,145,1609046856212024212,0.0206529077123,0.0195155557946,0.0113877232352,-0.00238450180074,0.000416251855591,-0.00126143583748,0.999996274825,0.0,0.0,0.0,0.0,0.0,0.0
1609046856314986467,146,1609046856314986467,0.0333659012167,0.0161084153442,0.0284830128391,0.000565372483077,0.000247072330131,-0.000829666172694,0.999999465481,0.0,0.0,0.0,0.0,0.0,0.0
1609046856418250561,147,1609046856418250561,0.0272164910134,0.00895608693958,0.0288785600888,0.00165316292631,0.000462452691517,-0.00041643301301,0.999998439885,0.0,0.0,0.0,0.0,0.0,0.0
1609046856488334417,148,1609046856488334417,0.0217480932981,0.00561921349469,0.0178789371944,0.000522326955981,0.000476457043399,-0.000530436908516,0.9999996094,0.0,0.0,0.0,0.0,0.0,0.0
1609046856590571642,149,1609046856590571642,0.0313657859061,0.00617589752437,0.0244122795378,0.00205471777802,9.06643463261e-05,-0.00056011814773,0.999997728088,0.0,0.0,0.0,0.0,0.0,0.0
1609046856693061352,150,1609046856693061352,0.0268372821891,0.00741864257385,0.0285733811841,0.000904294154059,0.000206222760427,-0.000382265507136,0.999999496798,0.0,0.0,0.0,0.0,0.0,0.0
1609046856796046734,151,1609046856796046734,0.0179022327374,0.00688089123267,0.0191575273271,0.00136627743035,0.00044058446667,-0.000350927739941,0.99999890801,0.0,0.0,0.0,0.0,0.0,0.0
1609046856899196863,152,1609046856899196863,0.0272318193322,-0.00949143542153,0.0318946513749,0.00531149788786,-0.00116808353754,0.000692636354146,0.9999849718,0.0,0.0,0.0,0.0,0.0,0.0
1609046857002436161,153,1609046857002436161,0.0230623681805,0.00685915568214,0.0242158149058,0.000995658858949,-0.00025207001361,1.00578935949e-05,0.999999472511,0.0,0.0,0.0,0.0,0.0,0.0
1609046857105540514,154,1609046857105540514,0.0298022375549,0.00288656586126,0.0241987968011,0.00285786454471,0.000318996740315,-0.000198076683034,0.9999958458,0.0,0.0,0.0,0.0,0.0,0.0
1609046857208734274,155,1609046857208734274,0.0232936159006,0.00116997336245,0.0281838843358,0.000906645254007,-0.000185941127365,0.000136648926962,0.999999562373,0.0,0.0,0.0,0.0,0.0,0.0
1609046857311885595,156,1609046857311885595,0.0236888861824,0.0105218200994,0.0235006359684,0.00138451013708,5.83029445053e-05,-0.000876073184564,0.999998656113,0.0,0.0,0.0,0.0,0.0,0.0
1609046857414930582,157,1609046857414930582,0.0318305759198,0.00809518042245,0.0124968105536,0.00243520777402,-2.1908665511e-05,-0.000448905770589,0.999996933878,0.0,0.0,0.0,0.0,0.0,0.0
1609046857518078804,158,1609046857518078804,0.0319156877677,0.010572134906,0.0176973625958,0.00184668380263,-0.000664428365564,-0.000523065442453,0.999997937346,0.0,0.0,0.0,0.0,0.0,0.0
1609046857588346004,159,1609046857588346004,0.0314261829257,0.00788624187815,0.0159587938597,0.00218283396591,-0.000304802687923,-0.000105775902079,0.999997565568,0.0,0.0,0.0,0.0,0.0,0.0
1609046857690655231,160,1609046857690655231,0.0260040976999,0.0208524681625,0.0247598414563,-0.000683800885473,0.00084028793961,-0.00120913377298,0.999998682163,0.0,0.0,0.0,0.0,0.0,0.0
1609046857793129206,161,1609046857793129206,0.0256446894376,0.0141099776359,0.0340113667709,0.000214910448739,0.000507499763725,-0.000800742650892,0.999999527534,0.0,0.0,0.0,0.0,0.0,0.0
1609046857896080494,162,1609046857896080494,0.0287391882888,0.00940728620042,0.0255449405933,-0.00067107583091,0.000310477950653,-0.00066434792052,0.999999505951,0.0,0.0,0.0,0.0,0.0,0.0
1609046857999112606,163,1609046857999112606,0.0207368161947,0.0110377323941,0.0333915821006,-0.000749189145542,0.000978461449082,-0.000703089392461,0.999998993496,0.0,0.0,0.0,0.0,0.0,0.0
1609046858102285624,164,1609046858102285624,0.021339277454,0.0151268638815,0.0324147287882,0.000136874973569,0.00102085670523,-0.000963558532218,0.999999005335,0.0,0.0,0.0,0.0,0.0,0.0
1609046858205392838,165,1609046858205392838,0.02222903183,0.00733971813125,0.0223969742887,0.00133020681076,0.000343639873948,-0.000283546923891,0.999999016031,0.0,0.0,0.0,0.0,0.0,0.0
1609046858308512449,166,1609046858308512449,0.0242985325649,0.0160409039406,0.0322201637041,0.000530350425785,0.000492279181555,-0.000886782980002,0.999999345002,0.0,0.0,0.0,0.0,0.0,0.0
1609046858411624908,167,1609046858411624908,0.0159649894211,0.00558594853773,0.0408899384167,-0.000268185531367,0.000368649319078,-0.000462527626514,0.999999789121,0.0,0.0,0.0,0.0,0.0,0.0
1609046858514592409,168,1609046858514592409,0.033210904027,0.0125529499706,0.0199702334391,0.00149277279971,0.000462219310129,-0.000682899460013,0.999998545814,0.0,0.0,0.0,0.0,0.0,0.0
1609046858617784977,169,1609046858617784977,0.0302735555263,0.00782163000075,0.0267049885545,0.00221773405063,0.000100757587541,-0.000618698663049,0.999997344354,0.0,0.0,0.0,0.0,0.0,0.0
1609046858688017845,170,1609046858688017845,0.0296492497886,0.0118637725577,0.0342501002221,-0.00164499664184,0.00101366708001,-0.000922798756449,0.999997707451,0.0,0.0,0.0,0.0,0.0,0.0
1609046858789819479,171,1609046858789819479,0.0257250239463,0.00977203622235,0.0293341969981,0.00146456472792,-9.30539471052e-05,-0.00029276877999,0.999998880338,0.0,0.0,0.0,0.0,0.0,0.0
1609046858892904282,172,1609046858892904282,0.0270476195264,0.0155908019181,0.0293395454698,-0.000327224915929,0.000493212494966,-0.000758542353473,0.999999537139,0.0,0.0,0.0,0.0,0.0,0.0
1609046858996137381,173,1609046858996137381,0.0131306177115,0.0122094885502,0.0426107353979,-6.13014237254e-05,0.000964073030377,-0.000541993868559,0.999999386524,0.0,0.0,0.0,0.0,0.0,0.0
1609046859098924875,174,1609046859098924875,0.0275900026908,0.00582302453263,0.0214955291549,-0.000692811261275,-2.62893869215e-06,-0.00052593274358,0.9999996217,0.0,0.0,0.0,0.0,0.0,0.0
1609046859201797724,175,1609046859201797724,0.0264660707904,0.0030460843826,0.0211728988242,0.00117479013157,0.000267123707945,-0.000189404127972,0.999999256319,0.0,0.0,0.0,0.0,0.0,0.0
1609046859304832697,176,1609046859304832697,0.0229507599814,0.00461644015366,0.0211870107181,-0.000980303612111,0.00107104615406,-0.000811199498119,0.999998616909,0.0,0.0,0.0,0.0,0.0,0.0
1609046859407866716,177,1609046859407866716,0.0314536381401,0.00582624542987,0.030849640341,-4.24039420407e-05,0.000441192880001,-0.000449644640309,0.999999800685,0.0,0.0,0.0,0.0,0.0,0.0
1609046859511040926,178,1609046859511040926,0.0266251912064,0.0124730038403,0.0281582784519,0.000143517996129,-7.37310418901e-05,-0.000524855305148,0.999999849246,0.0,0.0,0.0,0.0,0.0,0.0
1609046859614337444,179,1609046859614337444,0.0259992213486,0.00909948277895,0.0243246647995,-0.00100462416022,0.000336029614306,-0.000449768830587,0.999999337761,0.0,0.0,0.0,0.0,0.0,0.0
1609046859717806578,180,1609046859717806578,0.025710422533,0.00698923610019,0.0248138263807,-0.000161558820649,-0.000286476677457,-0.00044288856314,0.999999847839,0.0,0.0,0.0,0.0,0.0,0.0
1609046859788259506,181,1609046859788259506,0.0202126766244,0.00520520876899,0.0304950511227,0.000697200708524,0.00121521419261,-0.000341705451104,0.999998960201,0.0,0.0,0.0,0.0,0.0,0.0
1609046859890856028,182,1609046859890856028,0.0211106291469,0.00552310189332,0.015261569925,0.000243107262738,0.00066605360596,-0.000418961773568,0.999999660871,0.0,0.0,0.0,0.0,0.0,0.0
1609046859993273020,183,1609046859993273020,0.0267650773502,0.00758165102308,0.019479865272,0.00102069504464,0.000295957619264,-0.00053650064496,0.999999291378,0.0,0.0,0.0,0.0,0.0,0.0
1609046860096638680,184,1609046860096638680,0.0256408849189,-4.50917828318e-06,0.0198862855883,0.000795754305666,-0.000141451735414,-0.000149765224886,0.999999662168,0.0,0.0,0.0,0.0,0.0,0.0
1609046860199395657,185,1609046860199395657,0.0254134936617,-0.000815834132251,0.0239350009211,0.00084090654741,5.92234496132e-05,7.78368235175e-06,0.999999644654,0.0,0.0,0.0,0.0,0.0,0.0
1609046860302209854,186,1609046860302209854,0.0172124131879,0.000899880466444,0.0259124821081,0.000840979658997,0.000589837124183,-0.00029735594252,0.999999428212,0.0,0.0,0.0,0.0,0.0,0.0
1609046860405250072,187,1609046860405250072,0.0218380629685,0.00445082100918,0.00416526102555,0.000678404014553,0.000522535144424,-0.000278838636535,0.999999594487,0.0,0.0,0.0,0.0,0.0,0.0
1609046860508261919,188,1609046860508261919,0.0286441163116,-0.00486320266024,0.0161841632836,-0.000229590590005,-7.42597450144e-06,-0.000209286314147,0.999999951716,0.0,0.0,0.0,0.0,0.0,0.0
1609046860611639261,189,1609046860611639261,0.0209331094545,0.00567620597022,0.0444857661706,0.000972073026122,0.0001763328366,-0.000322885618502,0.999999459862,0.0,0.0,0.0,0.0,0.0,0.0
1609046860714609385,190,1609046860714609385,0.0291614020769,-0.00130752918485,0.011504616546,0.00208804585026,-0.00047494640669,-0.000135514689926,0.99999769806,0.0,0.0,0.0,0.0,0.0,0.0
1609046860817792892,191,1609046860817792892,0.0255283020715,0.00727929330292,0.0345119775496,0.000262168606685,0.000737432409074,-0.000551737174126,0.999999541523,0.0,0.0,0.0,0.0,0.0,0.0
1609046860888054609,192,1609046860888054609,0.0252469756122,0.00765625315781,0.0337878196054,0.000327059723694,0.000334310690688,-0.000464169453694,0.999999782907,0.0,0.0,0.0,0.0,0.0,0.0
1609046860989838600,193,1609046860989838600,0.022072811408,0.00125683078108,0.0433272378251,0.00371321194449,-2.04909073413e-05,1.76976598958e-05,0.999993105638,0.0,0.0,0.0,0.0,0.0,0.0
1609046861093049526,194,1609046861093049526,0.0137100364963,0.00413877371856,0.0278952052966,0.0019359802088,-0.000421713119379,-0.000294376478684,0.999997993738,0.0,0.0,0.0,0.0,0.0,0.0
1609046861195886135,195,1609046861195886135,0.0311554142858,0.00708181758313,0.031449598722,0.00190448170946,0.000265098656117,-0.000406961683609,0.999998068525,0.0,0.0,0.0,0.0,0.0,0.0
1609046861298932791,196,1609046861298932791,0.0249446855854,0.00335859675494,0.0182037378351,-0.00038090222266,0.00020757310952,-0.000419991789704,0.999999817717,0.0,0.0,0.0,0.0,0.0,0.0
1609046861401918411,197,1609046861401918411,0.0243208292312,0.0128719038265,0.0289228568146,-0.000127062872894,0.00109170090061,-0.000980440967887,0.999998915389,0.0,0.0,0.0,0.0,0.0,0.0
1609046861505048513,198,1609046861505048513,0.0267402359209,-0.000544970525856,0.0246783472892,0.000913548813466,0.000149843542879,6.80549259077e-05,0.999999569172,0.0,0.0,0.0,0.0,0.0,0.0
1609046861608155966,199,1609046861608155966,0.0203843021813,0.00475224234117,0.0156975575655,-0.000160684784122,0.000279079019925,-0.000349583894517,0.999999887043,0.0,0.0,0.0,0.0,0.0,0.0
1609046861711293697,200,1609046861711293697,0.0115981140519,0.00383678816405,0.0362869273543,-0.000133372621795,0.000302863611817,-0.00024895353887,0.999999914253,0.0,0.0,0.0,0.0,0.0,0.0
1609046861814486980,201,1609046861814486980,0.028176427195,0.00777197601771,0.0332853375197,-0.00113592789559,0.000713254107343,-0.000762248405227,0.999998809956,0.0,0.0,0.0,0.0,0.0,0.0
1609046861917686224,202,1609046861917686224,0.0248585736515,0.00263723861725,0.0234032861455,0.000991288477658,2.6654194962e-05,-0.000507751405776,0.999999379412,0.0,0.0,0.0,0.0,0.0,0.0
1609046861988058090,203,1609046861988058090,0.0265345753086,0.010545652083,0.0269457787263,0.000683793097196,0.000509915443511,-0.000804440195164,0.999999312644,0.0,0.0,0.0,0.0,0.0,0.0
1609046862090047121,204,1609046862090047121,0.0153872009564,0.00154838285005,0.0123567195284,0.00141925058696,-0.000144823504635,4.94605455979e-05,0.999998981153,0.0,0.0,0.0,0.0,0.0,0.0
1609046862193199158,205,1609046862193199158,0.0247830477651,0.00589164205098,0.027996277013,6.20471336895e-05,0.00104076958344,-0.000456460262979,0.999999352296,0.0,0.0,0.0,0.0,0.0,0.0
1609046862296318054,206,1609046862296318054,0.03078011922,0.00539661782233,0.0265186186468,0.00158459955598,-7.52810685957e-05,-0.000558103983771,0.999998585947,0.0,0.0,0.0,0.0,0.0,0.0
1609046862399249792,207,1609046862399249792,0.0238715616695,0.00807139901445,0.0214591931858,0.001921840703,9.00597183296e-05,-0.000354953211781,0.999998086211,0.0,0.0,0.0,0.0,0.0,0.0
1609046862502227545,208,1609046862502227545,0.0333331719482,0.0172883968692,0.0296789148405,0.000892905314714,0.000548041883945,-0.00131749998259,0.999998583281,0.0,0.0,0.0,0.0,0.0,0.0
1609046862605110168,209,1609046862605110168,0.0265784751934,0.0121614472032,0.035178211742,0.000853682118475,0.000209826914863,-0.000955542022234,0.999999157069,0.0,0.0,0.0,0.0,0.0,0.0
1609046862707932949,210,1609046862707932949,0.0304693241366,0.00917892910473,0.0246557503179,0.00143625173744,0.000218722456533,-0.000526432431781,0.999998806104,0.0,0.0,0.0,0.0,0.0,0.0
1609046862810944080,211,1609046862810944080,0.0343234571536,0.0166436043048,0.0369153301246,0.000962011664104,0.000460699269541,-0.000662647561814,0.999999211593,0.0,0.0,0.0,0.0,0.0,0.0
1609046862914408922,212,1609046862914408922,0.025453743902,0.00775106598527,0.0337278216298,-0.000628900678403,0.00124150806896,-0.000743139766189,0.999998755441,0.0,0.0,0.0,0.0,0.0,0.0
1609046863017483473,213,1609046863017483473,0.0334712520481,0.00722606972175,0.0527925757866,0.001685943947,0.000261912032187,-0.000546912622383,0.999998394939,0.0,0.0,0.0,0.0,0.0,0.0
1609046863088040590,214,1609046863088040590,0.0394157869664,0.00774422683868,0.0344049459214,0.00107542606398,2.4302009831e-06,-0.000481136395434,0.99999930598,0.0,0.0,0.0,0.0,0.0,0.0
1609046863190802097,215,1609046863190802097,0.0322087132287,0.00551974117983,0.0332998120584,0.00372187647037,-0.000633383801245,-7.59215490945e-05,0.999992870322,0.0,0.0,0.0,0.0,0.0,0.0
1609046863293457031,216,1609046863293457031,0.030855443798,0.0166486136317,0.0227125691894,0.0008298895922,0.00113779125348,-0.000843084064619,0.99999865296,0.0,0.0,0.0,0.0,0.0,0.0
1609046863396631956,217,1609046863396631956,0.0293034418305,0.00408139916145,0.0299367398168,7.18614267363e-05,0.000938378994023,-0.000412456686079,0.99999947208,0.0,0.0,0.0,0.0,0.0,0.0
1609046863499486208,218,1609046863499486208,0.0284220228105,0.0113847596354,0.0449746771899,-4.24647383028e-05,0.000458516376249,-0.00071450543386,0.99999963872,0.0,0.0,0.0,0.0,0.0,0.0
1609046863602730751,219,1609046863602730751,0.0234276199775,0.0172654750377,0.0339222905539,0.00112027507425,0.000262733045233,-0.000771031684278,0.999999040732,0.0,0.0,0.0,0.0,0.0,0.0
1609046863705505371,220,1609046863705505371,0.0305575385443,0.0132274044106,0.0261538875956,-0.000974663903548,0.00082887428517,-0.000759738812626,0.999998892896,0.0,0.0,0.0,0.0,0.0,0.0
1609046863808204889,221,1609046863808204889,0.0331542396328,0.0221464268318,0.0391878536954,0.000649206752821,0.000398685283362,-0.0012593089558,0.99999891686,0.0,0.0,0.0,0.0,0.0,0.0
1609046863911490440,222,1609046863911490440,0.040890917499,0.0184397844942,0.0249209331658,0.00157422591407,0.000581581666695,-0.00112744371066,0.999997956221,0.0,0.0,0.0,0.0,0.0,0.0
1609046864014441967,223,1609046864014441967,0.0377971981911,0.0160869852096,0.0359820350488,-0.000209450930876,0.00037889351868,-0.000894344828574,0.999999506358,0.0,0.0,0.0,0.0,0.0,0.0
1609046864117545366,224,1609046864117545366,0.0212937205602,0.0152738446894,0.0379851114135,-0.000107311009158,5.31623065956e-05,-0.000832155637008,0.999999646587,0.0,0.0,0.0,0.0,0.0,0.0
1609046864187835693,225,1609046864187835693,0.0238967573651,0.00875426354113,0.0461086992454,-0.00131664056605,0.000836208786941,-0.000681062758849,0.999998551681,0.0,0.0,0.0,0.0,0.0,0.0
1609046864289630651,226,1609046864289630651,0.0272286967497,0.0144719316629,0.0299121513151,-0.00283618403143,0.000989901145201,-0.000893362919082,0.999995089017,0.0,0.0,0.0,0.0,0.0,0.0
1609046864392758369,227,1609046864392758369,0.0352558661064,0.01627326783,0.0357851466856,0.0024839628679,-0.00109670945171,-0.00093402954837,0.999995877364,0.0,0.0,0.0,0.0,0.0,0.0
1609046864495787144,228,1609046864495787144,0.0272953644384,0.00210533280827,0.0184497531167,-0.000541499522051,0.000369622317056,-0.000206441619444,0.999999763769,0.0,0.0,0.0,0.0,0.0,0.0
1609046864598904133,229,1609046864598904133,0.025891892722,0.0130777322955,0.0296820974539,6.148894739e-06,0.00011206925689,-0.00102694437019,0.999999466393,0.0,0.0,0.0,0.0,0.0,0.0
1609046864701977015,230,1609046864701977015,0.0349487970268,0.0144280327317,0.0262976748629,0.000101812201072,0.00110020388694,-0.00124687220148,0.999998612246,0.0,0.0,0.0,0.0,0.0,0.0
1609046864805235147,231,1609046864805235147,0.0244971254701,0.0180623382645,0.0254492935465,-0.00115244282408,0.000855318140964,-0.000983579263655,0.999998486437,0.0,0.0,0.0,0.0,0.0,0.0
1609046864908266306,232,1609046864908266306,0.0350705777247,0.0155344825211,0.0222212200564,-0.000528906142248,0.000387174936012,-0.000941547821082,0.99999934192,0.0,0.0,0.0,0.0,0.0,0.0
1609046865011503696,233,1609046865011503696,0.0352258028747,0.0100207178635,0.0297271920616,0.000494213325849,4.97505752915e-05,-0.000612920206917,0.999999688803,0.0,0.0,0.0,0.0,0.0,0.0
1609046865115478754,234,1609046865115478754,0.0298992776403,-0.00273776888578,0.0343613620334,0.00121957047893,0.000716963042275,-0.000166544939774,0.999998985436,0.0,0.0,0.0,0.0,0.0,0.0
1609046865217792273,235,1609046865217792273,0.0277174788326,0.0119145418139,0.0454453885629,-0.000645479097229,0.000869600801156,-0.00075535478156,0.999999128294,0.0,0.0,0.0,0.0,0.0,0.0
1609046865288115025,236,1609046865288115025,0.0248596737193,0.0196226903501,0.0347070648848,0.000465414081201,2.95995447043e-05,-0.00104369344434,0.999999346608,0.0,0.0,0.0,0.0,0.0,0.0
1609046865390706301,237,1609046865390706301,0.0362234507896,0.0106834192401,0.0327609757584,0.000458944999486,0.000155809133128,-0.000861854801983,0.999999511149,0.0,0.0,0.0,0.0,0.0,0.0
1609046865492713928,238,1609046865492713928,0.0281606866063,0.0218256440319,0.0152642783381,-0.000163292862877,7.08858576512e-05,-0.00112080075444,0.999999356057,0.0,0.0,0.0,0.0,0.0,0.0
1609046865595904350,239,1609046865595904350,0.031835270229,0.0169035916572,0.0484358930709,-0.00063740254905,0.000601384911541,-0.000993391300239,0.999999122613,0.0,0.0,0.0,0.0,0.0,0.0
1609046865698764324,240,1609046865698764324,0.0376036285034,0.0163377882354,0.0397163884135,0.000116839726638,0.000223944397312,-0.000805146551872,0.999999643968,0.0,0.0,0.0,0.0,0.0,0.0
1609046865801914454,241,1609046865801914454,0.0335901006041,0.00870880615547,0.0251388961564,0.00156456401599,0.000659387752253,-0.000739116065751,0.999998285525,0.0,0.0,0.0,0.0,0.0,0.0
1609046865905173540,242,1609046865905173540,0.02499829727,0.00740316763471,0.0315221258318,0.00130065458329,0.000820327464977,-0.000594005907631,0.999998641257,0.0,0.0,0.0,0.0,0.0,0.0
1609046866008323193,243,1609046866008323193,0.0232283383785,0.0106993852212,0.030022067743,-0.00133373230511,0.000294581998422,-0.000851218977909,0.999998704902,0.0,0.0,0.0,0.0,0.0,0.0
1609046866111666203,244,1609046866111666203,0.0240450670878,-0.00227312596283,0.0299686414337,0.00168177915951,4.18568259828e-05,5.26088066605e-05,0.999998583548,0.0,0.0,0.0,0.0,0.0,0.0
1609046866214867353,245,1609046866214867353,0.0282644774722,0.0133979427221,0.0368806521862,0.000524295925088,0.000448257557618,-0.000942024139208,0.999999318384,0.0,0.0,0.0,0.0,0.0,0.0
1609046866317883730,246,1609046866317883730,0.0384596569653,0.0218456351705,0.0234115426834,0.00235569920756,0.000286516252053,-0.00127795110835,0.999996367708,0.0,0.0,0.0,0.0,0.0,0.0
1609046866388190031,247,1609046866388190031,0.0292258967181,0.00734716051757,0.0175455873439,0.000684081942343,0.000133124092043,-0.000390614340108,0.999999680865,0.0,0.0,0.0,0.0,0.0,0.0
1609046866490043163,248,1609046866490043163,0.0372038023544,0.0121113482843,0.0233717718905,-0.000365973194548,0.000676130166685,-0.000968871251048,0.999999235099,0.0,0.0,0.0,0.0,0.0,0.0
1609046866592794418,249,1609046866592794418,0.0227681548223,0.00147243149006,0.0194615552698,-0.00153426666754,0.000349353705461,-0.000316434291424,0.999998711922,0.0,0.0,0.0,0.0,0.0,0.0
1609046866696168661,250,1609046866696168661,0.02910736956,0.011138958597,0.00469604502957,-0.00270928568158,0.000618075415315,-0.000769644918755,0.999995842691,0.0,0.0,0.0,0.0,0.0,0.0
1609046866799305439,251,1609046866799305439,0.0205425782106,0.0150515648493,0.0301335944916,-0.000364333799076,0.000591061703936,-0.000819958345126,0.999999422787,0.0,0.0,0.0,0.0,0.0,0.0
1609046866902247429,252,1609046866902247429,0.0299894035251,0.0197904536166,0.019099456492,0.00134392844731,-0.000852895308823,-0.0010058867673,0.999998227307,0.0,0.0,0.0,0.0,0.0,0.0
1609046867005334377,253,1609046867005334377,0.0412375163092,0.0102722869002,0.0305824384795,0.00174024000336,-3.03592396918e-06,-0.000916803134416,0.999998065511,0.0,0.0,0.0,0.0,0.0,0.0
1609046867108509302,254,1609046867108509302,0.0315296133737,0.017312001057,0.0101684306672,-0.00039932006837,0.000585426364758,-0.00115360101764,0.999999083511,0.0,0.0,0.0,0.0,0.0,0.0
1609046867211656094,255,1609046867211656094,0.0227930547788,0.00735486910373,0.0497543823174,-0.000249745023473,0.000568381495106,-0.000848495988545,0.999999447311,0.0,0.0,0.0,0.0,0.0,0.0
1609046867315873861,256,1609046867315873861,0.0371361163747,0.0195641765872,0.0456031061026,-0.000199294108924,0.000422767791943,-0.00140791510449,0.999998899661,0.0,0.0,0.0,0.0,0.0,0.0
1609046867417771578,257,1609046867417771578,0.0183135205043,0.00143414950735,0.0366567254644,-0.000308477938918,0.000621556072571,-0.000639338928918,0.999999554877,0.0,0.0,0.0,0.0,0.0,0.0
1609046867487823486,258,1609046867487823486,0.0278726108806,0.00882425195053,0.0374293809557,-0.00077282548209,0.000254683838319,-0.000613470948298,0.999999480764,0.0,0.0,0.0,0.0,0.0,0.0
1609046867590170622,259,1609046867590170622,0.0281890977286,0.0203539658016,0.0268752524556,-0.00161579432587,0.000899816730219,-0.00142329267477,0.999997276884,0.0,0.0,0.0,0.0,0.0,0.0
1609046867692807674,260,1609046867692807674,0.0279920308286,0.0139433847325,0.0298782888807,-0.000870090499003,0.000969400751919,-0.000760536654087,0.999998862393,0.0,0.0,0.0,0.0,0.0,0.0
1609046867795919418,261,1609046867795919418,0.0367303204619,0.0154021861273,-0.0116818086542,-0.000442926120615,-4.6453143895e-05,-0.00127137917481,0.999999092626,0.0,0.0,0.0,0.0,0.0,0.0
1609046867899032593,262,1609046867899032593,0.0249813343168,0.0182903092671,0.0279371312604,-0.00304624053798,0.00131029937073,-0.00112616094949,0.999993867628,0.0,0.0,0.0,0.0,0.0,0.0
1609046868002058029,263,1609046868002058029,0.0306814173166,0.0113058640519,0.0355655405336,0.000305836817075,0.000697062339809,-0.000940138010529,0.999999268353,0.0,0.0,0.0,0.0,0.0,0.0
1609046868105267763,264,1609046868105267763,0.0221129143131,0.0107702331487,0.0385356464528,-0.000546700139201,0.000423934769745,-0.000658029760795,0.999999544197,0.0,0.0,0.0,0.0,0.0,0.0
1609046868208239794,265,1609046868208239794,0.0352135071704,0.0184705256857,0.0456131356903,-0.000324904590604,0.000938514748253,-0.0012756062737,0.999998693226,0.0,0.0,0.0,0.0,0.0,0.0
1609046868311471701,266,1609046868311471701,0.0245847321302,0.0108398668134,0.0342685953961,-0.000410047376562,0.00051275146691,-0.000675756629317,0.999999556149,0.0,0.0,0.0,0.0,0.0,0.0
1609046868415237427,267,1609046868415237427,0.0319636764507,0.00656979366045,0.0263556185296,0.00125350265487,0.000120552349607,-0.000528033754501,0.999999067688,0.0,0.0,0.0,0.0,0.0,0.0
1609046868517709732,268,1609046868517709732,0.0278038538831,0.00316842923362,0.0283220420223,0.00100341088096,0.000970837276552,-0.00052338784891,0.999998888352,0.0,0.0,0.0,0.0,0.0,0.0
1609046868588044643,269,1609046868588044643,0.0349794217354,0.00424670977754,0.011663922696,0.00225152373675,-0.000330651908353,-0.000310880138447,0.999997362328,0.0,0.0,0.0,0.0,0.0,0.0
1609046868690356731,270,1609046868690356731,0.0283798549546,0.00564503351005,0.00779644749471,-0.000411330429994,0.000462565244723,-0.000540294965064,0.99999966246,0.0,0.0,0.0,0.0,0.0,0.0
1609046868792952299,271,1609046868792952299,0.0260693685226,0.0102459363004,0.0276907041207,0.000642607428938,0.000568582624398,-0.000714711659249,0.999999376477,0.0,0.0,0.0,0.0,0.0,0.0
1609046868895957470,272,1609046868895957470,0.0320051321502,0.0132260420669,0.0266849714491,-0.00041736317826,0.000534061086386,-0.00101908187716,0.999999251028,0.0,0.0,0.0,0.0,0.0,0.0
1609046868998967409,273,1609046868998967409,0.0265007593238,0.0108959904645,0.0276685358606,-0.000875603197432,0.00103846905072,-0.000558285958992,0.999998921608,0.0,0.0,0.0,0.0,0.0,0.0
1609046869102211714,274,1609046869102211714,0.0333499529215,0.0125189148808,0.0252475161656,-0.00105822035149,0.00107795719716,-0.00101175170907,0.999998347266,0.0,0.0,0.0,0.0,0.0,0.0
1609046869205714464,275,1609046869205714464,0.0368417231843,0.0159739393197,0.0246301587488,8.727461005e-05,1.5777176418e-05,-0.000951888527096,0.99999954302,0.0,0.0,0.0,0.0,0.0,0.0
1609046869308641911,276,1609046869308641911,0.039144971005,0.0198567280681,0.0365205177346,-0.000168136479499,0.00073341685337,-0.0013824864901,0.999998761279,0.0,0.0,0.0,0.0,0.0,0.0
1609046869411970377,277,1609046869411970377,0.0330364168623,0.0165498029745,0.0297270756894,-0.000709967635728,0.00027860230472,-0.0013354328867,0.999998817471,0.0,0.0,0.0,0.0,0.0,0.0
1609046869514938354,278,1609046869514938354,0.0273349228693,0.0156894171128,0.02841196019,0.000983777295883,0.00067124695065,-0.000735187274993,0.999999020553,0.0,0.0,0.0,0.0,0.0,0.0
1609046869618124962,279,1609046869618124962,0.0353077017675,0.0153095021254,0.00533482899057,-0.000817068658548,0.000472341533524,-0.00113686912455,0.999998908409,0.0,0.0,0.0,0.0,0.0,0.0
1609046869688742399,280,1609046869688742399,0.0241994108444,0.00604361795889,0.0276936922304,0.000262971037678,0.00012160324707,-0.000411707224527,0.999999873277,0.0,0.0,0.0,0.0,0.0,0.0
1609046869789734840,281,1609046869789734840,0.0411250215189,0.012940207263,0.0229106897625,0.00138372659341,-0.000567584478706,-0.00119905457381,0.999998162706,0.0,0.0,0.0,0.0,0.0,0.0
1609046869893450260,282,1609046869893450260,0.0298515395653,0.0111650199705,0.022918503611,0.00225889185878,0.000112900724045,-0.000644169294948,0.999997234849,0.0,0.0,0.0,0.0,0.0,0.0
1609046869996421099,283,1609046869996421099,0.0289520899855,0.00631175452222,0.0239120482794,0.000221768043851,0.000477265792733,-0.000807530218654,0.999999535465,0.0,0.0,0.0,0.0,0.0,0.0
1609046870099510908,284,1609046870099510908,0.0260412664014,0.014077817291,0.0462470679045,0.000347035249938,0.00120739727164,-0.000725867459591,0.999998947436,0.0,0.0,0.0,0.0,0.0,0.0
1609046870202614307,285,1609046870202614307,0.0336786225122,0.00285298756031,0.0240749789279,0.0027062712772,-0.000290364550234,-0.000544030011718,0.9999961479,0.0,0.0,0.0,0.0,0.0,0.0
1609046870305651426,286,1609046870305651426,0.0240362326747,0.013095867244,0.0463486738062,7.60358714236e-05,0.00126010331754,-0.000713662953907,0.99999894852,0.0,0.0,0.0,0.0,0.0,0.0
1609046870408689737,287,1609046870408689737,0.0286738195847,0.0116933017646,0.0215704718179,-5.83464914125e-05,0.000432790261854,-0.000864808941972,0.999999530696,0.0,0.0,0.0,0.0,0.0,0.0
1609046870512408018,288,1609046870512408018,0.0307454391639,0.0154720299978,0.0132484155382,-0.00132712011633,0.00112041713401,-0.000778081510835,0.999998189001,0.0,0.0,0.0,0.0,0.0,0.0
1609046870615727425,289,1609046870615727425,0.0342772140235,0.00948265005718,0.0443846767106,0.000504790629293,0.000633598627102,-0.000818425973956,0.999999336958,0.0,0.0,0.0,0.0,0.0,0.0
1609046870718325853,290,1609046870718325853,0.0303246136896,0.00919497882385,0.0382556745387,0.00314835568654,-5.83355854583e-05,-0.000367343870307,0.999994974743,0.0,0.0,0.0,0.0,0.0,0.0
1609046870788384199,291,1609046870788384199,0.0276747339413,0.0204498482045,0.0386692476437,0.000533440741568,0.000534246501438,-0.0012506474472,0.99999893295,0.0,0.0,0.0,0.0,0.0,0.0
1609046870889767408,292,1609046870889767408,0.0339280302097,0.0208517007346,0.0311552795794,-0.000900568513017,0.000646978539653,-0.00127208209774,0.999998576099,0.0,0.0,0.0,0.0,0.0,0.0
1609046870992812872,293,1609046870992812872,0.0370758249299,0.0249744593061,0.0173298484121,-0.000885498253762,0.000242990267209,-0.00137308796909,0.999998635737,0.0,0.0,0.0,0.0,0.0,0.0
1609046871095923901,294,1609046871095923901,0.0189454190724,0.0162568459436,0.02400980826,-0.00180296417704,0.00109611071706,-0.000855853068331,0.999997407684,0.0,0.0,0.0,0.0,0.0,0.0
1609046871199442387,295,1609046871199442387,0.0367807278771,0.0136809508168,0.038019050671,0.000153086413387,0.00035768514817,-0.000836492827781,0.999999574452,0.0,0.0,0.0,0.0,0.0,0.0
1609046871302400351,296,1609046871302400351,0.0227515662002,0.0187139854832,0.050277576413,-0.00069681511538,0.00101087328541,-0.00111685427848,0.999998622608,0.0,0.0,0.0,0.0,0.0,0.0
1609046871405261278,297,1609046871405261278,0.0347083228793,0.0139068467008,0.0378444160145,0.000457784707365,-0.000161967025108,-0.000863295579631,0.999999509459,0.0,0.0,0.0,0.0,0.0,0.0
1609046871508289099,298,1609046871508289099,0.0336317905182,0.0141306515728,0.0480749906477,0.00136908210601,0.000249564472228,-0.000990928869409,0.999998540694,0.0,0.0,0.0,0.0,0.0,0.0
1609046871611510038,299,1609046871611510038,0.0218278676239,0.0175430728633,0.0231711374832,-0.00366173467397,0.00169725153527,-0.00130821675962,0.999990999761,0.0,0.0,0.0,0.0,0.0,0.0
1609046871714491844,300,1609046871714491844,0.0275664228705,0.00821825364413,0.0384476545455,-0.000192602716906,0.000495422533897,-0.000776340000102,0.999999557377,0.0,0.0,0.0,0.0,0.0,0.0
1609046871817674160,301,1609046871817674160,0.021745055095,0.00931205435681,0.0406048809988,-0.000297777613271,0.00116671171706,-0.000770744627376,0.999998978031,0.0,0.0,0.0,0.0,0.0,0.0
1609046871887980223,302,1609046871887980223,0.0373747881374,0.0130771777367,0.0177380593864,0.000219955783391,0.00051138383033,-0.000970944323446,0.999999373685,0.0,0.0,0.0,0.0,0.0,0.0
1609046871989869118,303,1609046871989869118,0.0292515202157,0.0184503940356,0.0164264463084,-0.000744460437892,0.00113049185469,-0.000978727147562,0.999998604928,0.0,0.0,0.0,0.0,0.0,0.0
1609046872093067169,304,1609046872093067169,0.0316114475337,0.0253307920994,0.0281299457288,0.00107600127866,0.000214037996448,-0.00120027840266,0.999998677869,0.0,0.0,0.0,0.0,0.0,0.0
1609046872196088791,305,1609046872196088791,0.0430117981859,0.0135744261653,0.0402842636241,-0.000491971358973,0.00115482545796,-0.00108060281994,0.999998628318,0.0,0.0,0.0,0.0,0.0,0.0
1609046872299525738,306,1609046872299525738,0.0336092982748,0.0256207764399,0.0228028359554,-0.00135637404838,0.000689354810617,-0.00144197383468,0.999997802872,0.0,0.0,0.0,0.0,0.0,0.0
1609046872402720690,307,1609046872402720690,0.0441964778879,0.0288965773729,0.0197743430462,0.001441739612,-0.00014797381583,-0.00162008987237,0.999997637396,0.0,0.0,0.0,0.0,0.0,0.0
1609046872506878138,308,1609046872506878138,0.0272654747121,0.015969927895,0.026685804825,0.00175290715254,0.000437429778749,-0.000961840623786,0.999997905414,0.0,0.0,0.0,0.0,0.0,0.0
1609046872608915329,309,1609046872608915329,0.0258555711827,0.0126966319902,0.0217764725482,-0.000275205537853,0.000181339117677,-0.00097669604423,0.99999946872,0.0,0.0,0.0,0.0,0.0,0.0
1609046872711700439,310,1609046872711700439,0.0298500323302,0.0134107289866,0.0288123015533,0.00026435828632,0.000200062666947,-0.00109335246784,0.999999347334,0.0,0.0,0.0,0.0,0.0,0.0
1609046872814556122,311,1609046872814556122,0.029291135067,0.0217934150164,0.0222608656044,-0.00242253849352,0.000987592236033,-0.00136945277954,0.999995640274,0.0,0.0,0.0,0.0,0.0,0.0
1609046872917480230,312,1609046872917480230,0.0311940909117,0.0174859886313,0.0451134843719,0.000676419888556,0.000312324279672,-0.00081979070313,0.999999386425,0.0,0.0,0.0,0.0,0.0,0.0
1609046872987838268,313,1609046872987838268,0.0311271188105,0.00842143346433,0.0345547854897,-0.000987125772503,0.000827355295884,-0.00092922246758,0.999998738804,0.0,0.0,0.0,0.0,0.0,0.0
1609046873090164423,314,1609046873090164423,0.029361303293,0.00916600887366,0.0458128805928,6.53366936455e-05,6.45389761904e-05,-0.000696102517964,0.999999753503,0.0,0.0,0.0,0.0,0.0,0.0
1609046873192821026,315,1609046873192821026,0.0326383463153,0.0104964185305,0.0354811095326,0.000616453649592,-0.000491323108935,-0.000760531938172,0.999999400088,0.0,0.0,0.0,0.0,0.0,0.0
1609046873295909882,316,1609046873295909882,0.0341079835747,0.00463923548298,0.0409195400565,-0.000908295910145,0.0012765981136,-0.000741702016359,0.999998497585,0.0,0.0,0.0,0.0,0.0,0.0
1609046873399295568,317,1609046873399295568,0.0332193830622,0.00701860736446,0.0227376617934,-0.000605642374947,0.000213100657729,-0.000736231248798,0.999999522873,0.0,0.0,0.0,0.0,0.0,0.0
1609046873502197504,318,1609046873502197504,0.0293962552103,0.00688128707215,0.04208712141,-0.000215063310608,0.00147751512799,-0.00043430133195,0.999998791038,0.0,0.0,0.0,0.0,0.0,0.0
1609046873605248928,319,1609046873605248928,0.0211792865295,0.00481565641807,0.0471883825402,0.000931067232111,-7.15009837122e-05,-0.000414868360094,0.999999477942,0.0,0.0,0.0,0.0,0.0,0.0
1609046873708574772,320,1609046873708574772,0.0305619454963,0.0097179129708,0.0458910993027,2.49101619212e-05,0.000636772185242,-0.000998921867824,0.999999298027,0.0,0.0,0.0,0.0,0.0,0.0
1609046873812094688,321,1609046873812094688,0.0307848454428,0.0102836784944,0.0553786163773,-6.44126846164e-06,6.36349075088e-05,-0.000769893034638,0.999999701586,0.0,0.0,0.0,0.0,0.0,0.0
1609046873914556265,322,1609046873914556265,0.0412684225741,0.0151762729611,0.0291263637311,0.00188207171671,0.000402094407254,-0.000725028498807,0.999997885227,0.0,0.0,0.0,0.0,0.0,0.0
1609046874017479420,323,1609046874017479420,0.0372796065553,0.0147478452202,0.0335643190233,0.00212661420821,-0.00021924746793,-0.000847677010964,0.999997355439,0.0,0.0,0.0,0.0,0.0,0.0
1609046874087559223,324,1609046874087559223,0.0390394452699,0.0133380037101,0.0273845210556,0.000789340637278,0.000528435737639,-0.000869627424649,0.999999170721,0.0,0.0,0.0,0.0,0.0,0.0
1609046874189826727,325,1609046874189826727,0.03794973833,0.0109668862331,0.0328416662433,0.0014563314642,0.0001601568794,-0.000808648285361,0.999998599766,0.0,0.0,0.0,0.0,0.0,0.0
1609046874292357445,326,1609046874292357445,0.0357754143303,0.00896154509054,0.0156559804875,0.00057869544219,0.000380193348525,-0.000639060824099,0.999999556082,0.0,0.0,0.0,0.0,0.0,0.0
1609046874395546436,327,1609046874395546436,0.0234482125537,0.00114925110347,0.0263867041292,0.000577829260204,0.00064957594755,-0.000372073763184,0.999999552862,0.0,0.0,0.0,0.0,0.0,0.0
1609046874498578787,328,1609046874498578787,0.031688833671,0.00677845688674,0.00419846657523,0.00094738496539,0.000623785174009,-0.000385160915394,0.999999282501,0.0,0.0,0.0,0.0,0.0,0.0
1609046874601905584,329,1609046874601905584,0.0394105514479,0.0154400886194,0.0281883046939,0.00169695917764,0.000697746369852,-0.00104377832899,0.999997772,0.0,0.0,0.0,0.0,0.0,0.0
1609046874704923868,330,1609046874704923868,0.0278930788224,0.0130949567872,0.0280105607988,-0.000370865582671,0.000259053869438,-0.00075109780758,0.9999996156,0.0,0.0,0.0,0.0,0.0,0.0
1609046874808359146,331,1609046874808359146,0.0402339613673,0.0159805030524,0.0198780107486,6.04075681254e-05,0.000369266306825,-0.00109695299469,0.999999328342,0.0,0.0,0.0,0.0,0.0,0.0
1609046874911447048,332,1609046874911447048,0.0319706637695,0.0168343535982,0.0402212028585,0.000713999787775,0.000608450129632,-0.000914144358316,0.999999142165,0.0,0.0,0.0,0.0,0.0,0.0
1609046875015358210,333,1609046875015358210,0.0455783714593,0.00531210733236,0.0361356355417,0.00234618499056,-0.000368779728896,-0.000827129291135,0.999996837631,0.0,0.0,0.0,0.0,0.0,0.0
1609046875117645741,334,1609046875117645741,0.0327652620606,0.0176563468994,0.0290655112,0.00230722874243,6.82150568991e-05,-0.00102832305983,0.999996807291,0.0,0.0,0.0,0.0,0.0,0.0
1609046875188173771,335,1609046875188173771,0.0490423261933,0.0185359423953,0.0101334270863,0.000498411733654,-0.00038479852635,-0.00123510219893,0.999999039018,0.0,0.0,0.0,0.0,0.0,0.0
1609046875289812803,336,1609046875289812803,0.0274580435908,0.00862887169445,0.0241980142893,0.00107257549831,0.000595097656932,-0.000740380049543,0.999998973637,0.0,0.0,0.0,0.0,0.0,0.0
1609046875392723322,337,1609046875392723322,0.0323769978245,0.00472386074576,0.043476789027,-0.000764902269935,0.00119425837817,-0.00071695090792,0.999998737325,0.0,0.0,0.0,0.0,0.0,0.0
1609046875495810509,338,1609046875495810509,0.0251754482466,0.0151649076944,0.0314121844407,-0.000794667905952,0.000725309801622,-0.000731359605119,0.999999153769,0.0,0.0,0.0,0.0,0.0,0.0
1609046875598895073,339,1609046875598895073,0.0328138509806,0.0117091738413,0.0214017348726,-0.00135447407298,0.000364212001355,-0.000990810759899,0.99999852552,0.0,0.0,0.0,0.0,0.0,0.0
1609046875702104807,340,1609046875702104807,0.0358590256811,0.00509090220272,0.0148418034966,0.00140637920388,0.000331282059828,-0.000574932448388,0.999998790899,0.0,0.0,0.0,0.0,0.0,0.0
1609046875806054354,341,1609046875806054354,0.038065543275,0.00224490182039,0.0204472597379,0.00373335560095,-0.000870340328594,-0.000535083465416,0.999992509096,0.0,0.0,0.0,0.0,0.0,0.0
1609046875908310890,342,1609046875908310890,0.0317043150214,0.00954064327783,0.0326011607744,0.00244588508708,-4.58141419411e-05,-0.00103491191292,0.999996472245,0.0,0.0,0.0,0.0,0.0,0.0
1609046876011643887,343,1609046876011643887,0.0355062161939,0.0194025096411,0.0188752838332,-0.000180930885027,0.000680145324157,-0.00137101975904,0.999998812484,0.0,0.0,0.0,0.0,0.0,0.0
1609046876114960194,344,1609046876114960194,0.0388160515053,0.0132127890386,0.0151570755043,-0.000212009610715,0.000284556859953,-0.00128241667971,0.999999114742,0.0,0.0,0.0,0.0,0.0,0.0
1609046876217598200,345,1609046876217598200,0.0369905548717,0.0210275310314,0.0207602393024,-0.000938703838632,0.000430645722231,-0.00145266570521,0.999998411568,0.0,0.0,0.0,0.0,0.0,0.0
1609046876287770987,346,1609046876287770987,0.0319143649311,0.012209225767,0.0246904034529,0.000264481872364,0.000704960529022,-0.00110945588504,0.999999101092,0.0,0.0,0.0,0.0,0.0,0.0
1609046876389742851,347,1609046876389742851,0.0299046253252,0.0222068213807,0.028177195432,6.76009196808e-05,0.000346176986502,-0.00161465028353,0.999998634246,0.0,0.0,0.0,0.0,0.0,0.0
1609046876492477179,348,1609046876492477179,0.0298958639986,0.0200898143827,0.0355678469948,-0.00105415007653,0.000968942970207,-0.00149953043199,0.999997850659,0.0,0.0,0.0,0.0,0.0,0.0
1609046876595607281,349,1609046876595607281,0.0227000107121,0.0196890677067,0.0228873203687,-0.00108032031176,0.00131564736636,-0.00136008693848,0.999997626068,0.0,0.0,0.0,0.0,0.0,0.0
