%time,field.header.seq,field.header.stamp,field.pose.pose.position.x,field.pose.pose.position.y,field.pose.pose.position.z,field.pose.pose.orientation.x,field.pose.pose.orientation.y,field.pose.pose.orientation.z,field.pose.pose.orientation.w,field.twist.twist.linear.x,field.twist.twist.linear.y,field.twist.twist.linear.z,field.twist.twist.angular.x,field.twist.twist.angular.y,field.twist.twist.angular.z
1609046844671971083,29,1609046844671971083,-0.00651386180505,0.00552662665154,0.00073249212797,0.000662253503918,0.000207911847781,-0.000259704322637,0.999999725373,0.0,0.0,0.0,0.0,0.0,0.0
1609046844774305820,30,1609046844774305820,-0.00926502871286,0.00507368826475,0.00107575611601,0.000420236259036,-7.16047254449e-05,-9.31762919872e-05,0.999999904796,0.0,0.0,0.0,0.0,0.0,0.0
1609046844876910925,31,1609046844876910925,-0.0053598068408,0.00719517222774,0.00192506183154,0.000280973835256,0.000406648781754,-0.000426761338209,0.999999786783,0.0,0.0,0.0,0.0,0.0,0.0
1609046844979641438,32,1609046844979641438,0.0018888720428,0.00264672927075,0.00206792042737,0.000121040436836,-0.000344480204765,0.000338795324786,0.99999987595,0.0,0.0,0.0,0.0,0.0,0.0
1609046845087772608,33,1609046845087772608,-0.0172008305312,0.0135155179858,0.00156600201709,0.000248395892775,0.000508595127515,-0.000415545064645,0.999999753476,0.0,0.0,0.0,0.0,0.0,0.0
1609046845191053152,34,1609046845191053152,-0.0072944225046,0.00586459368247,0.00368410797709,-1.18921672167e-05,-0.000371908940575,-0.00012278317809,0.999999923233,0.0,0.0,0.0,0.0,0.0,0.0
1609046845293898582,35,1609046845293898582,-0.00595118572712,0.00706023106356,0.000666930187364,0.000505943523554,0.000119311635785,-0.000262294493236,0.999999830494,0.0,0.0,0.0,0.0,0.0,0.0
1609046845396756887,36,1609046845396756887,-0.00441118619881,0.00694418561275,0.0017019300334,0.000322621043159,1.66852616605e-05,-0.000112554958144,0.999999941484,0.0,0.0,0.0,0.0,0.0,0.0
1609046845500083208,37,1609046845500083208,0.00478000030549,0.00672897622929,-0.000166583414872,-0.000233247081497,0.000107690922376,1.84698922534e-05,0.999999966829,0.0,0.0,0.0,0.0,0.0,0.0
1609046845572151423,38,1609046845572151423,-0.0114867490288,0.00606863370159,0.000859257449948,0.000362750933531,-9.21905001881e-05,8.24565635833e-05,0.999999926557,0.0,0.0,0.0,0.0,0.0,0.0
1609046845672154188,39,1609046845672154188,-0.00997493392808,0.00605863558416,0.00225463907065,8.87894602644e-05,0.000435623302564,0.000135789394733,0.999999891955,0.0,0.0,0.0,0.0,0.0,0.0
1609046845775036573,40,1609046845775036573,-0.0031632076534,0.00642628557442,0.000609257597805,0.000413884908422,-0.000178259198301,-0.000128507314456,0.999999890204,0.0,0.0,0.0,0.0,0.0,0.0
1609046845877982140,41,1609046845877982140,-0.00058329572013,0.00386741959644,3.53844771341e-05,0.000813124322975,0.000238519709403,-1.44954483191e-05,0.999999640863,0.0,0.0,0.0,0.0,0.0,0.0
1609046845980954409,42,1609046845980954409,-0.0137385371041,0.00709884397299,-0.000298947332861,0.00140543923933,0.000235805347304,-0.000436362724187,0.999998889361,0.0,0.0,0.0,0.0,0.0,0.0
1609046846084257603,43,1609046846084257603,-0.0177293185881,0.00827993119725,2.65892002268e-05,0.000241492741883,0.000203968124416,-0.000215575434588,0.999999926803,0.0,0.0,0.0,0.0,0.0,0.0
1609046846187910557,44,1609046846187910557,-0.0134022226789,0.0125775396337,0.00396319658537,0.000188089359157,0.000330740493077,-0.000285450410039,0.999999886876,0.0,0.0,0.0,0.0,0.0,0.0
1609046846290307045,45,1609046846290307045,-0.000112942547691,0.00877237897254,-6.71758772484e-06,0.000497321973916,0.000211984084149,-0.000291951104698,0.999999811249,0.0,0.0,0.0,0.0,0.0,0.0
1609046846393627167,46,1609046846393627167,-0.00687486008019,0.0112139403485,-0.00135972766242,0.00034557545014,-0.000228003712206,-6.40400874714e-05,0.999999912245,0.0,0.0,0.0,0.0,0.0,0.0
1609046846497103453,47,1609046846497103453,-0.0116722366832,0.010234081154,0.00182219588548,0.000330554340797,0.000254156925326,-0.00020653061128,0.999999891742,0.0,0.0,0.0,0.0,0.0,0.0
1609046846600000381,48,1609046846600000381,0.00313800628768,0.00904603366316,0.00230520324021,-0.000272212611905,0.000148901588137,0.000135832027512,0.999999942639,0.0,0.0,0.0,0.0,0.0,0.0
1609046846672477961,49,1609046846672477961,-0.0111562030502,0.0097173600942,0.0019253268635,7.27235338253e-05,-0.000212743288012,-0.000283643810223,0.999999934499,0.0,0.0,0.0,0.0,0.0,0.0
1609046846772044897,50,1609046846772044897,-0.00484400677694,0.0134923192899,0.00131050961863,0.000194265046579,-1.30463664586e-05,-8.10385269205e-05,0.999999977762,0.0,0.0,0.0,0.0,0.0,0.0
1609046846875285625,51,1609046846875285625,-0.00878670013507,0.00844598296049,0.00132628691478,5.9438499643e-05,0.000260677025572,-0.000181686268821,0.999999947752,0.0,0.0,0.0,0.0,0.0,0.0
1609046846983413935,52,1609046846983413935,-0.0126922278193,0.011517067466,0.00190105872351,-0.000324976463988,-0.00020272599939,-6.37047319267e-05,0.999999924617,0.0,0.0,0.0,0.0,0.0,0.0
1609046847084388256,53,1609046847084388256,-0.00315534885169,0.00948514630236,0.00198369325052,-8.45262106029e-05,-1.25749127759e-05,-7.5399766512e-05,0.999999993506,0.0,0.0,0.0,0.0,0.0,0.0
1609046847187813282,54,1609046847187813282,0.00311869913146,0.00809870590641,0.000948618533548,0.000920203174664,0.000330543597,4.98718743882e-05,0.99999952074,0.0,0.0,0.0,0.0,0.0,0.0
1609046847291962624,55,1609046847291962624,-5.59211259976e-05,0.0107172993446,-0.00078835799695,-0.000149050429124,-0.000292496992677,-0.000163350360973,0.999999932773,0.0,0.0,0.0,0.0,0.0,0.0
1609046847393856525,56,1609046847393856525,0.000633311468171,0.0114579226605,0.00358073274574,3.90808038061e-05,0.000405998497914,-0.000217503921098,0.999999893165,0.0,0.0,0.0,0.0,0.0,0.0
1609046847497085810,57,1609046847497085810,0.00326399390449,0.00787336607028,0.000216324819102,0.00035242539574,0.000270507774802,-0.000187378834989,0.999999883756,0.0,0.0,0.0,0.0,0.0,0.0
1609046847599806547,58,1609046847599806547,-0.00346981141823,0.0146034448415,0.00215680973983,0.000265893452762,0.000156469403488,-0.000297971307671,0.999999908016,0.0,0.0,0.0,0.0,0.0,0.0
1609046847671875477,59,1609046847671875477,-0.00681518991148,0.00970108527294,-0.000403918144593,0.00018010773095,-4.33931353688e-05,-0.000195897096339,0.999999963651,0.0,0.0,0.0,0.0,0.0,0.0
1609046847772095680,60,1609046847772095680,-0.00980076160533,0.0161909233962,0.000731403771816,-0.000698296587563,-0.00030923258912,-0.000215264318406,0.999999685209,0.0,0.0,0.0,0.0,0.0,0.0
1609046847875608683,61,1609046847875608683,-0.00108947358413,0.00909311295847,0.00337196715029,0.000359875551767,0.000584304267832,-0.000112632374021,0.999999758196,0.0,0.0,0.0,0.0,0.0,0.0
1609046847978022099,62,1609046847978022099,-0.00976845041101,0.0127066733707,-0.000105639609169,0.000681666618742,-9.98691424239e-05,-0.000261803355297,0.999999728408,0.0,0.0,0.0,0.0,0.0,0.0
1609046848081429005,63,1609046848081429005,0.000283292200158,0.00762439135738,0.00142674857322,-0.000213882384927,0.000119986248569,-4.92531372353e-05,0.999999968716,0.0,0.0,0.0,0.0,0.0,0.0
1609046848184927940,64,1609046848184927940,-0.00428427397939,0.00701264815558,0.000301786775661,0.000351314345026,9.61243581123e-05,-9.58766282506e-05,0.999999929073,0.0,0.0,0.0,0.0,0.0,0.0
1609046848296851397,65,1609046848296851397,-0.0110762244632,0.0162211721547,0.00019979829528,-0.000103206716767,-0.000260121307293,-0.000378580472619,0.999999889181,0.0,0.0,0.0,0.0,0.0,0.0
1609046848400095463,66,1609046848400095463,-0.00530614114286,0.0140544981688,-0.00157336399811,0.000342105733967,2.44348112317e-05,-0.000459378210487,0.999999835669,0.0,0.0,0.0,0.0,0.0,0.0
1609046848501193047,67,1609046848501193047,-0.00212929273137,0.00796536439934,0.00121076481727,0.000179845063188,0.000550410395473,2.62038076093e-05,0.999999832009,0.0,0.0,0.0,0.0,0.0,0.0
1609046848571957111,68,1609046848571957111,-0.00621866323213,0.0138504414731,0.0029850964508,-9.28245912041e-05,0.000265637604323,-0.00037319709451,0.999999890772,0.0,0.0,0.0,0.0,0.0,0.0
1609046848673169613,69,1609046848673169613,-0.00655465905947,0.00791997825765,8.37052490111e-05,-0.000162714433161,-0.00032619513727,7.38597977483e-05,0.999999930833,0.0,0.0,0.0,0.0,0.0,0.0
1609046848777867794,70,1609046848777867794,-0.00280341693869,0.0138730766522,0.000235763348783,0.00015812764468,-0.000199256819843,-0.000296647308705,0.999999923646,0.0,0.0,0.0,0.0,0.0,0.0
1609046848881298065,71,1609046848881298065,0.00299931583984,0.0116078890631,0.00248841240174,-0.000565224113964,-0.000230347977104,-0.000267179541223,0.999999778038,0.0,0.0,0.0,0.0,0.0,0.0
1609046848982772350,72,1609046848982772350,-0.00718674306574,0.0121575416594,0.000374205509502,0.000523408731683,3.73282176694e-05,-0.000300134448566,0.999999817285,0.0,0.0,0.0,0.0,0.0,0.0
1609046849085796118,73,1609046849085796118,3.21784650257e-05,0.012252487549,0.00259043603398,-0.000254591274701,0.000116763631643,-2.63083269921e-05,0.999999960429,0.0,0.0,0.0,0.0,0.0,0.0
1609046849188966751,74,1609046849188966751,-0.00976570109893,0.0131144797831,-0.00328756922528,5.85692515341e-05,-0.000360799730066,-0.000396369430536,0.999999854642,0.0,0.0,0.0,0.0,0.0,0.0
1609046849292664289,75,1609046849292664289,-0.00854634698932,0.0102134087283,0.000340345323917,0.000759270699684,0.000439431253171,-0.000138337304012,0.999999605635,0.0,0.0,0.0,0.0,0.0,0.0
1609046849395053864,76,1609046849395053864,0.000104826979884,0.0121287234559,0.00103042617506,0.000492341868118,0.000654761478089,-0.000167199921811,0.999999650465,0.0,0.0,0.0,0.0,0.0,0.0
1609046849498718739,77,1609046849498718739,-0.0119458046753,0.0163790210746,0.000993479747704,0.000163747225878,-0.000474603359732,-0.000443369477296,0.999999775681,0.0,0.0,0.0,0.0,0.0,0.0
1609046849601204157,78,1609046849601204157,0.0118874742931,0.00853350618137,0.00157027186372,0.000398920004809,0.000377859276783,0.000106869555332,0.999999843332,0.0,0.0,0.0,0.0,0.0,0.0
1609046849671424627,79,1609046849671424627,-0.00265477982751,0.00883915304561,0.000628364194566,0.000151518639561,0.000274237061012,-0.000154252122026,0.999999939021,0.0,0.0,0.0,0.0,0.0,0.0
1609046849773547411,80,1609046849773547411,-0.00184659678307,0.00891347150944,0.00216944805499,0.000518542311906,0.000527659311664,-0.000131582404143,0.999999717688,0.0,0.0,0.0,0.0,0.0,0.0
1609046849876348972,81,1609046849876348972,0.0077254717325,0.00818570907118,0.00141436828794,-0.000136541153026,5.69335845095e-05,3.17775260321e-06,0.999999989052,0.0,0.0,0.0,0.0,0.0,0.0
1609046849979423761,82,1609046849979423761,0.000522205339444,0.013025674125,0.0012625396029,0.000410718450387,-0.000108858295702,-9.6589072838e-05,0.999999905065,0.0,0.0,0.0,0.0,0.0,0.0
1609046850082615614,83,1609046850082615614,-0.00521732788918,0.0099490170407,0.000685127270089,0.000181698828457,0.00045217621388,-0.000133883199615,0.999999872299,0.0,0.0,0.0,0.0,0.0,0.0
1609046850185678720,84,1609046850185678720,-0.00860590810593,0.0177800608727,0.00167825223674,-0.000375144334314,-3.41534806542e-05,-0.000413220579175,0.999999843674,0.0,0.0,0.0,0.0,0.0,0.0
1609046850288942575,85,1609046850288942575,0.00400366449808,0.00777865882701,0.000903567459658,0.00085860252007,0.000221481532208,-0.000109612263411,0.999999600866,0.0,0.0,0.0,0.0,0.0,0.0
1609046850392298698,86,1609046850392298698,-0.0119671495182,0.0133092158599,0.000339038071239,0.000437773190496,0.000146045664802,-1.75212815464e-05,0.999999893359,0.0,0.0,0.0,0.0,0.0,0.0
1609046850495137453,87,1609046850495137453,0.0013651901884,0.0157839547421,0.000923696208098,-0.000387854437624,-6.7856847893e-05,-6.91424785005e-05,0.999999920092,0.0,0.0,0.0,0.0,0.0,0.0
1609046850598149061,88,1609046850598149061,0.00346421057836,0.0112108824597,-1.60260268321e-05,0.000163419626888,-0.000301629627729,-1.80649794165e-05,0.999999940994,0.0,0.0,0.0,0.0,0.0,0.0
1609046850701236486,89,1609046850701236486,-0.014475957118,0.0134670374979,0.00256769514972,-0.000146868035747,0.000298136221257,-0.00037366857006,0.999999874958,0.0,0.0,0.0,0.0,0.0,0.0
1609046850771607161,90,1609046850771607161,-0.00184479132311,0.0138000895411,0.001781661695,1.2059204502e-05,-0.000166909532759,-7.19089494008e-05,0.999999983412,0.0,0.0,0.0,0.0,0.0,0.0
1609046850873324871,91,1609046850873324871,-0.00142915726813,0.0171325966462,0.000611000011434,-0.000443351901509,-0.000389819898989,-0.000182615164354,0.999999809066,0.0,0.0,0.0,0.0,0.0,0.0
1609046850976317406,92,1609046850976317406,-0.00121481634863,0.0116275180079,0.000186130153874,5.2566402768e-05,4.84578552932e-05,4.59044775276e-05,0.999999996391,0.0,0.0,0.0,0.0,0.0,0.0
1609046851079416513,93,1609046851079416513,0.000388399159023,0.0134492283692,0.00194028284655,-0.000147181528519,-7.45380041496e-05,-9.25102818217e-05,0.999999982112,0.0,0.0,0.0,0.0,0.0,0.0
1609046851183229685,94,1609046851183229685,-0.00498082251273,0.0078450788521,-0.00126131478071,0.000139791651292,-0.000145844992637,-5.65408156177e-05,0.999999977995,0.0,0.0,0.0,0.0,0.0,0.0
1609046851285019875,95,1609046851285019875,-0.00999696854687,0.00971978360604,0.00225854893536,0.000194061176106,0.000472174360292,-0.000356548929562,0.999999806132,0.0,0.0,0.0,0.0,0.0,0.0
1609046851388114214,96,1609046851388114214,0.00111667356063,0.0129321185691,0.00244629360509,-0.000214936176026,0.00045298187759,-0.00013078531463,0.999999865753,0.0,0.0,0.0,0.0,0.0,0.0
1609046851491568804,97,1609046851491568804,-0.000620566339834,0.008745625635,-0.00181019536686,0.000492655497606,-0.000215935358463,0.000336638349696,0.999999798669,0.0,0.0,0.0,0.0,0.0,0.0
1609046851594684839,98,1609046851594684839,-0.00221351747294,0.014983293963,0.000262407594564,5.59396785443e-05,-6.83968766123e-06,-0.00033651456188,0.999999941791,0.0,0.0,0.0,0.0,0.0,0.0
1609046851697880507,99,1609046851697880507,-0.00249990279586,0.012617494146,0.0027496158289,7.74476619523e-05,0.000425030969441,-2.27910919027e-05,0.999999906416,0.0,0.0,0.0,0.0,0.0,0.0
1609046851800915956,100,1609046851800915956,-0.0131098812095,0.0131727200618,-0.00324267369139,-0.000346436471604,-0.000803759350698,2.70313774666e-05,0.999999616611,0.0,0.0,0.0,0.0,0.0,0.0
1609046851871320963,101,1609046851871320963,0.00199257360638,0.0155544264095,0.00204812704721,0.000230726728315,0.000321470982103,-0.000194652033223,0.999999902766,0.0,0.0,0.0,0.0,0.0,0.0
1609046851973047495,102,1609046851973047495,-0.0120350179836,0.0169286835528,-8.62369235656e-05,0.000837339939105,0.000368876615354,-0.00036238809046,0.999999515733,0.0,0.0,0.0,0.0,0.0,0.0
1609046852076071501,103,1609046852076071501,-0.00146301869027,0.0109056644702,0.000787774497944,-0.00010703628594,-0.000162699052894,7.32082920001e-05,0.999999978356,0.0,0.0,0.0,0.0,0.0,0.0
1609046852179152250,104,1609046852179152250,-0.00117057780083,0.0180931111875,0.00149466255838,-0.000323902281885,-3.31713868158e-06,-0.000438389153272,0.999999851446,0.0,0.0,0.0,0.0,0.0,0.0
1609046852282329321,105,1609046852282329321,-0.00969184310916,0.014396947407,0.0022368862943,4.7472930662e-05,-4.89780690963e-05,-8.62939712497e-05,0.99999999395,0.0,0.0,0.0,0.0,0.0,0.0
1609046852384957314,106,1609046852384957314,-0.00959974966249,0.0114438962615,0.000162079812219,0.000147379673924,-0.000123362965039,-0.000147573111735,0.999999970641,0.0,0.0,0.0,0.0,0.0,0.0
1609046852488520622,107,1609046852488520622,-0.00782200329813,0.0118323151172,0.000356330336518,0.000560818574168,-0.000104795647055,-0.000152344037661,0.999999825646,0.0,0.0,0.0,0.0,0.0,0.0
1609046852591594219,108,1609046852591594219,-0.00851908508924,0.0119284881666,-0.000460990648363,6.38231360135e-05,-0.000250886744312,-4.10508130172e-05,0.999999965649,0.0,0.0,0.0,0.0,0.0,0.0
1609046852694822311,109,1609046852694822311,0.00258315234974,0.0138608324836,0.000971258756201,4.37942389599e-05,-5.29830583642e-05,-3.16238999491e-05,0.999999997137,0.0,0.0,0.0,0.0,0.0,0.0
1609046852797986269,110,1609046852797986269,-0.00025674786521,0.0125651187028,0.00286680343028,0.000576406252214,0.000400054771598,-8.64116708789e-05,0.999999750122,0.0,0.0,0.0,0.0,0.0,0.0
1609046852901259899,111,1609046852901259899,-0.0175204908519,0.0118769248973,-0.00109630975162,-0.000386269336307,-0.000398468898564,-3.29808589481e-05,0.999999845465,0.0,0.0,0.0,0.0,0.0,0.0
1609046852971366405,112,1609046852971366405,0.00124634673019,0.0128410133552,0.00277129413143,0.000411893271192,0.000268285171816,-0.000118016722474,0.999999872219,0.0,0.0,0.0,0.0,0.0,0.0
1609046853073413610,113,1609046853073413610,-0.0044538750861,0.0200502987197,0.000534670419755,-0.000209455062895,-4.40691564849e-05,-0.000383775609358,0.999999903451,0.0,0.0,0.0,0.0,0.0,0.0
1609046853176168919,114,1609046853176168919,-0.000651671265426,0.0124761946941,0.000577858759684,0.000484537869101,-7.22755932652e-05,0.000313387186748,0.999999830894,0.0,0.0,0.0,0.0,0.0,0.0
1609046853279094458,115,1609046853279094458,-0.0145931112333,0.0145624812735,0.000125230530997,-0.00016692994721,-0.000597952171501,-0.000123484968496,0.999999799669,0.0,0.0,0.0,0.0,0.0,0.0
1609046853381848097,116,1609046853381848097,-0.00681142617772,0.0140132600676,-0.000104100548766,0.000337631428138,-8.88227622044e-05,-0.000349370770252,0.999999878028,0.0,0.0,0.0,0.0,0.0,0.0
1609046853485204458,117,1609046853485204458,-0.00953402964919,0.0173571426177,0.00371585384475,-3.13654226256e-05,0.000425655399293,-0.000222338872667,0.9999998842,0.0,0.0,0.0,0.0,0.0,0.0
1609046853588275433,118,1609046853588275433,-0.0139636221112,0.0151766504261,0.00214161409623,0.000266437831256,0.000211192566274,-0.000215458289028,0.999999918993,0.0,0.0,0.0,0.0,0.0,0.0
1609046853691444874,119,1609046853691444874,-0.0100650418547,0.00727217322388,0.00051570423188,0.000796019334508,0.000148145484454,-0.000346868684562,0.999999612044,0.0,0.0,0.0,0.0,0.0,0.0
1609046853794646025,120,1609046853794646025,-0.00946932980566,0.0147946007874,0.00252786284575,-0.000219882048384,0.000444285932589,-9.65719999544e-05,0.999999872468,0.0,0.0,0.0,0.0,0.0,0.0
1609046853897840738,121,1609046853897840738,-0.0150115778916,0.0173444034113,0.000991981666059,-0.000411283146893,-0.000275960245799,-0.000442943317121,0.999999779247,0.0,0.0,0.0,0.0,0.0,0.0
1609046854001017094,122,1609046854001017094,0.000544869709804,0.0135396706316,0.000750728999858,-0.000144872678742,0.000250654106224,-0.000239914811625,0.999999929313,0.0,0.0,0.0,0.0,0.0,0.0
1609046854071305275,123,1609046854071305275,-0.0142987166312,0.0160185354247,0.000926694833625,0.000381803512403,-4.11044820517e-05,-1.92068661221e-05,0.999999926084,0.0,0.0,0.0,0.0,0.0,0.0
1609046854173077583,124,1609046854173077583,-0.00147239018109,0.0195419115802,-0.000627023291789,-0.000220050348392,-4.48139333854e-05,-0.000485008400528,0.999999857168,0.0,0.0,0.0,0.0,0.0,0.0
1609046854276171684,125,1609046854276171684,0.000830924276377,0.014557131005,-0.000383515306342,0.000389909835338,-2.27534125001e-05,-8.99336434919e-05,0.999999919682,0.0,0.0,0.0,0.0,0.0,0.0
1609046854379001379,126,1609046854379001379,-0.0122408055699,0.0149511442702,0.00409846127596,-0.000451929947427,0.000156123149445,-0.000466542304253,0.999999776862,0.0,0.0,0.0,0.0,0.0,0.0
1609046854482342958,127,1609046854482342958,-0.00308130789022,0.0087470587983,0.0018450408914,0.00136599052827,0.000624128621238,-0.000268811741594,0.999998836136,0.0,0.0,0.0,0.0,0.0,0.0
1609046854585064888,128,1609046854585064888,-0.00762659274123,0.0212844575932,0.000851193368902,-0.000140201386796,0.000230798505478,-0.000370069165614,0.999999895062,0.0,0.0,0.0,0.0,0.0,0.0
1609046854688234806,129,1609046854688234806,-0.00741469435948,0.0187858776661,0.00169897758752,-6.06509918724e-05,0.000261731391962,-0.000421207915049,0.999999875201,0.0,0.0,0.0,0.0,0.0,0.0
1609046854791399956,130,1609046854791399956,-0.0220571989962,0.0177377846363,0.000770722191164,-0.000212786966733,-0.000125320875488,-0.000436424661275,0.999999874275,0.0,0.0,0.0,0.0,0.0,0.0
1609046854894348621,131,1609046854894348621,-0.00766848648366,0.0118851031518,0.000851603431462,0.000284694010131,0.000407085830655,4.36994803946e-05,0.99999987566,0.0,0.0,0.0,0.0,0.0,0.0
1609046854998707056,132,1609046854998707056,-0.00497224297184,0.0169915487235,0.000918609060572,-1.37603604204e-05,0.000281507883789,-0.000296875332346,0.999999916214,0.0,0.0,0.0,0.0,0.0,0.0
1609046855101145506,133,1609046855101145506,-0.0123090790629,0.0141299310729,0.00191511652286,0.000135832553403,0.000135202604356,-0.000173794073411,0.999999966533,0.0,0.0,0.0,0.0,0.0,0.0
1609046855171255827,134,1609046855171255827,-0.00843884648233,0.0163912868491,-0.000556984859363,0.000326617288523,-0.000353464695911,-5.54339273122e-05,0.999999882655,0.0,0.0,0.0,0.0,0.0,0.0
1609046855273828268,135,1609046855273828268,-0.00528104186608,0.0149003859008,0.00153239263873,-0.00017513591328,0.000216317762448,-0.000421579290468,0.999999872402,0.0,0.0,0.0,0.0,0.0,0.0
1609046855376131296,136,1609046855376131296,-0.0138551439999,0.0155034829659,0.000323037369021,0.000586548567499,0.000132625911769,-0.000271815443809,0.999999782244,0.0,0.0,0.0,0.0,0.0,0.0
1609046855479208469,137,1609046855479208469,-0.0156721602524,0.0181817678032,0.002999176425,-0.000497302745231,-0.000242024909683,-0.00031499460324,0.999999797446,0.0,0.0,0.0,0.0,0.0,0.0
1609046855582283020,138,1609046855582283020,-0.0126843768529,0.0167034639144,-0.00175161928338,5.79883914568e-05,-0.000198420338183,8.49455207376e-05,0.999999975025,0.0,0.0,0.0,0.0,0.0,0.0
1609046855685334921,139,1609046855685334921,-0.0112274660995,0.016166483845,0.00225449331038,-0.000354989733498,-0.000318984764217,-2.98891873306e-05,0.999999885669,0.0,0.0,0.0,0.0,0.0,0.0
1609046855788450480,140,1609046855788450480,-0.00469739567783,0.0165821675148,0.00246546132667,-0.000135085016543,-0.000255932634204,-3.93796538168e-05,0.99999995735,0.0,0.0,0.0,0.0,0.0,0.0
1609046855891535044,141,1609046855891535044,-0.0160331908032,0.0145057049545,-0.00220874228245,0.000266350014119,-7.42511703897e-06,-0.000360702323416,0.999999899448,0.0,0.0,0.0,0.0,0.0,0.0
1609046855994340181,142,1609046855994340181,-0.00288991966498,0.0149304720893,-0.00170952914588,0.000551236676367,7.10206369156e-05,-0.000159629103445,0.999999832806,0.0,0.0,0.0,0.0,0.0,0.0
1609046856097698927,143,1609046856097698927,-0.0125729306793,0.0147410865834,0.00194366633529,1.31022404342e-05,0.00014055197932,-0.000320036680334,0.999999938825,0.0,0.0,0.0,0.0,0.0,0.0
1609046856200646877,144,1609046856200646877,0.00477406403671,0.0101096504516,-0.00016947617167,0.000189552862001,0.000300179592722,0.000272283635801,0.999999899912,0.0,0.0,0.0,0.0,0.0,0.0
1609046856270874262,145,1609046856270874262,-0.0134630979471,0.0199960904669,0.00255084724349,-8.44425178496e-05,0.000316934117811,-0.000187680727815,0.999999928599,0.0,0.0,0.0,0.0,0.0,0.0
1609046856373088121,146,1609046856373088121,-0.0111200467495,0.0195978336576,0.000993102822219,-0.00012261386675,-0.000581861393116,-0.000314159267427,0.999999773853,0.0,0.0,0.0,0.0,0.0,0.0
1609046856475932360,147,1609046856475932360,-0.0137144502627,0.0153422742725,0.000196075446084,-0.000205893825542,-0.000172769572698,-0.000357325798076,0.999999900038,0.0,0.0,0.0,0.0,0.0,0.0
1609046856578944206,148,1609046856578944206,-0.00792767312928,0.0177125495487,-0.00206523033084,1.38210862803e-05,-0.000525276360181,-8.45656991605e-05,0.999999858371,0.0,0.0,0.0,0.0,0.0,0.0
1609046856682237148,149,1609046856682237148,-0.0102024365784,0.0176671491948,0.00013809783493,0.000252605719989,-0.000196112399486,-0.000229915760582,0.999999922434,0.0,0.0,0.0,0.0,0.0,0.0
1609046856785253286,150,1609046856785253286,-0.0034469559823,0.0116617776483,-0.000448225207574,0.000389256349766,1.00995743099e-06,4.87310775943e-05,0.999999923052,0.0,0.0,0.0,0.0,0.0,0.0
1609046856888509989,151,1609046856888509989,-0.0103162530588,0.0166646821085,9.50118954173e-05,-5.86106179376e-05,-0.000290005297249,-0.000284174496895,0.999999915853,0.0,0.0,0.0,0.0,0.0,0.0
1609046856991461277,152,1609046856991461277,-0.0114453958023,0.0194229037576,0.00292434625688,-4.51499234557e-05,0.000411108327877,-0.000519389038669,0.999999779593,0.0,0.0,0.0,0.0,0.0,0.0
1609046857094422340,153,1609046857094422340,-0.00431152336448,0.014632567414,0.001070764281,-0.00032315590675,-0.000141169107607,0.000159991595198,0.999999925022,0.0,0.0,0.0,0.0,0.0,0.0
1609046857197767019,154,1609046857197767019,-0.0139197155985,0.0139235817321,-6.19053656573e-05,-0.000287118630619,-2.54494839059e-06,-0.000163475575939,0.999999945416,0.0,0.0,0.0,0.0,0.0,0.0
1609046857300457954,155,1609046857300457954,-0.00889370038685,0.0194815016326,0.00434028001517,-0.00121154824906,-8.16670416123e-05,-0.000193806571784,0.99999924396,0.0,0.0,0.0,0.0,0.0,0.0
1609046857370843410,156,1609046857370843410,-0.0156343105179,0.0162551233555,0.0011850992781,0.000596497017155,-0.000110452000832,-0.000194257179577,0.999999797128,0.0,0.0,0.0,0.0,0.0,0.0
1609046857472904444,157,1609046857472904444,-0.00338374352531,0.0157844842179,0.000480652244462,-0.000221033308225,-8.89795567947e-05,-1.52463423493e-05,0.999999971497,0.0,0.0,0.0,0.0,0.0,0.0
1609046857575943708,158,1609046857575943708,-0.00210445653206,0.0155938884966,0.0033763171049,0.000254057348771,0.0004718869254,-0.000146299158318,0.999999845687,0.0,0.0,0.0,0.0,0.0,0.0
1609046857679066896,159,1609046857679066896,-0.00768675537943,0.0159480979297,0.00216498070457,-0.00011157072586,-0.000252987189594,-0.000157265442796,0.999999949408,0.0,0.0,0.0,0.0,0.0,0.0
1609046857782416105,160,1609046857782416105,-0.0122872022863,0.0142440432464,-0.00135021636994,0.00038349593743,8.19771721297e-05,-0.000196795795804,0.999999903741,0.0,0.0,0.0,0.0,0.0,0.0
1609046857885345697,161,1609046857885345697,-0.014823309108,0.0172181633371,0.000935470677914,0.000274757691874,7.42676199555e-05,-0.000169711920735,0.999999945095,0.0,0.0,0.0,0.0,0.0,0.0
1609046857988800764,162,1609046857988800764,-0.00999706111985,0.0178917949662,-0.000629703317007,0.000371172595543,-0.000100024545754,-0.000480705280409,0.999999810574,0.0,0.0,0.0,0.0,0.0,0.0
1609046858091836929,163,1609046858091836929,0.000413056402144,0.0153580048498,0.000948217006773,-1.41585277181e-05,-0.000465238364517,0.000181959499512,0.999999875122,0.0,0.0,0.0,0.0,0.0,0.0
1609046858194612265,164,1609046858194612265,-0.0157687657388,0.017844815864,-0.000913969396253,8.41001214984e-05,0.000331214531088,-0.000413565394268,0.999999856094,0.0,0.0,0.0,0.0,0.0,0.0
1609046858298383713,165,1609046858298383713,-0.00821756419531,0.015908191468,-0.000513952003284,0.000322629873195,-0.000375669245893,-0.000339004370763,0.999999819929,0.0,0.0,0.0,0.0,0.0,0.0
1609046858400810719,166,1609046858400810719,-0.0157948433431,0.0166215610559,-0.00106172906349,-4.75365105954e-05,-0.000157862943209,-0.000267470693628,0.999999950639,0.0,0.0,0.0,0.0,0.0,0.0
1609046858471033335,167,1609046858471033335,0.000720916102407,0.0164445524878,0.00198178360321,8.88580209527e-05,1.82567591533e-06,-0.00018123554057,0.999999979627,0.0,0.0,0.0,0.0,0.0,0.0
1609046858572797775,168,1609046858572797775,-0.0101134878691,0.0185956720792,0.0017441523299,-0.000571210277271,0.00035808523063,-1.98765387312e-05,0.999999772549,0.0,0.0,0.0,0.0,0.0,0.0
1609046858675834417,169,1609046858675834417,-0.0100803754055,0.0190113782257,0.000845961177221,0.000351753919941,0.00033398033998,-0.00026945674383,0.99999984606,0.0,0.0,0.0,0.0,0.0,0.0
1609046858778877735,170,1609046858778877735,-0.00763514495602,0.017304037422,-0.00109079771754,-7.10161596951e-05,-8.97602368593e-05,-0.000201745192014,0.999999973099,0.0,0.0,0.0,0.0,0.0,0.0
1609046858882261753,171,1609046858882261753,-0.0047195536873,0.0134733411251,0.000767079199325,0.00049911372735,0.00031917952101,-0.000324652747519,0.999999771805,0.0,0.0,0.0,0.0,0.0,0.0
1609046858984929800,172,1609046858984929800,-0.0048069936886,0.0163711400122,-0.000382495567737,-0.00029001479432,-0.000682163537508,-8.21261874803e-05,0.9999997219,0.0,0.0,0.0,0.0,0.0,0.0
1609046859088097572,173,1609046859088097572,0.0028256267566,0.0140766294078,-0.000862555316041,0.00065674437633,-5.54046498753e-05,-0.000158110748136,0.999999770309,0.0,0.0,0.0,0.0,0.0,0.0
1609046859191257477,174,1609046859191257477,-0.00498425591343,0.00830998751338,0.000747329197268,0.000819944530406,0.000473934298233,-0.00011952604865,0.999999544395,0.0,0.0,0.0,0.0,0.0,0.0
1609046859294385672,175,1609046859294385672,-0.010049062719,0.0170247397614,0.00195830508617,-5.44672718886e-05,-1.98939550314e-05,-0.000362373754681,0.999999932661,0.0,0.0,0.0,0.0,0.0,0.0
1609046859397656202,176,1609046859397656202,-0.00639227680446,0.0158514867497,0.000628939329563,-0.000127301251396,0.000713725891978,-8.52792356762e-05,0.999999733558,0.0,0.0,0.0,0.0,0.0,0.0
1609046859500774622,177,1609046859500774622,-0.0132278330462,0.00984968600154,-0.0018972504258,8.93531252029e-06,-0.00027288567083,6.88603128451e-05,0.999999960356,0.0,0.0,0.0,0.0,0.0,0.0
1609046859571021557,178,1609046859571021557,-0.0167832703826,0.0139232553241,-0.00115225502207,0.000109624723375,-0.000378212354403,3.66317687842e-06,0.999999922462,0.0,0.0,0.0,0.0,0.0,0.0
1609046859672726393,179,1609046859672726393,-0.0105479299503,0.0168436851552,0.00176079072237,-0.000161408472279,7.26753964632e-05,-6.51808087712e-05,0.999999982208,0.0,0.0,0.0,0.0,0.0,0.0
1609046859776108265,180,1609046859776108265,-0.0187691444545,0.0163477590671,0.00150096591613,-0.000619137394222,-6.59981357566e-05,-0.000400540151028,0.99999972594,0.0,0.0,0.0,0.0,0.0,0.0
1609046859879061699,181,1609046859879061699,-0.00318164791706,0.0159325959181,0.000665576113403,0.000368191071386,0.000381507847133,-6.30147842472e-05,0.999999857458,0.0,0.0,0.0,0.0,0.0,0.0
1609046859982322693,182,1609046859982322693,-0.00788235753647,0.0177167497298,0.000663149192372,-0.000508108423688,-0.000201720237778,-0.000168823376158,0.999999836317,0.0,0.0,0.0,0.0,0.0,0.0
1609046860085167170,183,1609046860085167170,-0.00237239212248,0.0168453957432,0.00491333524371,-0.000381054201062,0.000492260034307,-0.000181395448319,0.999999789787,0.0,0.0,0.0,0.0,0.0,0.0
1609046860188185930,184,1609046860188185930,0.000546225670892,0.00547193564039,0.00109233730932,0.000176965477866,5.60122891423e-05,0.000176477876962,0.999999967201,0.0,0.0,0.0,0.0,0.0,0.0
1609046860291242361,185,1609046860291242361,-0.00659305855281,0.0178765844864,0.000231609891587,0.000147128915236,0.000213177415142,-0.000269394396464,0.999999930167,0.0,0.0,0.0,0.0,0.0,0.0
1609046860394419670,186,1609046860394419670,-0.0145041295641,0.0136338312159,0.000672184046141,0.000455833543396,0.00012627342519,-0.000197516507148,0.999999868629,0.0,0.0,0.0,0.0,0.0,0.0
1609046860497514486,187,1609046860497514486,-0.00476727887481,0.0166663635634,0.00122944850454,2.29302594993e-05,0.000434267018891,-0.000174724001207,0.999999890179,0.0,0.0,0.0,0.0,0.0,0.0
1609046860600615501,188,1609046860600615501,-0.00289776263493,0.0139039493202,0.00198675913448,-0.000579089180042,0.000242353693366,-8.32007659372e-05,0.999999799499,0.0,0.0,0.0,0.0,0.0,0.0
1609046860670919895,189,1609046860670919895,-0.0126201469423,0.0187598398373,-0.000423672101585,0.000552050028322,3.35132461616e-05,-0.000193786748748,0.999999828282,0.0,0.0,0.0,0.0,0.0,0.0
1609046860773055792,190,1609046860773055792,-0.00602022651715,0.0104978776052,0.000141014856804,0.000374803574388,0.000386497657739,-0.000202474026859,0.999999834573,0.0,0.0,0.0,0.0,0.0,0.0
1609046860875856161,191,1609046860875856161,-0.0148834645139,0.0144969989811,0.000867130825388,-5.49904682495e-05,0.000260825050764,-0.000271655685367,0.999999927575,0.0,0.0,0.0,0.0,0.0,0.0
1609046860979003668,192,1609046860979003668,-0.00740950999618,0.0164416856814,0.000544149628403,-0.000277468553458,0.000143854108372,-0.000207437318501,0.999999929643,0.0,0.0,0.0,0.0,0.0,0.0
1609046861082153320,193,1609046861082153320,-0.0089496386964,0.0199639435602,0.00208920641706,-0.000312942659057,-0.000278529353561,-9.79040502901e-05,0.999999907451,0.0,0.0,0.0,0.0,0.0,0.0
1609046861185218811,194,1609046861185218811,-0.00555651124794,0.0146640326691,0.000504480774211,-0.000482569856563,-0.000280322951289,1.27391071078e-05,0.999999844191,0.0,0.0,0.0,0.0,0.0,0.0
1609046861288495064,195,1609046861288495064,-0.0166045621014,0.0184563438669,0.00109711305327,-0.000316659500074,-0.000249533816522,-0.000433366271581,0.999999824826,0.0,0.0,0.0,0.0,0.0,0.0
1609046861391306162,196,1609046861391306162,-0.00536679578212,0.0152772437748,0.00318881612062,-0.000278176541997,0.00033142026049,-0.000386144707872,0.999999831835,0.0,0.0,0.0,0.0,0.0,0.0
1609046861494316578,197,1609046861494316578,-0.00538477688365,0.0231955035165,-0.0010619767195,-8.96562434233e-05,-0.000117529103432,-0.000363205431662,0.999999923115,0.0,0.0,0.0,0.0,0.0,0.0
1609046861597460032,198,1609046861597460032,-0.0120284925427,0.0203831645913,0.00249355561774,-0.000143971327241,-1.16385465345e-05,-0.000356762299631,0.999999925929,0.0,0.0,0.0,0.0,0.0,0.0
1609046861700460911,199,1609046861700460911,-0.0130105751015,0.0197356725345,-0.000952147377016,-0.000438285765736,-0.000222306879628,-0.000176747055311,0.999999863623,0.0,0.0,0.0,0.0,0.0,0.0
1609046861770995855,200,1609046861770995855,-0.00925264164261,0.0155832093112,-0.00117488273842,0.000511359282729,0.00024156309494,-0.000411731285671,0.999999755318,0.0,0.0,0.0,0.0,0.0,0.0
1609046861872781992,201,1609046861872781992,-0.014687147831,0.0185179346306,0.000270903441803,4.09303643702e-05,0.000218038203684,-0.000383449233938,0.999999901875,0.0,0.0,0.0,0.0,0.0,0.0
1609046861975788116,202,1609046861975788116,-0.012133496219,0.0239974810625,0.000880342358416,-0.000148543973699,-0.000429743233089,-0.000516883520017,0.999999763043,0.0,0.0,0.0,0.0,0.0,0.0
1609046862078939438,203,1609046862078939438,-0.00975610390583,0.0206123526876,0.00165518457898,-0.000206281430512,0.000443936513471,-0.000497491591998,0.999999756435,0.0,0.0,0.0,0.0,0.0,0.0
1609046862182152987,204,1609046862182152987,-0.00682242499175,0.0161823387539,-0.000735868565502,-5.72114302394e-05,4.24968389064e-05,-0.000291407442989,0.999999955001,0.0,0.0,0.0,0.0,0.0,0.0
1609046862285255909,205,1609046862285255909,-0.00513259552018,0.0101162255664,0.00102062708813,-0.000144677923885,0.000605014402509,-0.000224426736301,0.999999781329,0.0,0.0,0.0,0.0,0.0,0.0
1609046862388201237,206,1609046862388201237,-0.00529627396586,0.0174142309746,-0.00101436831107,-2.04923523289e-05,-0.00057460780165,0.000136152907055,0.999999825434,0.0,0.0,0.0,0.0,0.0,0.0
1609046862491432428,207,1609046862491432428,-0.00615821999509,0.016469322356,0.000953440549117,-0.000175074513523,-0.000267022765668,-0.000110838834819,0.999999942881,0.0,0.0,0.0,0.0,0.0,0.0
1609046862594545603,208,1609046862594545603,-0.00460924743528,0.0210826682807,6.60814564727e-05,0.000646683357615,2.20876934328e-05,-0.000232377560814,0.999999763656,0.0,0.0,0.0,0.0,0.0,0.0
1609046862697530270,209,1609046862697530270,-0.0152432786669,0.00810521908098,-0.00138570082049,0.000500832881172,3.42974059118e-05,-0.00029107617133,0.999999831632,0.0,0.0,0.0,0.0,0.0,0.0
1609046862800507307,210,1609046862800507307,-0.015238065723,0.0171838906681,-0.00224159011966,-8.68473190396e-06,-5.80543378966e-06,-0.000277067562953,0.999999961562,0.0,0.0,0.0,0.0,0.0,0.0
1609046862870868683,211,1609046862870868683,-0.0119406276458,0.018379398883,-0.00122611543437,0.000469345195855,-4.41840980591e-05,-0.000237142350267,0.999999860763,0.0,0.0,0.0,0.0,0.0,0.0
1609046862973068476,212,1609046862973068476,-0.0136911727562,0.0178855024585,-0.000630576214817,4.52765553276e-05,-0.000139105415249,-0.00022899279012,0.999999963081,0.0,0.0,0.0,0.0,0.0,0.0
1609046863075634241,213,1609046863075634241,0.00208800585153,0.0111137310007,-0.000547728406771,0.000546058981636,0.000255411080966,-3.29212246722e-05,0.99999981775,0.0,0.0,0.0,0.0,0.0,0.0
1609046863178802729,214,1609046863178802729,-0.00267362287783,0.0141825272659,0.00353366604659,0.000160499261934,0.000215691075916,-2.25863579874e-05,0.999999963603,0.0,0.0,0.0,0.0,0.0,0.0
1609046863281921864,215,1609046863281921864,-0.00887455529053,0.0124991063764,-0.00143277484192,0.000468213094441,-0.000300610180642,-5.11571740253e-05,0.999999843896,0.0,0.0,0.0,0.0,0.0,0.0
1609046863384902716,216,1609046863384902716,-0.000614551561864,0.0113331406831,-0.000320725948637,0.000205490798768,-2.92596892603e-05,-2.48909603892e-05,0.999999978149,0.0,0.0,0.0,0.0,0.0,0.0
1609046863487659931,217,1609046863487659931,-0.00635524646335,0.01678620948,0.00375580955305,-0.000357731470557,0.000221191775665,-3.95459958422e-05,0.999999910769,0.0,0.0,0.0,0.0,0.0,0.0
1609046863591070652,218,1609046863591070652,-0.00293652911731,0.0100520042025,-0.000665912003723,0.000399010931085,0.000158074441636,-7.63259278768e-05,0.999999904988,0.0,0.0,0.0,0.0,0.0,0.0
1609046863694291115,219,1609046863694291115,-0.0053420372537,0.0138456646369,0.00155376139836,0.000142748109758,0.000441096404437,-9.64442303611e-05,0.999999887877,0.0,0.0,0.0,0.0,0.0,0.0
1609046863797416210,220,1609046863797416210,-0.00771294206089,0.0174864257304,0.00101649995377,0.000489536110448,0.000460594316244,-0.000325607298685,0.999999721093,0.0,0.0,0.0,0.0,0.0,0.0
1609046863900552511,221,1609046863900552511,-0.0158892323183,0.018074275774,0.00185096494461,-0.000259394954303,0.000484890330816,-0.000236821540323,0.999999820755,0.0,0.0,0.0,0.0,0.0,0.0
1609046863970772028,222,1609046863970772028,-0.0112633728009,0.0137648047542,0.00020053978156,0.000266998500575,0.000617023919128,-0.000351842016981,0.9999997121,0.0,0.0,0.0,0.0,0.0,0.0
1609046864072424650,223,1609046864072424650,-0.00773907929694,0.0188834364595,0.000232355677702,-0.000138266511574,8.57334901371e-05,-0.000179736229987,0.999999970613,0.0,0.0,0.0,0.0,0.0,0.0
1609046864175596237,224,1609046864175596237,-0.00748167241166,0.0142092013437,-0.00113739271982,-0.000328449856757,-0.000536437005596,-0.000256218874342,0.999999769354,0.0,0.0,0.0,0.0,0.0,0.0
1609046864278694153,225,1609046864278694153,-0.0108072881603,0.015470008993,0.00232406762032,0.000569518306357,0.000557477461248,-0.000152287529618,0.999999670838,0.0,0.0,0.0,0.0,0.0,0.0
1609046864382097960,226,1609046864382097960,-0.0141551719874,0.0150595619296,-0.00148158998947,0.000178165731217,0.000298518639572,-0.000480383046584,0.999999824188,0.0,0.0,0.0,0.0,0.0,0.0
1609046864484856844,227,1609046864484856844,-0.0127784215801,0.0161239914724,0.00229039627989,7.61265348392e-05,0.000315227853648,-0.000316221111347,0.99999989742,0.0,0.0,0.0,0.0,0.0,0.0
1609046864588232517,228,1609046864588232517,-0.0122819885293,0.0185074503926,-0.00069740135801,-0.000178974721321,-0.000153939406005,-0.000178436483596,0.999999956215,0.0,0.0,0.0,0.0,0.0,0.0
1609046864690949917,229,1609046864690949917,-0.00963153101022,0.0160419702769,-0.000789938957911,2.44228046385e-05,0.000153049621462,-0.000387670325298,0.999999912845,0.0,0.0,0.0,0.0,0.0,0.0
1609046864793971539,230,1609046864793971539,-0.0147601837756,0.0209174050996,-0.000240577224488,-0.000158965743813,0.000102607987824,-0.000308686062444,0.999999934457,0.0,0.0,0.0,0.0,0.0,0.0
1609046864898176908,231,1609046864898176908,-0.00604321723676,0.0151326104358,0.00218102879139,5.56007239949e-05,0.000119068994205,-0.00026350192556,0.999999956649,0.0,0.0,0.0,0.0,0.0,0.0
1609046865000480890,232,1609046865000480890,-0.0023289483204,0.0193652811262,0.000310513005968,0.000140898709986,-0.000222258518815,-0.000172026062629,0.999999950578,0.0,0.0,0.0,0.0,0.0,0.0
1609046865070817232,233,1609046865070817232,-0.00985093476172,0.0153519661792,0.00180297578953,-0.000272734773004,0.000175827903888,-0.000301147803861,0.999999902005,0.0,0.0,0.0,0.0,0.0,0.0
1609046865172594070,234,1609046865172594070,-0.0110885553394,0.0138379062843,-0.000890356926709,0.000411790620698,4.42432954401e-05,-0.000209732535109,0.999999892241,0.0,0.0,0.0,0.0,0.0,0.0
1609046865275635719,235,1609046865275635719,-0.0146527802153,0.0206870959773,-0.00183607400318,0.000458973427385,-4.68948013311e-05,-0.000365631600908,0.999999826729,0.0,0.0,0.0,0.0,0.0,0.0
1609046865378703117,236,1609046865378703117,-0.0164994710631,0.0171728084782,0.000573930339326,-0.000195088495395,0.000486337640835,-0.000498043509996,0.999999738684,0.0,0.0,0.0,0.0,0.0,0.0
1609046865481900930,237,1609046865481900930,0.0039279669385,0.0237723180535,-0.000903850816507,0.000279327871048,-7.12538442989e-05,-0.000369798400881,0.999999890074,0.0,0.0,0.0,0.0,0.0,0.0
1609046865584841251,238,1609046865584841251,-0.00649309476373,0.0229807269195,0.000464834801847,-0.000573034728878,-0.000304240045889,-0.000274722331269,0.999999751798,0.0,0.0,0.0,0.0,0.0,0.0
1609046865688065052,239,1609046865688065052,-0.00190055947133,0.0131405643136,0.000888605308556,-0.000299178739508,0.0003508967821,-0.000130125185806,0.999999885215,0.0,0.0,0.0,0.0,0.0,0.0
1609046865790968895,240,1609046865790968895,-0.00938123468569,0.0147957732017,0.000452067022277,-7.16085690619e-05,-0.000258278915003,0.000100338325245,0.999999959048,0.0,0.0,0.0,0.0,0.0,0.0
1609046865894009829,241,1609046865894009829,-0.00887471088661,0.0179338007265,-0.000462600978087,0.000293676382114,0.000297127117629,-0.000313409668068,0.999999863622,0.0,0.0,0.0,0.0,0.0,0.0
1609046865997380495,242,1609046865997380495,-0.00892070736853,0.0145248577044,-0.00125356492063,-0.000457714967315,-1.42317785625e-05,-0.000115893791729,0.999999888431,0.0,0.0,0.0,0.0,0.0,0.0
1609046866100607634,243,1609046866100607634,-0.00513620884975,0.0192450991001,0.00286061349029,-0.00084321092184,-0.0004303847236,-3.31396018147e-06,0.999999551876,0.0,0.0,0.0,0.0,0.0,0.0
1609046866170928717,244,1609046866170928717,-0.00143171038155,0.0159842978139,0.000471714357329,-0.000500037725284,3.47937546715e-05,2.38996970517e-05,0.99999987409,0.0,0.0,0.0,0.0,0.0,0.0
1609046866272918463,245,1609046866272918463,-0.0139414466689,0.0150228978167,-0.00126704779004,0.00105875810991,0.000426012771751,-0.000382789799771,0.999999275508,0.0,0.0,0.0,0.0,0.0,0.0
1609046866376024961,246,1609046866376024961,-0.00881669315174,0.0164910596771,0.000687021065393,-8.98334903637e-05,-7.51002434209e-05,-0.000230629003361,0.99999996655,0.0,0.0,0.0,0.0,0.0,0.0
1609046866479067564,247,1609046866479067564,-0.00634887788809,0.0180719999085,0.00143460298673,-0.000173622663814,4.08582863391e-05,-0.000400253109045,0.999999903991,0.0,0.0,0.0,0.0,0.0,0.0
1609046866581962109,248,1609046866581962109,-0.00388654478016,0.0161546281167,0.00109201085565,-0.000436172597327,-5.58519129146e-05,-0.000144821819069,0.99999989283,0.0,0.0,0.0,0.0,0.0,0.0
1609046866685087919,249,1609046866685087919,-0.0121100209927,0.0217638603488,8.31227655313e-05,-0.000521925919564,-0.00019941726218,-0.00013950156565,0.999999834182,0.0,0.0,0.0,0.0,0.0,0.0
1609046866788161278,250,1609046866788161278,-0.0107766146263,0.0193465903368,0.00102188990416,0.000214031739699,0.000139248382783,-0.000422893710401,0.99999987798,0.0,0.0,0.0,0.0,0.0,0.0
1609046866891152382,251,1609046866891152382,-0.00786562817699,0.0149469400427,0.00077049073071,0.000336342966066,-2.34974744032e-05,-0.000131018037626,0.999999934577,0.0,0.0,0.0,0.0,0.0,0.0
1609046866994258642,252,1609046866994258642,-0.0125401930789,0.011343342364,-0.00304576640012,0.000199761482824,-0.000162857080297,-0.000101151120291,0.99999996167,0.0,0.0,0.0,0.0,0.0,0.0
1609046867097453356,253,1609046867097453356,-0.00498654791836,0.0198432595013,0.00100457294951,-0.000203388957577,-0.000199629781974,-0.000344769938231,0.999999899957,0.0,0.0,0.0,0.0,0.0,0.0
1609046867200194836,254,1609046867200194836,-0.0229868056915,0.0181082023058,0.000474390551399,3.95142672893e-05,0.000302495384278,-0.000416642181356,0.999999866672,0.0,0.0,0.0,0.0,0.0,0.0
1609046867270612240,255,1609046867270612240,-0.00259987625672,0.0147372088648,-0.00069941231328,0.000498604475406,0.000252219247903,-0.000237139494151,0.999999815772,0.0,0.0,0.0,0.0,0.0,0.0
1609046867372594833,256,1609046867372594833,-0.0112694283921,0.0211279822724,-0.0010803185418,0.000507635635725,0.000168974788074,-0.000437542350618,0.999999761155,0.0,0.0,0.0,0.0,0.0,0.0
1609046867475284100,257,1609046867475284100,-0.0168330996169,0.023348318734,-0.000669321904909,-5.72567885172e-05,-0.000518335911514,-0.00058742356263,0.999999691491,0.0,0.0,0.0,0.0,0.0,0.0
1609046867578359365,258,1609046867578359365,-0.00267589394095,0.0198980388662,0.00137400869488,0.000257731008119,0.000627158163668,-0.00016800179389,0.999999756011,0.0,0.0,0.0,0.0,0.0,0.0
1609046867681569576,259,1609046867681569576,-0.00867244360673,0.0167108520156,-0.000835841151274,0.000161076263192,-0.000173990117572,-0.000550754313395,0.999999820225,0.0,0.0,0.0,0.0,0.0,0.0
1609046867784730673,260,1609046867784730673,-0.00930183796227,0.017125795492,0.000468362723564,0.000405083268995,3.08190507433e-05,-0.000172807651202,0.999999902547,0.0,0.0,0.0,0.0,0.0,0.0
1609046867887934685,261,1609046867887934685,-0.00721918615133,0.0212251538856,0.000300230553231,-0.000171179348843,-0.000350988180159,-0.000199646211444,0.999999903823,0.0,0.0,0.0,0.0,0.0,0.0
1609046867991075516,262,1609046867991075516,-0.0150536522432,0.013630568371,-0.00119232172474,0.000458682183916,1.94378767841e-05,-0.000418808816957,0.999999806916,0.0,0.0,0.0,0.0,0.0,0.0
1609046868094160080,263,1609046868094160080,-0.018642009069,0.0210098859118,0.000515959185267,-0.000365801929084,-7.99108761039e-05,-0.000439899019409,0.999999833146,0.0,0.0,0.0,0.0,0.0,0.0
1609046868197501183,264,1609046868197501183,-0.000156580982686,0.0199086851028,-0.000438246910288,0.000141768195631,1.93576123401e-05,-0.000248585500225,0.999999958866,0.0,0.0,0.0,0.0,0.0,0.0
1609046868300450563,265,1609046868300450563,-0.010272308304,0.0200504183403,-0.000875880299902,0.00068019294183,0.000444621271964,-0.000506798580488,0.999999541402,0.0,0.0,0.0,0.0,0.0,0.0
1609046868370687008,266,1609046868370687008,-0.0116588563777,0.0201148074128,-0.0012385070567,0.000119832848977,-0.000399007289962,-0.000291709780168,0.999999870669,0.0,0.0,0.0,0.0,0.0,0.0
1609046868472593546,267,1609046868472593546,-0.0123850735532,0.0209581451353,0.000839150827456,-0.000232576412526,0.000118587572337,-0.000656756667739,0.999999750257,0.0,0.0,0.0,0.0,0.0,0.0
1609046868575545788,268,1609046868575545788,-0.00476981789528,0.0235365325536,0.0018128125969,-0.00062125762039,-0.000347082933165,-7.41864729267e-05,0.999999744034,0.0,0.0,0.0,0.0,0.0,0.0
1609046868678578377,269,1609046868678578377,-0.0107132070272,0.0156986131286,0.00187817832165,-0.00032910103936,0.000526763638702,-6.32659918507e-05,0.999999805104,0.0,0.0,0.0,0.0,0.0,0.0
1609046868781983376,270,1609046868781983376,-0.00517504511723,0.0182682194554,-0.00147739064724,0.000178437814706,-0.000441713643063,-0.000261955853754,0.999999852214,0.0,0.0,0.0,0.0,0.0,0.0
1609046868884860277,271,1609046868884860277,-0.00605004623586,0.0230418553163,-0.000720440718108,-4.7682661099e-05,0.000460616741941,-0.000309227941061,0.999999844968,0.0,0.0,0.0,0.0,0.0,0.0
1609046868987967014,272,1609046868987967014,-0.0156924341927,0.019385029715,0.00288870957638,-0.000174223002556,4.88449543366e-05,-0.000375114655151,0.999999913274,0.0,0.0,0.0,0.0,0.0,0.0
1609046869090998173,273,1609046869090998173,-0.0068402554848,0.0199939845147,-0.000245233996487,9.71640042225e-05,6.90078800849e-05,-0.000293767971167,0.999999949748,0.0,0.0,0.0,0.0,0.0,0.0
1609046869194227219,274,1609046869194227219,-0.0162018566046,0.0158400249232,-6.58173589593e-05,0.000852689858875,0.000618461957503,-0.000435199559563,0.999999350512,0.0,0.0,0.0,0.0,0.0,0.0
1609046869297960281,275,1609046869297960281,-0.00881836930258,0.018709431584,-0.00209458154608,0.000241526082825,0.000155506495939,-0.000311330242132,0.999999910278,0.0,0.0,0.0,0.0,0.0,0.0
1609046869400494814,276,1609046869400494814,-0.0129848143259,0.0210450828125,0.00141882169279,0.000211004412332,-6.09903233072e-05,-0.000486779119854,0.999999857401,0.0,0.0,0.0,0.0,0.0,0.0
1609046869470755339,277,1609046869470755339,-0.0111289887547,0.0163432356796,-0.000525179986422,0.000855518469309,0.000409706290456,-0.000426102947325,0.999999459332,0.0,0.0,0.0,0.0,0.0,0.0
1609046869572643518,278,1609046869572643518,-0.00815397265912,0.0210956432638,-0.00190568724073,0.000398055823357,0.000110568263421,-0.000284125761937,0.999999874299,0.0,0.0,0.0,0.0,0.0,0.0
1609046869675712109,279,1609046869675712109,-0.00277311111051,0.020615254852,2.15453848399e-05,0.000178875453281,-0.000184095621909,-0.000438769000557,0.999999870797,0.0,0.0,0.0,0.0,0.0,0.0
1609046869778297901,280,1609046869778297901,-0.00949603058021,0.0222824641572,0.000331544166087,-0.000314529671054,-0.000205732585198,-0.000204713249666,0.999999908418,0.0,0.0,0.0,0.0,0.0,0.0
1609046869882037878,281,1609046869882037878,-0.00688412192233,0.0199459313131,-0.00136234655362,0.000301248819267,-0.000241119531234,-0.000243788150507,0.999999895838,0.0,0.0,0.0,0.0,0.0,0.0
1609046869985094547,282,1609046869985094547,-0.0144251939442,0.0157537241153,0.000302127329165,-0.00023437132529,-0.000230094080572,-8.08898127112e-05,0.999999942791,0.0,0.0,0.0,0.0,0.0,0.0
1609046870088393211,283,1609046870088393211,-0.00665812698415,0.021684743616,-0.000666965743445,-0.000280227074222,0.000229977521195,-0.000459033220801,0.999999828935,0.0,0.0,0.0,0.0,0.0,0.0
1609046870191456318,284,1609046870191456318,-0.0105004751105,0.0153310505841,5.02060276756e-06,-4.55270047707e-05,-0.000146688853487,-0.000116562684659,0.999999981411,0.0,0.0,0.0,0.0,0.0,0.0
1609046870294465303,285,1609046870294465303,-0.0181993783764,0.018701183101,-0.000289516413068,8.89768056246e-05,0.000268462184106,-0.000397912987258,0.999999880838,0.0,0.0,0.0,0.0,0.0,0.0
1609046870397612810,286,1609046870397612810,-0.0114547567219,0.021196810453,0.000256836282168,0.000297031942742,0.000115160712706,-0.000424446362975,0.999999859177,0.0,0.0,0.0,0.0,0.0,0.0
1609046870500520945,287,1609046870500520945,-0.00621288562816,0.0151237028942,-0.00213063021201,0.000447324147935,0.000169971458644,-0.000279589434778,0.99999984642,0.0,0.0,0.0,0.0,0.0,0.0
1609046870570791006,288,1609046870570791006,-0.0163813014768,0.0218827277594,0.00176790635137,-0.00015543714967,-0.000241125757352,-0.000153822651074,0.999999947018,0.0,0.0,0.0,0.0,0.0,0.0
1609046870672641754,289,1609046870672641754,-0.0115533514325,0.0191653407892,0.00044924483289,-0.000137631983835,0.00039385222043,-0.000643549229672,0.999999705891,0.0,0.0,0.0,0.0,0.0,0.0
1609046870775317669,290,1609046870775317669,-0.00250540638042,0.0129559217995,0.000821306617271,0.000291325694438,0.000100008268467,-0.000149444375605,0.999999941396,0.0,0.0,0.0,0.0,0.0,0.0
1609046870878636837,291,1609046870878636837,-0.0184675850192,0.0279502784908,-0.00190081435592,9.15340452646e-06,-7.83325971031e-05,-0.000639880041962,0.999999792166,0.0,0.0,0.0,0.0,0.0,0.0
1609046870982064724,292,1609046870982064724,-0.00255028427264,0.0151533580553,0.00335690984016,0.000506293327218,0.000441648780702,-0.00011229467828,0.999999768001,0.0,0.0,0.0,0.0,0.0,0.0
1609046871084966898,293,1609046871084966898,-0.00333809236713,0.0152798901211,0.000763824484195,0.000157785850116,0.000259452360534,-0.000576541734618,0.999999787693,0.0,0.0,0.0,0.0,0.0,0.0
1609046871188114166,294,1609046871188114166,-0.00530328855162,0.0197701122458,0.00142414890864,0.0001016538638,-3.58587185083e-05,-0.000316250003251,0.999999944183,0.0,0.0,0.0,0.0,0.0,0.0
1609046871291294813,295,1609046871291294813,-0.0228541001301,0.0182668385399,-0.000266561035842,0.000308822034547,0.00017260452329,-0.000459486784508,0.999999831854,0.0,0.0,0.0,0.0,0.0,0.0
1609046871394364595,296,1609046871394364595,-0.0110429545704,0.0205976993831,-0.000825628315639,0.000483533296207,0.000273848633539,-0.000496004573079,0.99999972259,0.0,0.0,0.0,0.0,0.0,0.0
1609046871497316837,297,1609046871497316837,-0.00407986122959,0.0161977757742,0.000725308518227,3.16337667613e-05,0.000318406289334,-0.000445937820263,0.999999849377,0.0,0.0,0.0,0.0,0.0,0.0
1609046871600325823,298,1609046871600325823,-0.0141424373839,0.0162452434149,-4.46502807578e-05,0.000194718893077,6.02328304587e-05,-0.000413377767535,0.999999893787,0.0,0.0,0.0,0.0,0.0,0.0
1609046871670673609,299,1609046871670673609,-0.0194092113704,0.0236529174837,0.000613278013872,-0.000356449483135,-1.75671874702e-05,-0.000368006854621,0.999999868602,0.0,0.0,0.0,0.0,0.0,0.0
1609046871772479534,300,1609046871772479534,-0.020195529722,0.0198475965116,0.00112590620729,0.00011213935793,2.18203519675e-05,-0.000387286855495,0.999999918478,0.0,0.0,0.0,0.0,0.0,0.0
1609046871875357151,301,1609046871875357151,-0.00729678359421,0.0125266573023,0.000294836018614,0.0004767049683,0.000439964692144,-0.000296587895472,0.999999745609,0.0,0.0,0.0,0.0,0.0,0.0
1609046871978432178,302,1609046871978432178,-0.0149565651239,0.0208215219085,0.00184630607538,0.000474974102178,0.000409838132775,-0.000492724551041,0.999999681827,0.0,0.0,0.0,0.0,0.0,0.0
1609046872081956148,303,1609046872081956148,-0.0202732166972,0.0201306637577,-0.000285930918977,0.000294919134322,0.000597974827407,-0.000532126010202,0.999999636145,0.0,0.0,0.0,0.0,0.0,0.0
1609046872184604168,304,1609046872184604168,-0.0121022928905,0.0230878433008,0.000479085471088,-0.000286963070645,-0.000184807611115,-0.000489366509605,0.999999822009,0.0,0.0,0.0,0.0,0.0,0.0
1609046872287814617,305,1609046872287814617,-0.0180532183764,0.0133925115147,-0.0026948998963,-1.22943996253e-05,-4.89613953513e-05,-0.000281208144312,0.999999959186,0.0,0.0,0.0,0.0,0.0,0.0
1609046872391087055,306,1609046872391087055,-0.0101290400449,0.0202835135562,-0.000596768919608,-0.000104325397566,-0.000248243701301,-0.000355096637789,0.999999900698,0.0,0.0,0.0,0.0,0.0,0.0
1609046872494340420,307,1609046872494340420,-0.0206759296794,0.0171068839511,0.00117596067292,-2.37934341958e-05,0.000385039472961,-0.000451046531303,0.999999823867,0.0,0.0,0.0,0.0,0.0,0.0
1609046872598186255,308,1609046872598186255,-0.0180720634204,0.0191092704321,2.57448862085e-05,0.000164259449376,9.10032308971e-05,-0.00030343916031,0.99999993633,0.0,0.0,0.0,0.0,0.0,0.0
1609046872700405836,309,1609046872700405836,-0.00722071539443,0.0152682282444,-0.0018376870579,0.000285409027692,-0.000263815060923,-0.000230167420193,0.999999897982,0.0,0.0,0.0,0.0,0.0,0.0
1609046872770752430,310,1609046872770752430,-0.00966551561298,0.0173132527359,0.00295471752569,-0.000280194715139,0.000369475829577,-0.000310490912388,0.999999844286,0.0,0.0,0.0,0.0,0.0,0.0
1609046872873307705,311,1609046872873307705,-0.0083152466193,0.0160344236887,-0.000445001214217,0.000286069044755,0.000422961628178,-0.000400225896712,0.999999789543,0.0,0.0,0.0,0.0,0.0,0.0
1609046872975540161,312,1609046872975540161,-0.0123803836551,0.0197854256869,0.0018844845785,-0.000194428443141,-0.000293533508412,-0.000283076606793,0.999999897951,0.0,0.0,0.0,0.0,0.0,0.0
1609046873078626156,313,1609046873078626156,-0.0122275185268,0.0192817815809,0.00178747062901,-0.000264842415121,-0.000282426812282,-0.000232213262211,0.999999898085,0.0,0.0,0.0,0.0,0.0,0.0
1609046873181701660,314,1609046873181701660,-0.0139215894387,0.0141698695036,-0.000845239751488,0.000270350943365,-0.000114053905908,-0.000397742165062,0.999999877851,0.0,0.0,0.0,0.0,0.0,0.0
1609046873284642935,315,1609046873284642935,-0.014509617266,0.0173379389456,9.98152423457e-05,0.000241728968419,0.000828393573168,-0.000579628842966,0.99999945968,0.0,0.0,0.0,0.0,0.0,0.0
1609046873387748480,316,1609046873387748480,-0.0147486203414,0.0173764758223,-0.000855368292424,0.000575347408244,-3.08001801008e-05,-0.000411109760137,0.999999749507,0.0,0.0,0.0,0.0,0.0,0.0
1609046873491244078,317,1609046873491244078,-0.00869649662888,0.0188713724036,0.000770755168768,-0.000125135000598,-0.000187444159948,-0.000484765354597,0.999999857104,0.0,0.0,0.0,0.0,0.0,0.0
1609046873593942642,318,1609046873593942642,-0.0114868419489,0.0215421439211,0.00185061509259,-0.00029422851908,0.000132348829145,-0.000633984072136,0.999999746988,0.0,0.0,0.0,0.0,0.0,0.0
1609046873697649479,319,1609046873697649479,-0.0133625338222,0.0217368233687,-0.00224948671582,-0.000706764073038,-0.000571804654144,-0.000429335354892,0.999999494597,0.0,0.0,0.0,0.0,0.0,0.0
1609046873800377131,320,1609046873800377131,-0.0186481677256,0.0201261899527,0.000831114054202,-0.000307858315818,-0.000230421621686,-0.000448262166425,0.999999825594,0.0,0.0,0.0,0.0,0.0,0.0
1609046873870646000,321,1609046873870646000,-0.0134019876615,0.01861317538,-4.87221580552e-05,0.000438385402108,9.85956630361e-05,-0.000556053279197,0.99999974445,0.0,0.0,0.0,0.0,0.0,0.0
1609046873972507000,322,1609046873972507000,-0.0187608386365,0.0163172716499,-0.000278742039955,-0.000291291694019,-0.000242151216424,-0.000284563213817,0.999999887767,0.0,0.0,0.0,0.0,0.0,0.0
1609046874075507641,323,1609046874075507641,-0.0125009120017,0.0236147437836,-0.000658460218556,4.254422883e-05,0.000255210103445,-0.000355928249049,0.999999903186,0.0,0.0,0.0,0.0,0.0,0.0
1609046874178455114,324,1609046874178455114,-0.0113528057767,0.0126754749955,-0.000854535325102,0.000349957350818,-0.000247171641952,-0.000280115078199,0.999999868985,0.0,0.0,0.0,0.0,0.0,0.0
1609046874281796217,325,1609046874281796217,-0.0186741088971,0.0164189355707,-0.00122056799352,0.000562458734694,0.000376104891706,-0.000556429350985,0.999999616285,0.0,0.0,0.0,0.0,0.0,0.0
1609046874384667873,326,1609046874384667873,-0.0164836428752,0.018462200209,-0.000462485574466,0.000215721743606,6.83313401744e-05,-0.000351844068333,0.9999999125,0.0,0.0,0.0,0.0,0.0,0.0
1609046874487864017,327,1609046874487864017,-0.00425281031756,0.0181116225887,0.000735307745183,-6.70421827749e-05,0.000117186551939,-0.000382271925834,0.99999991782,0.0,0.0,0.0,0.0,0.0,0.0
1609046874590837479,328,1609046874590837479,-0.011898642978,0.0136426241819,-0.000165641167455,-0.000142350984688,7.88709306055e-05,-0.000176049814049,0.99999997126,0.0,0.0,0.0,0.0,0.0,0.0
1609046874693987608,329,1609046874693987608,-0.0125270210931,0.0180447191139,-0.00142515794898,0.000109222944637,0.000311949394612,-0.00061799767755,0.999999754418,0.0,0.0,0.0,0.0,0.0,0.0
1609046874797785521,330,1609046874797785521,-0.00983949126137,0.0199027341958,0.000640837039165,0.000664497202224,0.000417161963982,-0.000176977433891,0.999999676548,0.0,0.0,0.0,0.0,0.0,0.0
1609046874900197983,331,1609046874900197983,-0.0199509251836,0.0172454552886,-0.00255809826766,0.000227256463344,-0.000209424948671,-0.000333432204569,0.999999896659,0.0,0.0,0.0,0.0,0.0,0.0
1609046874970544338,332,1609046874970544338,-0.0155274907095,0.0212401855497,-0.000863127326313,-0.000405346038963,0.000421990402537,-0.000500122144759,0.999999703747,0.0,0.0,0.0,0.0,0.0,0.0
1609046875072383642,333,1609046875072383642,-0.00885683273348,0.0149532799905,0.00155359886648,-9.33326272976e-05,0.00057745536825,-0.000601467928743,0.999999648034,0.0,0.0,0.0,0.0,0.0,0.0
1609046875175513983,334,1609046875175513983,-0.0183770172278,0.0148866796882,0.000577635839113,0.00080072220512,7.53593613631e-05,-0.000316678548034,0.999999626439,0.0,0.0,0.0,0.0,0.0,0.0
1609046875278715372,335,1609046875278715372,-0.000316381625144,0.0141396398471,-0.000530846909768,0.000475169664011,0.000139134840025,-0.000105002057939,0.999999871914,0.0,0.0,0.0,0.0,0.0,0.0
1609046875382138252,336,1609046875382138252,-0.0106322178631,0.0183107590472,0.00123824667887,-0.000475001941135,-2.75508451673e-05,-0.000442422582298,0.999999788937,0.0,0.0,0.0,0.0,0.0,0.0
1609046875484779835,337,1609046875484779835,-0.00754066484441,0.0141859427834,0.000859971755742,0.00069016085476,0.000494180038893,-6.70204006394e-05,0.999999637485,0.0,0.0,0.0,0.0,0.0,0.0
1609046875588176489,338,1609046875588176489,-0.0146429061966,0.0136922589629,-0.000790054240657,-7.66449565373e-05,-0.000440253859027,-0.00033400851032,0.999999844369,0.0,0.0,0.0,0.0,0.0,0.0
1609046875691165924,339,1609046875691165924,-0.00783199411669,0.0179602539895,-0.00010489102545,-2.85316833374e-05,-0.000136922959925,-0.000311300485473,0.999999941764,0.0,0.0,0.0,0.0,0.0,0.0
1609046875794065714,340,1609046875794065714,-0.00919883699574,0.0183581175601,-0.000372296691237,4.99629509636e-05,0.000169638716776,-0.000275346534251,0.999999946455,0.0,0.0,0.0,0.0,0.0,0.0
1609046875897170782,341,1609046875897170782,-0.0101729167566,0.018435021248,-0.0012045961721,0.00034302583748,-0.000439355148504,-0.000546482678012,0.999999695328,0.0,0.0,0.0,0.0,0.0,0.0
1609046876000116110,342,1609046876000116110,-0.00840804880828,0.0134938695624,0.000734664128381,0.00042641256585,-2.13186920072e-07,-4.30784719132e-05,0.999999908157,0.0,0.0,0.0,0.0,0.0,0.0
