%time,field.header.seq,field.header.stamp,field.pose.pose.position.x,field.pose.pose.position.y,field.pose.pose.position.z,field.pose.pose.orientation.x,field.pose.pose.orientation.y,field.pose.pose.orientation.z,field.pose.pose.orientation.w,field.twist.twist.linear.x,field.twist.twist.linear.y,field.twist.twist.linear.z,field.twist.twist.angular.x,field.twist.twist.angular.y,field.twist.twist.angular.z
1609043646757744074,34,1609043646757744074,0.0127079059851,0.00140743622397,-0.00563390719802,0.000146221393571,-0.000353406420232,-2.86227168153e-05,0.999999926452,0.0,0.0,0.0,0.0,0.0,0.0
1609043646868740320,35,1609043646868740320,0.00618002756209,0.0113081963232,-0.00472318866311,-0.000226824360456,-0.00023456994297,-1.18944215938e-05,0.999999946693,0.0,0.0,0.0,0.0,0.0,0.0
1609043646962521076,36,1609043646962521076,0.0116742366461,0.0152877063091,-0.00368393947795,0.000224875823002,-0.000199133142064,-0.000218858723499,0.999999930939,0.0,0.0,0.0,0.0,0.0,0.0
1609043647057955742,37,1609043647057955742,0.013923922176,0.00599780130797,-0.00280092821246,0.000280789936222,-0.000242521688923,-0.000269821511488,0.999999894768,0.0,0.0,0.0,0.0,0.0,0.0
1609043647168937922,38,1609043647168937922,0.0148891467284,0.00863394217608,-0.00203355652585,-0.000347426686912,0.000141539544701,-6.76939470275e-05,0.999999927339,0.0,0.0,0.0,0.0,0.0,0.0
1609043647262681484,39,1609043647262681484,0.0137339182239,0.0123164359279,-0.00298079475894,0.00020767791992,-0.00038591104411,-0.000134243454364,0.999999894961,0.0,0.0,0.0,0.0,0.0,0.0
1609043647358197689,40,1609043647358197689,0.015817216055,0.00861444295853,-0.00372366409078,-4.23376782446e-05,7.19420924338e-05,-0.000172051657382,0.999999981715,0.0,0.0,0.0,0.0,0.0,0.0
1609043647468885422,41,1609043647468885422,0.0143614188243,0.00665469072781,-0.00353572443351,0.000196728461379,-9.97267099574e-05,-2.64164062707e-05,0.999999975327,0.0,0.0,0.0,0.0,0.0,0.0
1609043647562643766,42,1609043647562643766,0.0133616303298,0.00986075178525,-0.00631602809629,-0.00011273756792,-0.000312593245524,7.49064888614e-06,0.99999994476,0.0,0.0,0.0,0.0,0.0,0.0
1609043647657835484,43,1609043647657835484,0.00750429585839,0.00832979482913,-0.00347205840909,0.000101304288598,-0.000422735536224,-0.000157251234762,0.999999893152,0.0,0.0,0.0,0.0,0.0,0.0
1609043647769203424,44,1609043647769203424,0.0116783974584,0.0109575541404,-0.00531408718387,0.000183805706928,-0.000472967034447,-0.000145656534511,0.999999860651,0.0,0.0,0.0,0.0,0.0,0.0
1609043647862541199,45,1609043647862541199,0.0100886926178,0.00472225736163,-0.00369083640823,0.000130838623867,-0.000187009890916,6.84978346232e-05,0.999999971608,0.0,0.0,0.0,0.0,0.0,0.0
1609043647957784891,46,1609043647957784891,0.0136580103339,0.0153153273043,-0.00418149070508,0.000177918975333,-5.62322748109e-05,-0.000204399623665,0.999999961702,0.0,0.0,0.0,0.0,0.0,0.0
1609043648068687439,47,1609043648068687439,0.0163237648882,0.0061045061329,-0.00239670170171,7.52777561946e-05,-4.71145806649e-05,-9.5539929723e-05,0.999999991493,0.0,0.0,0.0,0.0,0.0,0.0
1609043648162494183,48,1609043648162494183,0.0105338396426,0.0100216307512,-0.0016744381683,-0.00018075670155,9.98126731407e-05,-6.07856560733e-06,0.999999978664,0.0,0.0,0.0,0.0,0.0,0.0
1609043648257946968,49,1609043648257946968,0.0153859908271,0.00570648252702,-0.00266155949383,0.000109331869027,-0.000420564252214,-6.08117780702e-06,0.999999905568,0.0,0.0,0.0,0.0,0.0,0.0
1609043648369037151,50,1609043648369037151,0.0148376426691,0.00633301483203,-0.0055666324021,0.00021484858348,-0.00042155120436,-0.00021314416862,0.999999865352,0.0,0.0,0.0,0.0,0.0,0.0
1609043648462505102,51,1609043648462505102,0.0185130425695,0.00567867321462,-0.00375910099643,1.66340268319e-05,0.000248924272952,5.97610933448e-05,0.999999967094,0.0,0.0,0.0,0.0,0.0,0.0
1609043648557770014,52,1609043648557770014,0.0146190020995,0.00441950836409,-0.00559633928641,0.00035815139783,-0.000272384920288,-3.16736702364e-05,0.999999898265,0.0,0.0,0.0,0.0,0.0,0.0
1609043648668736219,53,1609043648668736219,0.0197122572042,0.00915651505628,-0.00374796002601,0.000230295926945,-0.000262014185436,-7.82991119044e-05,0.999999936091,0.0,0.0,0.0,0.0,0.0,0.0
1609043648762487411,54,1609043648762487411,0.0102056156864,0.00674324725386,-0.00384180551361,0.000152439869126,-0.000275293104322,-1.55054965464e-05,0.999999950368,0.0,0.0,0.0,0.0,0.0,0.0
1609043648857475996,55,1609043648857475996,0.013055958315,0.019643060247,-0.00337554345211,0.000129530048038,0.000100356421656,-0.000253666549571,0.999999954402,0.0,0.0,0.0,0.0,0.0,0.0
1609043648968594790,56,1609043648968594790,0.0133943472949,0.00596586281028,-0.00390866336135,0.0002887237298,-0.000256205517535,-5.30858733419e-05,0.99999992409,0.0,0.0,0.0,0.0,0.0,0.0
1609043649062355757,57,1609043649062355757,0.0131561897918,0.0172204190625,-0.00146916777018,-0.00019593837515,-3.80614135211e-05,-9.64695302209e-05,0.999999975427,0.0,0.0,0.0,0.0,0.0,0.0
1609043649157798290,58,1609043649157798290,0.0153235131111,0.00696962672917,-0.00356623110079,9.8127570449e-05,-0.000360803693425,-6.76461519108e-05,0.999999927808,0.0,0.0,0.0,0.0,0.0,0.0
1609043649268594980,59,1609043649268594980,0.0155010831898,0.0115179012743,-0.00347694159769,0.000238307422164,-0.000189779743265,-0.000193642609947,0.999999934848,0.0,0.0,0.0,0.0,0.0,0.0
1609043649362310410,60,1609043649362310410,0.0155885039255,0.00813478677435,-0.00379519364305,1.20879495382e-06,-0.000224530416146,-0.000103281887857,0.999999969459,0.0,0.0,0.0,0.0,0.0,0.0
1609043649457795382,61,1609043649457795382,0.00796708484665,0.0159077461922,-0.00423105619073,-8.83096039674e-05,-9.94357869868e-05,-0.00041184815539,0.999999906347,0.0,0.0,0.0,0.0,0.0,0.0
1609043649568291664,62,1609043649568291664,0.0229544320647,0.00581072527047,-0.00369663175104,0.000157986484659,-0.000185444992413,-0.000143581992494,0.999999960017,0.0,0.0,0.0,0.0,0.0,0.0
1609043649662141562,63,1609043649662141562,0.0166001718829,0.00122659251548,0.000149994746897,1.72515493844e-05,2.78135794754e-05,1.15221405545e-06,0.999999999464,0.0,0.0,0.0,0.0,0.0,0.0
1609043649757415295,64,1609043649757415295,0.0104046191026,0.0168419059354,-0.0041983299967,0.000126737830302,-0.000539412345071,-9.60135695226e-05,0.999999841877,0.0,0.0,0.0,0.0,0.0,0.0
1609043649868411541,65,1609043649868411541,0.0158879645116,0.00579197395244,-0.00266134957823,-3.48600960401e-05,-0.000301869378987,2.04764046585e-05,0.99999995362,0.0,0.0,0.0,0.0,0.0,0.0
1609043649962271690,66,1609043649962271690,0.0196034584778,0.0132415394087,-0.00495245444287,0.000226550938962,9.05387485042e-05,-3.17943066636e-05,0.999999969733,0.0,0.0,0.0,0.0,0.0,0.0
1609043650057523012,67,1609043650057523012,0.0121945326425,0.0145791084906,-0.0032661936233,5.04883374723e-05,-0.00016671478281,-0.00018768401975,0.999999967216,0.0,0.0,0.0,0.0,0.0,0.0
1609043650168541908,68,1609043650168541908,0.0177008817175,0.00902108888664,-0.000185944694438,-0.000107586714185,3.6981541206e-05,-9.33030356688e-05,0.999999989176,0.0,0.0,0.0,0.0,0.0,0.0
1609043650262203693,69,1609043650262203693,0.0174348685103,0.0233645395857,-0.00453952079548,1.752832937e-05,-0.000173574299232,9.81578856797e-06,0.999999984734,0.0,0.0,0.0,0.0,0.0,0.0
1609043650357485294,70,1609043650357485294,0.0124089649674,0.00994148064281,-0.00598290691845,0.000470367721506,-0.000421434975009,-0.000356801755421,0.99999973692,0.0,0.0,0.0,0.0,0.0,0.0
1609043650468751192,71,1609043650468751192,0.0175215373178,0.0066231602874,-0.00354744598657,0.000200872952074,-0.000133772984237,4.32866952051e-05,0.999999969941,0.0,0.0,0.0,0.0,0.0,0.0
1609043650562211752,72,1609043650562211752,0.0175113439301,0.00910817802671,-0.0005602124232,0.000137015155312,6.05567247178e-06,1.57545336529e-05,0.999999990471,0.0,0.0,0.0,0.0,0.0,0.0
1609043650657418489,73,1609043650657418489,0.0205869545597,0.00823344554444,-0.00402685464279,7.14970388518e-05,-2.8109562885e-05,1.39168562712e-05,0.999999996952,0.0,0.0,0.0,0.0,0.0,0.0
1609043650768271446,74,1609043650768271446,0.0190617523995,0.00551288730705,-0.00644610443829,0.000419660787172,-0.000263696461332,-0.000205346857757,0.999999856091,0.0,0.0,0.0,0.0,0.0,0.0
1609043650862178802,75,1609043650862178802,0.0186346578944,0.011912007559,-0.00398709421816,3.63782544836e-05,3.51750467162e-05,-0.000155948536362,0.99999998656,0.0,0.0,0.0,0.0,0.0,0.0
1609043650957247257,76,1609043650957247257,0.0176856657645,0.0161491079193,-0.00401831642662,-5.55909043398e-05,-0.00010563127839,-0.000354960510937,0.999999929877,0.0,0.0,0.0,0.0,0.0,0.0
1609043651068470478,77,1609043651068470478,0.012844775015,0.00948646233093,-0.00459138062181,0.0003719320773,-0.000213834655606,4.74647161437e-05,0.999999906844,0.0,0.0,0.0,0.0,0.0,0.0
1609043651162469625,78,1609043651162469625,0.0204720801983,0.0167141416497,-0.00516475651048,-6.245838267e-05,-0.000487110788274,-0.000324336393698,0.999999826814,0.0,0.0,0.0,0.0,0.0,0.0
1609043651257454872,79,1609043651257454872,0.021111671468,0.00553913068233,-0.00360449075818,-0.000100496130043,7.99117467637e-05,-0.000105656874699,0.999999986176,0.0,0.0,0.0,0.0,0.0,0.0
1609043651368612766,80,1609043651368612766,0.0121370068027,0.0179009387237,-0.00345574742428,2.8960302208e-05,-0.000458717077143,-0.000293964534545,0.999999851162,0.0,0.0,0.0,0.0,0.0,0.0
1609043651462187290,81,1609043651462187290,0.0215472734838,0.00358055285565,-0.00312759365706,9.09297330698e-05,0.000107456422817,-0.000184695345165,0.999999973036,0.0,0.0,0.0,0.0,0.0,0.0
1609043651557303905,82,1609043651557303905,0.0161708961622,0.00897898318182,-0.00549723515851,0.000196367142037,-0.000131759528087,-0.000138155153013,0.999999962496,0.0,0.0,0.0,0.0,0.0,0.0
1609043651668114901,83,1609043651668114901,0.0184728176514,0.0131670233216,-0.0029684198125,1.13239280012e-05,0.000121598701678,-0.000213691224135,0.999999969711,0.0,0.0,0.0,0.0,0.0,0.0
1609043651762060642,84,1609043651762060642,0.0190312394442,0.0109772990427,-0.00584308708249,0.000106194978018,-0.000226926620201,-0.0001163835249,0.999999961841,0.0,0.0,0.0,0.0,0.0,0.0
1609043651857352972,85,1609043651857352972,0.0195211729985,0.00997481055272,-0.00540308787399,-3.73587884605e-05,-0.00031202037149,-0.000326663052588,0.999999897269,0.0,0.0,0.0,0.0,0.0,0.0
1609043651968310595,86,1609043651968310595,0.0210557006837,0.0103363100451,-0.00284123237513,0.000202002688341,-0.000498193637408,3.82734704094e-05,0.999999854767,0.0,0.0,0.0,0.0,0.0,0.0
1609043652062166929,87,1609043652062166929,0.0191883731773,0.00937445729385,-0.00165157808663,-0.000262843952424,5.17557240528e-06,-0.000223877772328,0.999999940382,0.0,0.0,0.0,0.0,0.0,0.0
1609043652157705307,88,1609043652157705307,0.0173179773784,0.0132432513498,-0.00294286693747,0.000244980008646,-0.000128052829465,-0.00024233734963,0.99999993243,0.0,0.0,0.0,0.0,0.0,0.0
1609043652269840002,89,1609043652269840002,0.022237117854,0.00576702633174,-0.00213631685016,-8.82420276091e-05,-0.000357116133125,-0.000263658971589,0.999999897583,0.0,0.0,0.0,0.0,0.0,0.0
1609043652363836050,90,1609043652363836050,0.0144134236152,0.0088155210056,-0.00397134941023,1.09719240601e-05,-0.000112634824838,-0.000202166692588,0.999999973161,0.0,0.0,0.0,0.0,0.0,0.0
1609043652457461596,91,1609043652457461596,0.0171948557796,0.0116303051235,-0.00310177811047,0.000343816208733,-0.000108151011374,-0.000162669393397,0.999999921816,0.0,0.0,0.0,0.0,0.0,0.0
1609043652569962263,92,1609043652569962263,0.019186434691,0.0175293824619,-0.0020833404773,0.000234761563102,-9.67907476167e-05,-0.000243602574477,0.999999938088,0.0,0.0,0.0,0.0,0.0,0.0
1609043652663848162,93,1609043652663848162,0.0218311810788,0.00942819630673,-0.0059588166536,-0.000302960088056,-0.000247974562964,-0.000358471643883,0.999999859111,0.0,0.0,0.0,0.0,0.0,0.0
1609043652757586002,94,1609043652757586002,0.0241488090138,0.00532948671173,-0.00336496499595,4.19906323463e-05,-0.000167152175475,-2.88007573403e-05,0.999999984734,0.0,0.0,0.0,0.0,0.0,0.0
1609043652871131420,95,1609043652871131420,0.0183021343144,0.00630371861021,-0.00395520752299,0.000185422459515,-0.000469113610209,-0.000190708977239,0.99999985459,0.0,0.0,0.0,0.0,0.0,0.0
1609043652963475227,96,1609043652963475227,0.0186198521112,0.0116100847081,-0.00431348123287,-0.000219973071416,0.000159669895438,-0.000182719011044,0.999999946366,0.0,0.0,0.0,0.0,0.0,0.0
1609043653058115005,97,1609043653058115005,0.0170538500995,0.00855641854921,-0.00183497620324,5.30248373307e-05,-0.000588348774673,-9.12287637756e-05,0.999999821356,0.0,0.0,0.0,0.0,0.0,0.0
1609043653169545650,98,1609043653169545650,0.0183713690094,-0.00337857967629,-0.00498462316423,0.000456343107958,-0.000439526854495,9.75887748988e-05,0.999999794522,0.0,0.0,0.0,0.0,0.0,0.0
1609043653263297319,99,1609043653263297319,0.0236074506039,0.00646821846932,-0.00390671611293,-1.07392051228e-05,0.000185322383419,-5.85032083543e-05,0.999999981059,0.0,0.0,0.0,0.0,0.0,0.0
1609043653357565403,100,1609043653357565403,0.0208275660308,0.00811728703047,-0.0049533093424,0.000419193196561,-0.000302941565989,-0.000202757594103,0.999999845696,0.0,0.0,0.0,0.0,0.0,0.0
1609043653470639229,101,1609043653470639229,0.0200256461757,0.00562639823226,-0.00255014807096,0.000101770544952,0.000113647229199,-0.000183362253603,0.999999971553,0.0,0.0,0.0,0.0,0.0,0.0
1609043653563307524,102,1609043653563307524,0.0196067900096,0.0130203742992,-0.00354160424022,0.000116585949258,-0.000251692110191,-3.47161855959e-05,0.999999960927,0.0,0.0,0.0,0.0,0.0,0.0
1609043653657113314,103,1609043653657113314,0.017673677602,0.00874524605096,-0.00268218006021,-0.000134812064717,-8.16352718601e-05,-0.000167366765987,0.999999973575,0.0,0.0,0.0,0.0,0.0,0.0
1609043653757525444,104,1609043653757525444,0.0170106206793,0.0252270450617,-0.00584405191276,0.00030524116155,-0.00047903629109,-0.000399467123089,0.999999758889,0.0,0.0,0.0,0.0,0.0,0.0
1609043653866878510,105,1609043653866878510,0.0166474140097,0.0051017463978,-0.00402253934286,-2.09452408258e-05,-4.98259608805e-05,4.21642128627e-05,0.99999999765,0.0,0.0,0.0,0.0,0.0,0.0
1609043653960734367,106,1609043653960734367,0.0214469355205,0.0147426274609,-0.00240417191777,9.10439930472e-05,-0.000259777925718,-0.000193430827416,0.999999943405,0.0,0.0,0.0,0.0,0.0,0.0
1609043654057466269,107,1609043654057466269,0.018092750316,0.0127443529433,-0.00235605261222,-0.000113349632245,-0.00022780752325,-0.000269595961224,0.999999931287,0.0,0.0,0.0,0.0,0.0,0.0
1609043654167167664,108,1609043654167167664,0.0208039858727,0.0124523681411,-0.00327070504358,4.71344084423e-05,-0.000351990372561,-0.00025948872294,0.999999903273,0.0,0.0,0.0,0.0,0.0,0.0
1609043654261045218,109,1609043654261045218,0.0229984520657,0.00288211982594,-0.00374664015886,4.03155039304e-05,-0.000328349427758,-5.88840143392e-06,0.999999945263,0.0,0.0,0.0,0.0,0.0,0.0
1609043654357563496,110,1609043654357563496,0.0117086599096,0.0150625373421,-0.00562934699961,0.000349785224844,-0.000361040724091,-0.000185991033118,0.999999856354,0.0,0.0,0.0,0.0,0.0,0.0
1609043654466949940,111,1609043654466949940,0.0211792536098,0.00251519495685,-0.00331218509926,0.000266482016319,-0.000357176013036,1.11414029053e-05,0.999999900644,0.0,0.0,0.0,0.0,0.0,0.0
1609043654563715935,112,1609043654563715935,0.0196359930624,0.0112663528048,-0.00328266848436,0.000149122834041,9.58184448334e-05,-0.000143249671548,0.99999997403,0.0,0.0,0.0,0.0,0.0,0.0
1609043654657459497,113,1609043654657459497,0.021933268923,0.0101432161749,-0.00317095122334,0.000192295923685,-5.07496110266e-05,-7.36821016352e-05,0.999999977509,0.0,0.0,0.0,0.0,0.0,0.0
1609043654768309116,114,1609043654768309116,0.016413915747,0.0101491842699,-0.00521037010437,9.76006987425e-05,-4.47895823337e-05,-0.000198911212956,0.999999974451,0.0,0.0,0.0,0.0,0.0,0.0
1609043654861835241,115,1609043654861835241,0.0266927278928,0.00213536358979,-0.0061905245772,6.90841117726e-05,-0.000189371826648,9.58049072717e-05,0.999999975094,0.0,0.0,0.0,0.0,0.0,0.0
1609043654958330154,116,1609043654958330154,0.0173538573383,0.00547842196434,-0.00301816379429,0.000282021037018,-0.000297965442928,-0.000136690897896,0.999999906498,0.0,0.0,0.0,0.0,0.0,0.0
1609043655068126678,117,1609043655068126678,0.0218331110319,0.0103229240934,-0.00387674218125,0.000149617687344,-0.00020621896764,-6.32342013179e-05,0.999999965545,0.0,0.0,0.0,0.0,0.0,0.0
1609043655162305593,118,1609043655162305593,0.0228228194392,0.0139436470385,-0.00490062320467,-6.18702928758e-05,0.000190930153165,-0.000372258844756,0.999999910571,0.0,0.0,0.0,0.0,0.0,0.0
1609043655257472992,119,1609043655257472992,0.0182735976224,0.00975780229608,-0.00537034245588,-2.2282878394e-05,-0.00055428197431,-6.40569445333e-05,0.999999844086,0.0,0.0,0.0,0.0,0.0,0.0
1609043655367793322,120,1609043655367793322,0.023817504121,0.0132548470635,-0.00402293946015,0.000256572681367,-0.000107808995893,-5.02773286887e-05,0.99999996001,0.0,0.0,0.0,0.0,0.0,0.0
1609043655463260889,121,1609043655463260889,0.0216247784323,0.0152240319232,-0.00435484603143,-0.00015942768957,-3.4373340915e-05,-0.000127892515333,0.999999978522,0.0,0.0,0.0,0.0,0.0,0.0
1609043655558698893,122,1609043655558698893,0.0195548184398,0.0186602747724,-0.00345516323506,0.000167546082827,-0.00035864067904,-0.000238706924654,0.999999893162,0.0,0.0,0.0,0.0,0.0,0.0
1609043655669824839,123,1609043655669824839,0.0222614990509,0.0120171527609,-0.00518708740455,0.000191409801685,2.17384326185e-05,-0.000293810476154,0.999999938283,0.0,0.0,0.0,0.0,0.0,0.0
1609043655763274670,124,1609043655763274670,0.0202314456535,0.0088716545091,-0.00466993851946,0.000125664156249,-0.000276157168629,-0.000206510534444,0.99999993265,0.0,0.0,0.0,0.0,0.0,0.0
1609043655857172251,125,1609043655857172251,0.0149276400004,0.0164871850129,-0.00356597798309,5.04640155555e-05,-8.10632116668e-05,-8.87877033224e-05,0.999999991499,0.0,0.0,0.0,0.0,0.0,0.0
1609043655972023726,126,1609043655972023726,0.0196858687573,0.0139177797696,-0.00541596724978,0.000168773390945,-0.000163121323369,-0.000302669737497,0.999999926649,0.0,0.0,0.0,0.0,0.0,0.0
1609043656063204765,127,1609043656063204765,0.0171938026396,0.0116730256288,-0.00432405371939,0.000173350837879,-0.000268660748496,-0.000135366368925,0.999999939723,0.0,0.0,0.0,0.0,0.0,0.0
1609043656161874056,128,1609043656161874056,0.0223723985734,0.0157217242008,-0.00417137140399,-0.000115938494479,-0.000336150929722,-6.83415715161e-05,0.999999934445,0.0,0.0,0.0,0.0,0.0,0.0
1609043656257388115,129,1609043656257388115,0.0262116221159,0.0115619056727,-0.00266916413671,0.000301138294402,0.000106436844241,-0.000311827665902,0.999999900375,0.0,0.0,0.0,0.0,0.0,0.0
1609043656368046522,130,1609043656368046522,0.0177096169772,0.0155818974918,-0.00341074027333,-0.00019678826952,-9.45235595932e-05,-0.000185541366075,0.999999958957,0.0,0.0,0.0,0.0,0.0,0.0
1609043656457219839,131,1609043656457219839,0.0205026412798,0.0057845843401,-0.0058548628303,0.000354673234066,-0.000212349489509,-0.000121148481003,0.999999907219,0.0,0.0,0.0,0.0,0.0,0.0
1609043656561094999,132,1609043656561094999,0.0213393720236,0.00561685418988,-0.00418987917709,0.000105694729294,-0.000184757622922,-2.06205384382e-05,0.999999977134,0.0,0.0,0.0,0.0,0.0,0.0
1609043656663914919,133,1609043656663914919,0.0223800665724,0.00329365660782,-0.00563433080424,0.000322279885016,-5.58706584074e-05,-6.99624174628e-05,0.99999994406,0.0,0.0,0.0,0.0,0.0,0.0
1609043656766721487,134,1609043656766721487,0.0241067093793,0.0108312554103,-0.0052267246155,-0.00027523135539,-0.000253901829208,-5.7348580072e-05,0.999999928246,0.0,0.0,0.0,0.0,0.0,0.0
1609043656870594025,135,1609043656870594025,0.0229716564574,0.00935628756372,-0.0061651327991,0.000118504812814,-3.76080552318e-05,-0.000128722356147,0.999999983986,0.0,0.0,0.0,0.0,0.0,0.0
1609043656972902775,136,1609043656972902775,0.0176010168604,0.0102903794609,-0.0029115512839,0.000109490519618,-0.000108363251378,-0.000330631199645,0.999999933476,0.0,0.0,0.0,0.0,0.0,0.0
1609043657075711727,137,1609043657075711727,0.017722254786,0.00742895135267,-0.00535096994616,8.73901236326e-05,-0.000222801910362,-4.20798419423e-05,0.999999970476,0.0,0.0,0.0,0.0,0.0,0.0
1609043657178982496,138,1609043657178982496,0.0167587840633,0.00734638130571,-0.00387567252684,2.12184957979e-05,-0.000275843876056,-0.000151526270774,0.99999995025,0.0,0.0,0.0,0.0,0.0,0.0
1609043657283605814,139,1609043657283605814,0.0124543563085,0.0162430378537,-0.00389380805897,0.000189452329485,-0.000494824746836,-0.000264473666124,0.999999824655,0.0,0.0,0.0,0.0,0.0,0.0
1609043657387769461,140,1609043657387769461,0.0250867988726,0.0099538083231,-0.00251239770571,5.59284730246e-07,0.000115137508767,-0.000314608618809,0.999999943882,0.0,0.0,0.0,0.0,0.0,0.0
1609043657456836462,141,1609043657456836462,0.0196419651379,0.0180965526267,-0.00295188572187,-0.000272536708103,0.000233736515193,-0.000412358727626,0.999999850526,0.0,0.0,0.0,0.0,0.0,0.0
1609043657557137251,142,1609043657557137251,0.0265327835697,0.0126128567252,-0.00511838948314,0.00030498738405,-5.77991799176e-06,-0.000297204995294,0.999999909309,0.0,0.0,0.0,0.0,0.0,0.0
1609043657660401106,143,1609043657660401106,0.0254080823471,0.00592991594364,-0.00447951953089,-8.76549096344e-05,-0.000170526015065,-0.000149434397052,0.999999970453,0.0,0.0,0.0,0.0,0.0,0.0
1609043657769903421,144,1609043657769903421,0.0219326370087,0.0129922810622,-0.00350892633766,0.000171301878023,-8.98149346909e-05,-7.57904757041e-05,0.999999978422,0.0,0.0,0.0,0.0,0.0,0.0
1609043657871285915,145,1609043657871285915,0.0215791631938,0.00801837268282,-0.00415861572616,9.6428374178e-05,-0.000171115185339,-0.000302763714583,0.999999934878,0.0,0.0,0.0,0.0,0.0,0.0
1609043657975111485,146,1609043657975111485,0.0200865773931,0.00905358559338,-0.0043769474712,-8.29342075908e-05,-0.00017632554402,-0.000236903141478,0.999999952954,0.0,0.0,0.0,0.0,0.0,0.0
1609043658077710629,147,1609043658077710629,0.0218302603055,0.0105556848417,-0.00400842660025,0.000194613131735,-0.000118170231897,-0.000199438002559,0.999999954193,0.0,0.0,0.0,0.0,0.0,0.0
1609043658181786537,148,1609043658181786537,0.0225214205944,0.00357498463984,-0.00564846373208,0.000186777094273,-0.0002193572368,8.34340908129e-05,0.999999955018,0.0,0.0,0.0,0.0,0.0,0.0
1609043658283475161,149,1609043658283475161,0.0201826364365,0.0163137180378,-0.00288160648717,0.000125293769044,-0.000122093690324,-0.000267037264253,0.999999949043,0.0,0.0,0.0,0.0,0.0,0.0
1609043658386534214,150,1609043658386534214,0.0236318676856,0.00669647610112,-0.0040285286652,0.000360452285569,-0.000150502221531,-0.000229605814695,0.999999897352,0.0,0.0,0.0,0.0,0.0,0.0
1609043658456804276,151,1609043658456804276,0.0178366854461,0.0099676819187,-0.00430050046263,1.2498605643e-05,1.00051071326e-05,-0.000195052862138,0.999999980849,0.0,0.0,0.0,0.0,0.0,0.0
1609043658561256886,152,1609043658561256886,0.0212402197077,0.013890848191,-0.00353117670892,0.000194333265393,-0.000299046931098,-0.000276771126604,0.999999898102,0.0,0.0,0.0,0.0,0.0,0.0
1609043658668093443,153,1609043658668093443,0.0208464656239,0.0124203686605,-0.00324511651513,9.7756112658e-06,-0.000351581340103,-0.000271506049047,0.99999990129,0.0,0.0,0.0,0.0,0.0,0.0
1609043658770936012,154,1609043658770936012,0.0212950644728,0.0101361739989,-0.00491745736424,0.000222775541928,-0.00026267378843,-0.000175040356955,0.999999925367,0.0,0.0,0.0,0.0,0.0,0.0
1609043658874103308,155,1609043658874103308,0.0182810505236,0.0130331418067,-0.0052116469546,2.62536931552e-05,-0.000320148014065,-0.000204688501324,0.999999927459,0.0,0.0,0.0,0.0,0.0,0.0
1609043658976997137,156,1609043658976997137,0.0210964685641,0.00948680603704,-0.00505591317023,0.000336509095999,-0.000173480931454,-0.000319610033709,0.999999877258,0.0,0.0,0.0,0.0,0.0,0.0
1609043659081444979,157,1609043659081444979,0.0177914957249,0.0170327312678,-0.00627235405105,-0.000233216504829,-0.000255618971084,-0.000369137136401,0.999999872003,0.0,0.0,0.0,0.0,0.0,0.0
1609043659183437586,158,1609043659183437586,0.0232501071402,0.0167476590144,-0.00340467482693,0.000193289448487,-6.12858698875e-05,-0.000200593485636,0.999999959323,0.0,0.0,0.0,0.0,0.0,0.0
1609043659286269188,159,1609043659286269188,0.0190074542293,0.0143901156821,-0.00512051531965,0.000162483901844,-0.000253470095816,-0.000323083391992,0.999999902484,0.0,0.0,0.0,0.0,0.0,0.0
1609043659356725693,160,1609043659356725693,0.0286283874651,0.0145235033191,-0.00500951021532,-0.000160995968053,0.000242189085335,-0.00027650625571,0.999999919484,0.0,0.0,0.0,0.0,0.0,0.0
1609043659458543301,161,1609043659458543301,0.0229010031964,0.0114100545268,-0.00452383276222,0.000328201648487,-0.000312960225673,-0.000211639432278,0.999999874774,0.0,0.0,0.0,0.0,0.0,0.0
1609043659563061237,162,1609043659563061237,0.013596881852,0.0150637353245,-0.00520461787418,5.5550317212e-05,-0.000187668005168,-0.000458759232114,0.999999875617,0.0,0.0,0.0,0.0,0.0,0.0
1609043659664602518,163,1609043659664602518,0.0247306246305,0.00913505434154,-0.00498596757857,-6.23907089973e-05,-0.000123607653788,-0.000204222693905,0.999999969561,0.0,0.0,0.0,0.0,0.0,0.0
1609043659767889023,164,1609043659767889023,0.0244551203726,0.0132085609976,-0.00493201473991,0.000142864417007,7.15470286763e-05,-0.000231157192094,0.999999960519,0.0,0.0,0.0,0.0,0.0,0.0
1609043659870728493,165,1609043659870728493,0.0204370337622,0.020998477489,-0.00585486859874,0.000360925944756,-0.000396150844298,-0.00041915805299,0.999999768552,0.0,0.0,0.0,0.0,0.0,0.0
1609043659980032444,166,1609043659980032444,0.0181050929482,0.0107847058115,-0.00688521282613,0.000242379535574,-0.000302342860957,-0.000348202350928,0.999999864298,0.0,0.0,0.0,0.0,0.0,0.0
1609043660082999706,167,1609043660082999706,0.0233274610583,0.0169731022568,-0.00554452935665,0.000308716984361,-0.000340467637235,-0.000225176053399,0.999999869036,0.0,0.0,0.0,0.0,0.0,0.0
1609043660186392784,168,1609043660186392784,0.023650512298,0.0126657721866,-0.0033604519414,-4.92447487993e-05,-0.000153605969935,-0.000277197827051,0.999999948571,0.0,0.0,0.0,0.0,0.0,0.0
1609043660257445812,169,1609043660257445812,0.0225744035993,0.0077712903309,-0.00504108374165,0.000229400299085,-0.000455902977392,-0.000316983425618,0.999999819525,0.0,0.0,0.0,0.0,0.0,0.0
1609043660358417749,170,1609043660358417749,0.0269970444219,0.0103755327336,-0.00490461612511,0.000201753851205,-0.000108723131069,-0.000331488336513,0.999999918795,0.0,0.0,0.0,0.0,0.0,0.0
1609043660461256742,171,1609043660461256742,0.0205202029042,0.0138174826769,-0.00644602364935,0.000142575674452,-0.000297047988119,-0.00036589214959,0.999999878779,0.0,0.0,0.0,0.0,0.0,0.0
1609043660564266443,172,1609043660564266443,0.0237409480753,0.0080823201084,-0.00614700575104,0.000360437063086,-0.000162171610058,-0.000347092130263,0.999999861656,0.0,0.0,0.0,0.0,0.0,0.0
1609043660667532206,173,1609043660667532206,0.0250944191558,0.00637672022797,-0.00585215908977,0.000134573309451,-0.000492598803012,-5.67214574744e-05,0.99999986801,0.0,0.0,0.0,0.0,0.0,0.0
1609043660771424294,174,1609043660771424294,0.0230016029669,0.00925409257559,-0.00466058841625,7.12855384414e-05,-0.0001198003724,-0.000412338825195,0.999999905271,0.0,0.0,0.0,0.0,0.0,0.0
1609043660873684883,175,1609043660873684883,0.0172402311663,0.0192608640732,-0.00387425282129,0.000262237240449,-0.000402547058354,-0.000321492116241,0.999999832915,0.0,0.0,0.0,0.0,0.0,0.0
1609043660977250576,176,1609043660977250576,0.0258486954465,0.00961727644433,-0.00272912164648,-9.00267223827e-05,0.000100807012527,-0.000245610581312,0.999999960704,0.0,0.0,0.0,0.0,0.0,0.0
1609043661080220938,177,1609043661080220938,0.0216352198925,0.00895500794709,-0.00649012792068,0.000199334670723,-0.000504402173466,-0.00026773364112,0.999999817081,0.0,0.0,0.0,0.0,0.0,0.0
1609043661183395386,178,1609043661183395386,0.0219914675117,0.0125599856445,-0.00582750459438,-7.69810995147e-05,4.60564678627e-05,-0.000300308937003,0.999999950884,0.0,0.0,0.0,0.0,0.0,0.0
1609043661286161184,179,1609043661286161184,0.0189756529584,0.0152687432988,-0.00584973639961,0.000146189089363,-0.000496959245442,-0.000230348233863,0.9999998393,0.0,0.0,0.0,0.0,0.0,0.0
1609043661356396914,180,1609043661356396914,0.0222797465361,0.0170594232138,-0.00674257423405,-0.000174029784487,-0.000151047914967,-0.00031788889425,0.999999922922,0.0,0.0,0.0,0.0,0.0,0.0
1609043661458095551,181,1609043661458095551,0.0243021730901,0.0156970425595,-0.00488669333194,0.000358967990127,-0.000351729323083,-0.000299522680464,0.999999828857,0.0,0.0,0.0,0.0,0.0,0.0
1609043661561083794,182,1609043661561083794,0.0235877551228,0.00219146892344,-0.00669190876957,0.000294435302314,-0.000182102573912,-0.000307993896175,0.999999892643,0.0,0.0,0.0,0.0,0.0,0.0
1609043661664525509,183,1609043661664525509,0.023565277088,0.00995750805252,-0.00643212794353,-0.000126206449883,-0.000322074497098,-0.000244513251786,0.999999910277,0.0,0.0,0.0,0.0,0.0,0.0
1609043661768240929,184,1609043661768240929,0.0216036346183,0.0186015104175,-0.0037374664289,2.23489805772e-05,-7.12081598577e-06,-0.000304511647232,0.999999953361,0.0,0.0,0.0,0.0,0.0,0.0
1609043661870469332,185,1609043661870469332,0.0284391064972,0.0154622211571,-0.00608453053006,0.000180049594093,-0.000366515869142,-0.000271084850733,0.999999879881,0.0,0.0,0.0,0.0,0.0,0.0
1609043661973752975,186,1609043661973752975,0.0204420057809,0.012928368724,-0.00558274853765,0.000377454537366,0.000113945898458,-0.000348490411253,0.999999861549,0.0,0.0,0.0,0.0,0.0,0.0
1609043662076670408,187,1609043662076670408,0.0247477977923,0.0143860624325,-0.0037858515983,6.65934850772e-05,-0.000342521868497,-0.000107726239583,0.99999993332,0.0,0.0,0.0,0.0,0.0,0.0
1609043662183703423,188,1609043662183703423,0.0215084542031,0.0126360010807,-0.00397172457989,0.000266497560938,-0.000543172740014,-0.000279984534078,0.999999777775,0.0,0.0,0.0,0.0,0.0,0.0
1609043662285902262,189,1609043662285902262,0.0190264816244,0.0117079521151,-0.00475222382773,0.000314955563161,-0.000123178608054,-0.000194982609141,0.999999923806,0.0,0.0,0.0,0.0,0.0,0.0
1609043662356905699,190,1609043662356905699,0.0235421323781,0.013648667466,-0.00492131295135,-2.97256040916e-05,-0.000336934344406,-0.000150848844809,0.999999931418,0.0,0.0,0.0,0.0,0.0,0.0
1609043662457743645,191,1609043662457743645,0.0198084567539,0.0242280454695,-0.00492074314414,0.00015031846155,0.000194574252976,-0.000269003945188,0.999999933591,0.0,0.0,0.0,0.0,0.0,0.0
1609043662561408281,192,1609043662561408281,0.0168528807718,0.012906451321,-0.00477523075979,0.000100225006145,-0.00036794872859,-0.000293188218316,0.999999884305,0.0,0.0,0.0,0.0,0.0,0.0
1609043662665227890,193,1609043662665227890,0.0210320343844,0.0258197041071,-0.00586959923842,-5.43367872577e-06,9.06451389683e-05,-0.000381169534435,0.999999923232,0.0,0.0,0.0,0.0,0.0,0.0
1609043662767758131,194,1609043662767758131,0.0231083652722,0.0196276832922,-0.00274571555605,-5.94922267705e-06,-0.000342678993442,-0.000250705759848,0.999999909841,0.0,0.0,0.0,0.0,0.0,0.0
1609043662870408535,195,1609043662870408535,0.0193619272077,0.0130146093872,-0.00569708107506,0.000185299778495,-0.000322736872337,-0.000470118017419,0.999999820247,0.0,0.0,0.0,0.0,0.0,0.0
1609043662973894596,196,1609043662973894596,0.0243680312153,0.00847421892366,-0.00598752604736,0.000272029868407,-0.000209912682436,-0.000189643852814,0.999999922986,0.0,0.0,0.0,0.0,0.0,0.0
1609043663076516390,197,1609043663076516390,0.0227377258375,0.018412528456,-0.00420145039907,5.30700138023e-05,-0.000156538527121,-0.000241226119645,0.999999957245,0.0,0.0,0.0,0.0,0.0,0.0
1609043663179625988,198,1609043663179625988,0.0253896034091,0.0184064279686,-0.0037069776728,-0.000198289027118,-4.23397677346e-05,-0.000285232215964,0.999999938766,0.0,0.0,0.0,0.0,0.0,0.0
1609043663283624172,199,1609043663283624172,0.0229270629676,0.0146127860718,-0.00378907688902,0.000171754711848,-0.000160072772991,-0.000186758352589,0.999999954999,0.0,0.0,0.0,0.0,0.0,0.0
1609043663386454821,200,1609043663386454821,0.0267412106701,0.0143535157502,-0.00499633398316,-7.93986424905e-05,-0.000441216875779,-0.000336358119911,0.999999842943,0.0,0.0,0.0,0.0,0.0,0.0
1609043663456806898,201,1609043663456806898,0.0232042329268,0.0229647698521,-0.00207093073151,-8.85918432315e-05,0.000260139855889,-0.000266064813201,0.999999926844,0.0,0.0,0.0,0.0,0.0,0.0
1609043663559280634,202,1609043663559280634,0.0234265445566,0.00229295925137,-0.00590048315457,2.49214080923e-05,-0.000141043356405,-0.000227650957633,0.99999996383,0.0,0.0,0.0,0.0,0.0,0.0
1609043663661369562,203,1609043663661369562,0.019533360449,0.0182896150763,-0.00642480549153,4.59751366479e-05,2.04212815773e-05,-0.00040309954274,0.99999991749,0.0,0.0,0.0,0.0,0.0,0.0
1609043663764312029,204,1609043663764312029,0.027633776742,0.00729227716816,-0.00550241364585,0.00032551619647,-0.000279538264967,-0.000145512909743,0.999999897362,0.0,0.0,0.0,0.0,0.0,0.0
1609043663867734671,205,1609043663867734671,0.0138159974065,0.0221215794492,-0.00505605631414,8.31606386084e-05,-0.000406791742119,-0.000300024996416,0.999999868795,0.0,0.0,0.0,0.0,0.0,0.0
1609043663970978975,206,1609043663970978975,0.0202826043497,0.0128776551431,-0.00493047672755,-0.000110233564668,-0.000148570833583,-0.000310682608808,0.999999934626,0.0,0.0,0.0,0.0,0.0,0.0
1609043664074723482,207,1609043664074723482,0.0203040687814,0.0156458786148,-0.00572940618452,-1.6207233904e-05,-0.000360509364951,-0.000266525737346,0.999999899367,0.0,0.0,0.0,0.0,0.0,0.0
1609043664176994801,208,1609043664176994801,0.0226296220836,0.0153427507396,-0.0046517287899,0.000113368192095,-0.000129170380765,-0.000252037002685,0.99999995347,0.0,0.0,0.0,0.0,0.0,0.0
1609043664279771090,209,1609043664279771090,0.0232406642605,0.00942489995171,-0.00484861061451,0.000225707162551,-0.000120860154003,-0.000320230030161,0.999999915951,0.0,0.0,0.0,0.0,0.0,0.0
1609043664383482695,210,1609043664383482695,0.0254891915722,0.0127293345042,-0.00520537649853,0.000222211349935,-0.00021794925971,-0.000322420559682,0.999999899583,0.0,0.0,0.0,0.0,0.0,0.0
1609043664486382484,211,1609043664486382484,0.0249214940329,0.0150207917174,-0.00438174840062,-1.33324553094e-05,-0.000228826649348,-0.000222658389627,0.999999948942,0.0,0.0,0.0,0.0,0.0,0.0
1609043664556564331,212,1609043664556564331,0.0221675429636,0.0110959449943,-0.0045674579506,0.000176560217766,-0.000296908948464,-0.000336629866618,0.999999883676,0.0,0.0,0.0,0.0,0.0,0.0
1609043664658283234,213,1609043664658283234,0.0254401761461,0.0157913308254,-0.00381889013019,-5.05415114863e-05,0.000128934579034,-0.000149208748348,0.999999979279,0.0,0.0,0.0,0.0,0.0,0.0
1609043664761707067,214,1609043664761707067,0.0230355504303,0.016668025449,-0.00479514602304,0.000244418831825,-0.000167179530439,-0.000382706271958,0.999999882923,0.0,0.0,0.0,0.0,0.0,0.0
1609043664864668608,215,1609043664864668608,0.0233311354262,0.0230367423846,-0.0054687865489,0.000217686043376,-0.000247197939345,-0.000464711870368,0.999999837774,0.0,0.0,0.0,0.0,0.0,0.0
1609043664967721462,216,1609043664967721462,0.0237111000211,0.0132960839068,-0.00290549046504,8.26284655772e-06,-0.000185884943704,-0.000243664228991,0.999999953003,0.0,0.0,0.0,0.0,0.0,0.0
1609043665072690248,217,1609043665072690248,0.0227361433181,0.0193473445925,-0.00304108084618,0.000167522564838,-0.000146121011317,-0.000389587273023,0.999999899403,0.0,0.0,0.0,0.0,0.0,0.0
1609043665173795462,218,1609043665173795462,0.0216120215249,0.0118911065873,-0.00705924240408,-1.73700284377e-05,-0.000116265200887,-0.000121611550597,0.999999985696,0.0,0.0,0.0,0.0,0.0,0.0
1609043665277086020,219,1609043665277086020,0.026468426175,0.00598195718687,-0.0065924314628,0.000325732682221,-0.000224517469403,-0.00010535971423,0.999999916195,0.0,0.0,0.0,0.0,0.0,0.0
1609043665380308867,220,1609043665380308867,0.0213454803719,0.0166648675185,-0.00743374219743,0.000306401938349,-0.000435289862569,-0.000453381156402,0.999999755543,0.0,0.0,0.0,0.0,0.0,0.0
1609043665483161211,221,1609043665483161211,0.0270857821726,0.0199821503728,-0.00357422964865,0.000103228720921,-0.000207802905588,-0.000500331125645,0.999999847915,0.0,0.0,0.0,0.0,0.0,0.0
1609043665558884621,222,1609043665558884621,0.0220487542616,0.0226701511209,-0.00427741688426,-7.74566900628e-05,-0.000290223765016,-0.000394750881889,0.999999876971,0.0,0.0,0.0,0.0,0.0,0.0
1609043665661927462,223,1609043665661927462,0.020562410872,0.0235681652899,-0.00513072365937,5.1837603109e-05,0.000141310022981,-0.000413814324559,0.999999903051,0.0,0.0,0.0,0.0,0.0,0.0
1609043665765120983,224,1609043665765120983,0.0203113168977,0.0140182384834,-0.00477918147106,0.00015693355883,-6.68250029351e-05,-0.000267256745231,0.99999994974,0.0,0.0,0.0,0.0,0.0,0.0
1609043665867801666,225,1609043665867801666,0.0276844011976,0.0177519562644,-0.00512673951464,-0.000154632966657,0.000100385934412,-0.000241380370031,0.999999953873,0.0,0.0,0.0,0.0,0.0,0.0
1609043665970709085,226,1609043665970709085,0.0248144768637,0.0122901363555,-0.00380733099329,-0.000195996874223,-0.000371339276334,-0.000258913178744,0.999999878328,0.0,0.0,0.0,0.0,0.0,0.0
1609043666074698210,227,1609043666074698210,0.0238641469262,0.0222353584544,-0.00386213412662,0.000112394981973,0.000168476063051,-0.000438758919893,0.999999883237,0.0,0.0,0.0,0.0,0.0,0.0
1609043666181234121,228,1609043666181234121,0.0276992501493,0.01755546393,-0.00413828083573,0.000187817935229,-0.000429868170949,-0.000487721209365,0.999999771033,0.0,0.0,0.0,0.0,0.0,0.0
1609043666258632421,229,1609043666258632421,0.0222098248318,0.0121609172283,-0.00547149473453,2.53083135263e-05,-0.000271824852284,-0.000184658439,0.999999945686,0.0,0.0,0.0,0.0,0.0,0.0
1609043666360102177,230,1609043666360102177,0.0210251667149,0.023160946587,-0.00536228574228,1.53736409225e-05,-0.000129936711076,-0.000494160151912,0.999999869343,0.0,0.0,0.0,0.0,0.0,0.0
1609043666464158535,231,1609043666464158535,0.0210349174127,0.0191439633647,-0.00454374917723,0.000139485880112,-0.000196736562778,-0.000285406054588,0.999999930191,0.0,0.0,0.0,0.0,0.0,0.0
1609043666566326380,232,1609043666566326380,0.0226286440111,0.0187645361923,-0.00312251478092,0.00016418447446,-3.30511931578e-05,-0.000301604652185,0.999999940493,0.0,0.0,0.0,0.0,0.0,0.0
1609043666669156790,233,1609043666669156790,0.0257420234427,0.01628523459,-0.00570118340122,0.000231896014282,-0.000372030458687,-0.000321599300092,0.999999852196,0.0,0.0,0.0,0.0,0.0,0.0
1609043666772404432,234,1609043666772404432,0.0197335253705,0.0237290567162,-0.00465929664974,-4.62598472512e-05,2.59590230461e-05,-0.000410843042733,0.999999914197,0.0,0.0,0.0,0.0,0.0,0.0
1609043666876152277,235,1609043666876152277,0.0259350413598,0.0209975786896,-0.00587408194295,3.05879527306e-05,-0.000184522878854,-0.00057100094313,0.999999819487,0.0,0.0,0.0,0.0,0.0,0.0
1609043666978578091,236,1609043666978578091,0.0210622054661,0.0174495907741,-0.00353998276337,6.79894877947e-05,-0.000237528708055,-0.000291282805778,0.999999927056,0.0,0.0,0.0,0.0,0.0,0.0
1609043667082442760,237,1609043667082442760,0.0171688719698,0.0171411313742,-0.00624399516969,0.000267067424037,-0.000223686362428,-0.000334673039482,0.999999883317,0.0,0.0,0.0,0.0,0.0,0.0
1609043667184716702,238,1609043667184716702,0.0240841328712,0.0176973684998,-0.00742556521251,0.000487324081045,-0.000282675412108,-0.00034023992921,0.999999783423,0.0,0.0,0.0,0.0,0.0,0.0
1609043667256566048,239,1609043667256566048,0.0204085775124,0.0186223146905,-0.00319862039446,-0.000211857645889,-0.000230617032098,-0.000565409355183,0.999999791122,0.0,0.0,0.0,0.0,0.0,0.0
1609043667358994246,240,1609043667358994246,0.0231863841077,0.0187647191128,-0.00402000101991,4.30948310137e-05,-0.000290578498407,-0.000506044802146,0.999999828813,0.0,0.0,0.0,0.0,0.0,0.0
1609043667460701704,241,1609043667460701704,0.0261021002898,0.015776716809,-0.00477058725589,6.81008688432e-05,7.9064128209e-05,-0.000443648440215,0.999999896144,0.0,0.0,0.0,0.0,0.0,0.0
1609043667563713789,242,1609043667563713789,0.020725355261,0.0189734304758,-0.00499426740729,0.000125997346906,-0.000471795034425,-0.000202805802383,0.999999860202,0.0,0.0,0.0,0.0,0.0,0.0
1609043667665854692,243,1609043667665854692,0.0277826902288,0.0184315354001,-0.00579443761582,-5.68697490389e-05,-0.00043653946815,-0.000441329991349,0.999999805713,0.0,0.0,0.0,0.0,0.0,0.0
1609043667769175291,244,1609043667769175291,0.019392682565,0.0202108388619,-0.00301834836256,-2.26397427168e-05,0.000201484507036,-0.000351735075893,0.999999917587,0.0,0.0,0.0,0.0,0.0,0.0
1609043667874624014,245,1609043667874624014,0.0184667508272,0.0138036174315,-0.0023441716385,3.74201571042e-05,-0.000249591828575,-0.000396224561742,0.999999889655,0.0,0.0,0.0,0.0,0.0,0.0
1609043667981836557,246,1609043667981836557,0.0266303927005,0.0101816598984,-0.00428379624986,0.000123777100727,-0.000227216975895,-0.00034346234615,0.999999907543,0.0,0.0,0.0,0.0,0.0,0.0
1609043668084876776,247,1609043668084876776,0.0220193687018,0.0191639368298,-0.00428310309525,0.000230533013608,-0.000241183660421,-0.000430289032257,0.999999851768,0.0,0.0,0.0,0.0,0.0,0.0
1609043668156872034,248,1609043668156872034,0.0234349785821,0.0126297775803,-0.0063765864309,0.000133326578285,-0.000218464989352,-0.000382858805454,0.999999893958,0.0,0.0,0.0,0.0,0.0,0.0
1609043668257738829,249,1609043668257738829,0.0172977583336,0.00502682784834,-0.00693328052925,0.000280924155252,-0.000691193161128,-0.00013664717908,0.99999971233,0.0,0.0,0.0,0.0,0.0,0.0
1609043668369698286,250,1609043668369698286,0.0216445494695,0.0150896417826,-0.00541241167722,-0.000257586992514,-8.90561634479e-05,-0.000409087281909,0.999999879183,0.0,0.0,0.0,0.0,0.0,0.0
1609043668472450018,251,1609043668472450018,0.0217763590853,0.0131199495675,-0.00595707016546,0.000266986854312,-0.000340813222883,-0.000232318609669,0.999999879296,0.0,0.0,0.0,0.0,0.0,0.0
1609043668576153994,252,1609043668576153994,0.0215928044198,0.0113676023903,-0.00392150890861,8.02752417835e-05,-0.00049332126378,-0.000319951615376,0.99999982391,0.0,0.0,0.0,0.0,0.0,0.0
1609043668679510355,253,1609043668679510355,0.0186389543143,0.0216693906562,-0.00556141671906,0.000196135983742,-0.000390340590993,-0.000500740260538,0.999999779212,0.0,0.0,0.0,0.0,0.0,0.0
1609043668758439302,254,1609043668758439302,0.0211526857547,0.022215926601,-0.00435369132541,-4.12599782685e-05,-3.6756480163e-06,-0.000442860793878,0.999999901079,0.0,0.0,0.0,0.0,0.0,0.0
1609043668861402035,255,1609043668861402035,0.0190800988461,0.0118111572813,-0.00700834312969,0.00010127807036,-0.000256778277007,-0.000223761568038,0.999999936869,0.0,0.0,0.0,0.0,0.0,0.0
1609043668967531204,256,1609043668967531204,0.022506967769,0.0174247915967,-0.00372503256934,0.000101735946115,-0.000290018949006,-0.000386650975961,0.99999987802,0.0,0.0,0.0,0.0,0.0,0.0
1609043669075342655,257,1609043669075342655,0.0170221193586,0.0149317686097,-0.00533630038574,0.000391221463417,-0.000267727674347,-0.000292315549425,0.99999984491,0.0,0.0,0.0,0.0,0.0,0.0
1609043669178456545,258,1609043669178456545,0.0215291638188,0.0137709282997,-0.00648828420927,0.000391378749954,-0.000306159981491,-0.000428645677403,0.999999784676,0.0,0.0,0.0,0.0,0.0,0.0
1609043669283041716,259,1609043669283041716,0.0269625264891,0.0191697575541,-0.00394685239969,-0.00017185499566,0.000157833808794,-0.00031781903018,0.999999922273,0.0,0.0,0.0,0.0,0.0,0.0
1609043669356589317,260,1609043669356589317,0.0232865136243,0.0137870923542,-0.00456583951843,0.000187292105515,-0.000606494514024,-0.000309780190525,0.999999750561,0.0,0.0,0.0,0.0,0.0,0.0
1609043669458377600,261,1609043669458377600,0.0211272007265,0.0105372233984,-0.00517131173692,-2.90597540411e-06,-0.000252579157421,-0.000275084079579,0.999999930262,0.0,0.0,0.0,0.0,0.0,0.0
1609043669561326265,262,1609043669561326265,0.0196521888998,0.0251975912931,-0.00469176962559,-4.3021629444e-05,4.18188204879e-05,-0.000416513016347,0.999999911459,0.0,0.0,0.0,0.0,0.0,0.0
1609043669664672613,263,1609043669664672613,0.0258040975274,0.0163479153111,-0.00594275681171,0.000214883088771,-0.000220850240504,-0.000388442235689,0.999999877081,0.0,0.0,0.0,0.0,0.0,0.0
1609043669767797709,264,1609043669767797709,0.0173752995359,0.0216161900334,-0.00437683444499,0.000288690540611,-0.000301355464309,-0.000412558050032,0.999999827819,0.0,0.0,0.0,0.0,0.0,0.0
1609043669870740891,265,1609043669870740891,0.0205009539787,0.0166550054462,-0.00444412757859,2.67353893589e-05,-7.01598390299e-05,-0.000234966368425,0.999999969577,0.0,0.0,0.0,0.0,0.0,0.0
1609043669974768639,266,1609043669974768639,0.0290054520456,0.0139916359794,-0.00304615287611,-0.000166261820536,0.000250123690111,-0.000355775807117,0.999999891609,0.0,0.0,0.0,0.0,0.0,0.0
1609043670077357054,267,1609043670077357054,0.0198279660469,0.0137603689689,-0.00541740687203,0.000185912711134,-0.000490227562596,-0.000284784264135,0.999999822006,0.0,0.0,0.0,0.0,0.0,0.0
1609043670180481911,268,1609043670180481911,0.0280393545709,0.0123942909071,-0.00679978249126,0.00027642386928,-0.000162259552056,-0.000458670484545,0.999999843441,0.0,0.0,0.0,0.0,0.0,0.0
1609043670282839537,269,1609043670282839537,0.0212746303274,0.0250772409756,-0.00450616470819,0.000488943761764,-0.000290785124503,-0.000527539007141,0.99999969904,0.0,0.0,0.0,0.0,0.0,0.0
1609043670385955572,270,1609043670385955572,0.0209404172946,0.0112346720343,-0.00444317091144,3.60592672876e-05,-0.000111853674347,-0.000282403787872,0.999999953218,0.0,0.0,0.0,0.0,0.0,0.0
1609043670456449270,271,1609043670456449270,0.0277996354208,0.0158348310767,-0.00362810129924,0.000246427673571,-0.000111938015624,-0.000411958734998,0.999999878517,0.0,0.0,0.0,0.0,0.0,0.0
1609043670558374166,272,1609043670558374166,0.0219768233778,0.0233792258813,-0.00414311830931,-0.000206269969136,6.24147426314e-06,-0.000314398880104,0.999999929283,0.0,0.0,0.0,0.0,0.0,0.0
1609043670661405802,273,1609043670661405802,0.0245905516846,0.0132591675334,-0.0038058357917,0.000163870535606,-0.00047198395556,-0.000304109055356,0.999999828948,0.0,0.0,0.0,0.0,0.0,0.0
1609043670764571667,274,1609043670764571667,0.0180922624617,0.0190832510106,-0.00596081500092,-2.20560886751e-06,-0.000105013278821,-0.000293717292807,0.999999951349,0.0,0.0,0.0,0.0,0.0,0.0
1609043670867654324,275,1609043670867654324,0.0217833624925,0.0217268048233,-0.00269486538288,-1.51432594084e-06,-0.000296018368127,-0.000456607687405,0.99999985194,0.0,0.0,0.0,0.0,0.0,0.0
1609043670970948458,276,1609043670970948458,0.0171341279949,0.0207084223243,-0.0043949410317,0.000192606250929,-0.00012858722753,-0.000537635047033,0.999999828658,0.0,0.0,0.0,0.0,0.0,0.0
1609043671074268579,277,1609043671074268579,0.0226706343032,0.0192126756726,-0.004798613078,-2.51997095842e-05,-0.000118641642159,-0.000269152094063,0.999999956423,0.0,0.0,0.0,0.0,0.0,0.0
1609043671177553177,278,1609043671177553177,0.0260533223765,0.0121048126059,-0.00486941717619,-0.000110463615121,-3.94884075689e-05,-0.000285544992055,0.999999952351,0.0,0.0,0.0,0.0,0.0,0.0
1609043671280499458,279,1609043671280499458,0.0209678134362,0.0158255180368,-0.00538765038831,0.000154866710078,-0.000338439471221,-0.000288819914639,0.999999889029,0.0,0.0,0.0,0.0,0.0,0.0
1609043671384469509,280,1609043671384469509,0.0227644789108,0.013449257521,-0.00654143482026,0.000185299072418,-0.000145498012197,-0.000418666276664,0.999999884606,0.0,0.0,0.0,0.0,0.0,0.0
1609043671489806175,281,1609043671489806175,0.0240946947903,0.024022917242,-0.00343319670786,-0.000158304877554,-0.000123041411922,-0.000549336793846,0.999999829015,0.0,0.0,0.0,0.0,0.0,0.0
1609043671558113098,282,1609043671558113098,0.0211844353781,0.0244586186833,-0.00415490743382,-1.06698601466e-05,-0.000433570441972,-0.000376695456412,0.999999835002,0.0,0.0,0.0,0.0,0.0,0.0
1609043671658515692,283,1609043671658515692,0.023163569937,0.0209146022767,-0.00561167238141,0.000274684425728,-0.000470108211392,-0.000349398416669,0.999999790734,0.0,0.0,0.0,0.0,0.0,0.0
1609043671761777401,284,1609043671761777401,0.0213437217253,0.0182881182933,-0.00722197231922,0.000243505950433,-4.19216895827e-05,-0.00040744571299,0.999999886468,0.0,0.0,0.0,0.0,0.0,0.0
1609043671872451544,285,1609043671872451544,0.018424764131,0.0239273711392,-0.00469348944558,0.000297943144905,-0.000304645959177,-0.000321089687807,0.999999857661,0.0,0.0,0.0,0.0,0.0,0.0
1609043671974337339,286,1609043671974337339,0.0213321109835,0.0190902734722,-0.00436387169503,0.000130692593745,-0.000149435075261,-0.000454246118789,0.999999877124,0.0,0.0,0.0,0.0,0.0,0.0
1609043672077321529,287,1609043672077321529,0.0206783646399,0.0214168775289,-0.00700731784175,0.000309365820972,-0.000377829717312,-0.000474758023844,0.999999768071,0.0,0.0,0.0,0.0,0.0,0.0
1609043672180401087,288,1609043672180401087,0.016838546304,0.0241473055593,-0.00481236149324,0.00018969942076,-0.000302828542033,-0.000562361820015,0.999999778029,0.0,0.0,0.0,0.0,0.0,0.0
1609043672283194542,289,1609043672283194542,0.0211412739903,0.0175657930656,-0.00537724832942,4.37161650328e-05,-7.79405708513e-05,-0.00041008179097,0.999999911923,0.0,0.0,0.0,0.0,0.0,0.0
1609043672389885426,290,1609043672389885426,0.0243560958505,0.0203833878044,-0.00542579097154,4.47232262396e-05,-3.89400273659e-05,-0.000395614343417,0.999999919986,0.0,0.0,0.0,0.0,0.0,0.0
1609043672457178354,291,1609043672457178354,0.0168483404396,0.0185840249699,-0.00564075725699,0.000237489815157,-0.000223676955879,-0.000215919203223,0.999999923473,0.0,0.0,0.0,0.0,0.0,0.0
1609043672561815500,292,1609043672561815500,0.0251114005652,0.0173955625217,-0.00562420399539,0.000101402365089,-0.000101668397628,-0.000424358463786,0.99999989965,0.0,0.0,0.0,0.0,0.0,0.0
1609043672661930084,293,1609043672661930084,0.0218963461109,0.0198764570218,-0.00354417776803,-5.429767728e-05,-7.69755795825e-05,-0.000590943640278,0.999999820956,0.0,0.0,0.0,0.0,0.0,0.0
1609043672765889406,294,1609043672765889406,0.0191481604391,0.030332922632,-0.00537849089604,9.27733539314e-05,-0.000228657692821,-0.000326400765821,0.999999916286,0.0,0.0,0.0,0.0,0.0,0.0
1609043672869439602,295,1609043672869439602,0.019352954001,0.0197276430257,-0.0067669564822,1.90332865411e-05,-7.85599194238e-05,-0.000372380745689,0.999999927399,0.0,0.0,0.0,0.0,0.0,0.0
1609043672971505404,296,1609043672971505404,0.015652320615,0.0235749112292,-0.00417195662908,0.000146338297393,-0.000177918749087,-0.000499442378392,0.999999848744,0.0,0.0,0.0,0.0,0.0,0.0
1609043673073864698,297,1609043673073864698,0.0256429800256,0.0236922962423,-0.00406824681545,2.01363944349e-05,-0.000156471669615,-0.000316982537948,0.999999937316,0.0,0.0,0.0,0.0,0.0,0.0
1609043673177118301,298,1609043673177118301,0.0171889994037,0.0258572224547,-0.00536951254479,-6.0636286484e-06,-0.000474733510935,-0.000578228051008,0.999999720122,0.0,0.0,0.0,0.0,0.0,0.0
1609043673280866861,299,1609043673280866861,0.0239906369953,0.0195708615727,-0.00569886545749,0.00015585545975,-0.000265839981769,-0.000590495694084,0.999999778176,0.0,0.0,0.0,0.0,0.0,0.0
1609043673384187460,300,1609043673384187460,0.0231140372146,0.0146221768537,-0.00592201945432,2.70186283318e-05,-9.40059068602e-05,-0.000260735828291,0.999999961225,0.0,0.0,0.0,0.0,0.0,0.0
1609043673486265659,301,1609043673486265659,0.0219121651738,0.017273573969,-0.00536721253066,8.62638731876e-05,-0.000180937510173,-0.000400778772482,0.999999899598,0.0,0.0,0.0,0.0,0.0,0.0
1609043673556525946,302,1609043673556525946,0.0230991262102,0.0173930280604,-0.00435441991249,0.000146751143707,-1.36117744561e-05,-0.000389202660029,0.9999999134,0.0,0.0,0.0,0.0,0.0,0.0
1609043673658455372,303,1609043673658455372,0.023434095064,0.0203526040631,-0.00500803807105,-0.000209422922621,-0.000111878145765,-0.000193226222209,0.999999953144,0.0,0.0,0.0,0.0,0.0,0.0
1609043673763788700,304,1609043673763788700,0.0192168860741,0.0212868428757,-0.00469412148622,0.000213239082741,-0.000245870403332,-0.000189708839249,0.999999929044,0.0,0.0,0.0,0.0,0.0,0.0
1609043673866989851,305,1609043673866989851,0.0217476666207,0.0209705262797,-0.00614453664714,9.2648069689e-05,-0.00042653467115,-0.000570511801943,0.999999742,0.0,0.0,0.0,0.0,0.0,0.0
1609043673967819691,306,1609043673967819691,0.0186914438402,0.0156257433606,-0.00564968472891,0.000358023382723,-0.000443708766337,-0.000285001866356,0.999999796858,0.0,0.0,0.0,0.0,0.0,0.0
1609043674070949078,307,1609043674070949078,0.0247856854607,0.0200180803024,-0.00505331488054,-6.66049463114e-05,-0.000112078727426,-0.000458119858855,0.999999886564,0.0,0.0,0.0,0.0,0.0,0.0
1609043674175453901,308,1609043674175453901,0.0237848128224,0.0176682858066,-0.00461529184409,7.36702789758e-05,-0.000284414077493,-0.000435987742634,0.999999861798,0.0,0.0,0.0,0.0,0.0,0.0
1609043674278709888,309,1609043674278709888,0.0192650040904,0.0179897152095,-0.00367860941376,5.29130325507e-05,-4.15472318159e-05,-0.000329691342049,0.999999943389,0.0,0.0,0.0,0.0,0.0,0.0
1609043674380568743,310,1609043674380568743,0.0246501325682,0.0200447110636,-0.00500049722351,9.29179721896e-05,-0.000535425339479,-0.000291753286169,0.999999809783,0.0,0.0,0.0,0.0,0.0,0.0
1609043674486509562,311,1609043674486509562,0.0202218288074,0.0126257795931,-0.00425382550504,0.000207251196114,-0.000270285685489,-0.000245671060452,0.999999911819,0.0,0.0,0.0,0.0,0.0,0.0
1609043674557726383,312,1609043674557726383,0.0222327307342,0.0217235801283,-0.00430778031977,0.000352926244376,-0.000330095776634,-0.000390956238109,0.999999806816,0.0,0.0,0.0,0.0,0.0,0.0
1609043674658894539,313,1609043674658894539,0.0185499820338,0.0206377120273,-0.00465587226131,-8.38142916436e-05,-0.000224645983706,-0.000378565651199,0.999999899599,0.0,0.0,0.0,0.0,0.0,0.0
1609043674762137413,314,1609043674762137413,0.0256949608894,0.0133435461065,-0.0050089151844,3.27014023434e-05,-0.000191834671199,-0.000254113664736,0.999999948778,0.0,0.0,0.0,0.0,0.0,0.0
1609043674864768267,315,1609043674864768267,0.022005046168,0.0192486585897,-0.00653328475118,4.43162585981e-05,-0.000123085160996,-0.000363457248263,0.999999925392,0.0,0.0,0.0,0.0,0.0,0.0
1609043674967703342,316,1609043674967703342,0.0203979182534,0.0284873117843,-0.00615519265155,4.09138893425e-06,-3.70674539592e-05,-0.000457290059007,0.999999894747,0.0,0.0,0.0,0.0,0.0,0.0
1609043675070831060,317,1609043675070831060,0.0202037158401,0.0192638766848,-0.00632637882389,0.000101739818799,-0.000276148597972,-0.000347448304979,0.999999896335,0.0,0.0,0.0,0.0,0.0,0.0
1609043675175945997,318,1609043675175945997,0.0255871332548,0.0135351653482,-0.00300877958117,-4.49490877175e-06,-0.000255902830502,-0.000354325469258,0.999999904473,0.0,0.0,0.0,0.0,0.0,0.0
1609043675276805162,319,1609043675276805162,0.0232906609095,0.0223983509519,-0.00316850070044,-0.00019158183274,-0.000259322193793,-0.000346042307146,0.999999888151,0.0,0.0,0.0,0.0,0.0,0.0
1609043675379696608,320,1609043675379696608,0.0199030160015,0.0212528255649,-0.00374244806111,0.00014609926102,-0.000152514707877,-0.000425624446928,0.999999887119,0.0,0.0,0.0,0.0,0.0,0.0
1609043675484305859,321,1609043675484305859,0.0208346266968,0.0122166568497,-0.00588133594983,0.000263147123923,-0.00044017810571,-0.000343145381863,0.999999809624,0.0,0.0,0.0,0.0,0.0,0.0
1609043675586269379,322,1609043675586269379,0.0254628080337,0.0157007273927,-0.00443595937708,0.000225448671578,-7.3409683345e-05,-0.000342433667431,0.999999913261,0.0,0.0,0.0,0.0,0.0,0.0
1609043675656328917,323,1609043675656328917,0.0127632380029,0.0255144032418,-0.00405752592323,0.000296482671597,-0.000202061712664,-0.000522438141323,0.999999799164,0.0,0.0,0.0,0.0,0.0,0.0
1609043675758325100,324,1609043675758325100,0.0158385561258,0.0231586843753,-0.00738529696973,1.01565061345e-05,-0.000178487308358,-0.000514103453639,0.999999851868,0.0,0.0,0.0,0.0,0.0,0.0
1609043675861519575,325,1609043675861519575,0.027017495057,0.0146473789699,-0.00570629458542,0.000149777599497,-0.000293598920435,-0.000359202541095,0.99999988117,0.0,0.0,0.0,0.0,0.0,0.0
1609043675964497566,326,1609043675964497566,0.0207722372152,0.02196779274,-0.00662236788418,0.000183381218627,-0.000206440504067,-0.000492913423232,0.999999840395,0.0,0.0,0.0,0.0,0.0,0.0
1609043676067419767,327,1609043676067419767,0.0183572051055,0.010082785469,-0.00289540667812,0.000362900142569,-3.9301326806e-05,-0.000247198194387,0.999999902826,0.0,0.0,0.0,0.0,0.0,0.0
1609043676170366049,328,1609043676170366049,0.0187384733342,0.0259285107631,-0.00612243425726,3.61755434691e-05,-0.000249099966673,-0.000386808966261,0.99999989351,0.0,0.0,0.0,0.0,0.0,0.0
1609043676273576975,329,1609043676273576975,0.0221858680132,0.0146896354388,-0.00448052466836,-6.82205408728e-05,-0.000256910647928,-0.000437462084242,0.999999868985,0.0,0.0,0.0,0.0,0.0,0.0
1609043676377115250,330,1609043676377115250,0.0189208731272,0.0265693870988,-0.00603248692917,0.000256371351696,-0.000330353439722,-0.000611633731045,0.999999725522,0.0,0.0,0.0,0.0,0.0,0.0
1609043676479820490,331,1609043676479820490,0.0218839239684,0.0157289595876,-0.00573367500232,-3.17846368205e-05,-0.000246646752678,-0.000369690709333,0.999999900742,0.0,0.0,0.0,0.0,0.0,0.0
1609043676583160400,332,1609043676583160400,0.0192387704319,0.0172518370302,-0.0060815719319,9.19662164966e-05,-0.000132291639548,-0.000347025892687,0.999999926807,0.0,0.0,0.0,0.0,0.0,0.0
1609043676686212540,333,1609043676686212540,0.0191522253678,0.015446112211,-0.006410886042,0.000337686790416,-0.000289588177674,-0.000128920916563,0.999999892743,0.0,0.0,0.0,0.0,0.0,0.0
1609043676756862402,334,1609043676756862402,0.0169050202552,0.0215104867934,-0.00454043282572,9.68600192717e-05,-0.000254823656779,-0.000489438276241,0.999999843066,0.0,0.0,0.0,0.0,0.0,0.0
1609043676857973814,335,1609043676857973814,0.024059541914,0.0195880030216,-0.00501652704852,0.000166435945747,-0.00029228766072,-0.000375734999411,0.999999872845,0.0,0.0,0.0,0.0,0.0,0.0
1609043676961449385,336,1609043676961449385,0.0222883979155,0.0145942053995,-0.00403888078537,4.3461961972e-06,-0.000228160997328,-0.000315711336015,0.999999924125,0.0,0.0,0.0,0.0,0.0,0.0
1609043677064424992,337,1609043677064424992,0.0199014857863,0.0204199647366,-0.0049832085886,-0.000191536803324,-0.000282355511994,-0.000320602627809,0.999999890401,0.0,0.0,0.0,0.0,0.0,0.0
1609043677167688608,338,1609043677167688608,0.0159723024068,0.0161836854342,-0.00475164781816,0.000281905316055,-0.000129756877614,-0.000271746146117,0.999999914923,0.0,0.0,0.0,0.0,0.0,0.0
1609043677270481110,339,1609043677270481110,0.0210292921384,0.0218827182004,-0.0043791614181,-3.16777919032e-05,-0.000218744981012,-0.000466244069436,0.999999866882,0.0,0.0,0.0,0.0,0.0,0.0
1609043677373960257,340,1609043677373960257,0.0218912598281,0.0179654106122,-0.00527633072047,0.000190740574982,-9.3423795529e-05,-0.00021494972837,0.999999954343,0.0,0.0,0.0,0.0,0.0,0.0
1609043677477940798,341,1609043677477940798,0.0245186084171,0.0183977843771,-0.00653032014845,-7.86319209682e-05,2.10098556357e-06,-0.000286417608839,0.999999955889,0.0,0.0,0.0,0.0,0.0,0.0
1609043677579547405,342,1609043677579547405,0.0182342687751,0.0176900006527,-0.0031905114604,0.000397598404452,-0.000546525058422,-0.000269023561223,0.999999735426,0.0,0.0,0.0,0.0,0.0,0.0
1609043677656095982,343,1609043677656095982,0.021836264892,0.0173422432997,-0.00601294816604,8.66066994883e-05,-4.05173746301e-05,-0.000344172787231,0.999999936201,0.0,0.0,0.0,0.0,0.0,0.0
1609043677756802797,344,1609043677756802797,0.0236697461815,0.0116028656022,-0.00679626168871,-0.000115374476598,-0.000545611515443,-0.000489734574443,0.999999724578,0.0,0.0,0.0,0.0,0.0,0.0
1609043677859470606,345,1609043677859470606,0.0252698002936,0.0287901973704,-0.00377551729778,0.000191406615504,-2.17015820244e-05,-0.000423644820344,0.999999891709,0.0,0.0,0.0,0.0,0.0,0.0
1609043677962438345,346,1609043677962438345,0.0233148362097,0.0171353896397,-0.00489807072191,0.000366529126879,-0.000395715775992,-0.000373041571824,0.999999784953,0.0,0.0,0.0,0.0,0.0,0.0
1609043678065738201,347,1609043678065738201,0.02233084816,0.0234444869211,-0.00698201356302,9.87486762336e-05,2.03635530926e-05,-0.00039848256607,0.999999915523,0.0,0.0,0.0,0.0,0.0,0.0
1609043678168950558,348,1609043678168950558,0.0220807249625,0.0192699011368,-0.00452688909534,0.000222047713378,-0.000196739499941,-0.000464779137936,0.999999847984,0.0,0.0,0.0,0.0,0.0,0.0
1609043678271996021,349,1609043678271996021,0.0240658836862,0.0180410547199,-0.00182478774451,-0.000132108569064,-3.46384994181e-06,-0.000377925645135,0.999999919854,0.0,0.0,0.0,0.0,0.0,0.0
