%time,field.header.seq,field.header.stamp,field.pose.pose.position.x,field.pose.pose.position.y,field.pose.pose.position.z,field.pose.pose.orientation.x,field.pose.pose.orientation.y,field.pose.pose.orientation.z,field.pose.pose.orientation.w,field.twist.twist.linear.x,field.twist.twist.linear.y,field.twist.twist.linear.z,field.twist.twist.angular.x,field.twist.twist.angular.y,field.twist.twist.angular.z
1609043646791864872,34,1609043646791864872,-0.00591735537311,-0.00348117547821,0.0532167002406,-0.000156437655297,-0.000438676950426,0.000144455778297,0.999999881111,0.0,0.0,0.0,0.0,0.0,0.0
1609043646902972460,35,1609043646902972460,-0.00651596309721,-0.00389196675084,0.0430369792801,-0.00112613386862,0.00107355631496,-0.00049386717213,0.999998667696,0.0,0.0,0.0,0.0,0.0,0.0
1609043646996694565,36,1609043646996694565,-0.00506917396745,-0.000986860881835,0.0424007170733,-0.000208153219234,0.000799279701829,5.74981930004e-06,0.999999658895,0.0,0.0,0.0,0.0,0.0,0.0
1609043647091798067,37,1609043647091798067,-0.00369266900843,-0.0041231915027,0.0716484680627,0.000683107053646,0.000113085377769,-0.000333623717521,0.999999704636,0.0,0.0,0.0,0.0,0.0,0.0
1609043647202976704,38,1609043647202976704,-0.0127674590213,-0.00789005419575,0.0592939549853,0.000602946661838,0.000342557121292,0.000235919466705,0.999999731726,0.0,0.0,0.0,0.0,0.0,0.0
1609043647296796083,39,1609043647296796083,-0.00977571621026,-4.95757321869e-05,0.0542289171896,-0.000234605321412,0.000574001304733,-0.000147856136979,0.999999796811,0.0,0.0,0.0,0.0,0.0,0.0
1609043647392237186,40,1609043647392237186,-0.01472728005,-0.00371543893039,0.0590071967229,2.33827602175e-05,0.000632857310713,0.000114798829339,0.999999792883,0.0,0.0,0.0,0.0,0.0,0.0
1609043647502632380,41,1609043647502632380,-0.00831285461523,-0.00280698602414,0.0699881787289,0.00191787573508,0.000921505165458,-8.89079229494e-05,0.999997732336,0.0,0.0,0.0,0.0,0.0,0.0
1609043647596337318,42,1609043647596337318,-0.0158996852878,-0.00873259094124,0.0717831298534,0.000629004744056,0.000945770133538,0.000286945564196,0.999999313767,0.0,0.0,0.0,0.0,0.0,0.0
1609043647691184044,43,1609043647691184044,-0.00503105017353,-0.00345053230913,0.0600243488081,0.00035506690175,0.000412948353571,-0.000179343154413,0.999999835619,0.0,0.0,0.0,0.0,0.0,0.0
1609043647802375793,44,1609043647802375793,-0.0163794905979,-0.00237891858745,0.0692066380315,0.000469017717095,0.000963207127987,0.000220997466345,0.999999401707,0.0,0.0,0.0,0.0,0.0,0.0
1609043647895907402,45,1609043647895907402,-0.00355900592171,-0.00308747044466,0.0557008136747,-0.000251574532586,-0.000165128224491,2.98262562443e-05,0.999999954277,0.0,0.0,0.0,0.0,0.0,0.0
1609043647990996361,46,1609043647990996361,-0.00841574989769,-0.00307433004097,0.0493253105037,0.000987495422789,0.000495234585554,8.44684504987e-05,0.99999938623,0.0,0.0,0.0,0.0,0.0,0.0
1609043648102275610,47,1609043648102275610,-0.00911176256349,-0.00583472338106,0.0718561682747,-0.000899627238885,0.000896564809506,-0.000290099089551,0.999999151342,0.0,0.0,0.0,0.0,0.0,0.0
1609043648196273327,48,1609043648196273327,-0.00705086418081,-0.00305150133704,0.0573426187317,0.0018814386678,6.90100454998e-05,-0.000259268897705,0.999998194101,0.0,0.0,0.0,0.0,0.0,0.0
1609043648291495800,49,1609043648291495800,-0.0155766277172,0.000198713620718,0.042808170188,0.00201833269288,0.00017744800172,-3.90927865224e-05,0.999997946656,0.0,0.0,0.0,0.0,0.0,0.0
1609043648402984619,50,1609043648402984619,-0.00339562077825,-0.00221444173017,0.0619971678877,0.00236294955813,0.000519184912579,-0.000346338046702,0.999997013479,0.0,0.0,0.0,0.0,0.0,0.0
1609043648496582270,51,1609043648496582270,-0.00471032881895,-0.00142932620266,0.0561856025913,0.00147400998792,-0.000858881695103,-0.000213950450628,0.99999852192,0.0,0.0,0.0,0.0,0.0,0.0
1609043648591827869,52,1609043648591827869,-0.00590638137315,-0.00623644567931,0.0415334392037,0.00101220303591,4.90343164047e-05,-5.32646107396e-05,0.999999485102,0.0,0.0,0.0,0.0,0.0,0.0
1609043648702544212,53,1609043648702544212,-0.00942418165603,-0.00403573550125,0.0495133379844,-0.000152575275227,0.000414566544047,-9.78321122158e-05,0.999999897642,0.0,0.0,0.0,0.0,0.0,0.0
1609043648796468258,54,1609043648796468258,-0.00890731921574,-0.00525192865,0.0660708538741,0.000605162800251,0.00108390529591,-0.00019630758981,0.999999210195,0.0,0.0,0.0,0.0,0.0,0.0
1609043648891956329,55,1609043648891956329,-0.0048124044231,-0.00540458923562,0.0622612905143,-0.000815492668931,0.00076831377684,-4.65563503766e-05,0.999999371249,0.0,0.0,0.0,0.0,0.0,0.0
1609043649002228498,56,1609043649002228498,-0.00622844807686,-0.00715074542985,0.0612941436741,0.00049944810174,0.000286078562981,-0.000599408049582,0.99999965471,0.0,0.0,0.0,0.0,0.0,0.0
1609043649096318722,57,1609043649096318722,-0.00414306007916,-0.00716477496068,0.075683199789,0.00123137771593,0.00105744641266,-0.000385344828823,0.999998608512,0.0,0.0,0.0,0.0,0.0,0.0
1609043649191228867,58,1609043649191228867,-0.0141713986312,-0.00310911263967,0.0669302039479,0.00131133131318,0.000617381134681,-9.37435476136e-05,0.999998945231,0.0,0.0,0.0,0.0,0.0,0.0
1609043649302909613,59,1609043649302909613,0.00230053878404,-0.00475464933665,0.0693876330398,0.000254710552902,0.000229876656653,-0.000214625030206,0.999999918108,0.0,0.0,0.0,0.0,0.0,0.0
1609043649395961285,60,1609043649395961285,-0.00280377764028,-0.00711159555016,0.0623686699234,7.05496825897e-06,0.000799412347147,-0.000554905039811,0.999999526485,0.0,0.0,0.0,0.0,0.0,0.0
1609043649491192102,61,1609043649491192102,-0.00831531317311,-0.00730315692928,0.0728477726014,0.000314064962154,5.29674494505e-05,-0.000170701670104,0.999999934709,0.0,0.0,0.0,0.0,0.0,0.0
1609043649602199554,62,1609043649602199554,0.00144284356138,-0.00930661703562,0.0972876849369,0.00148617006615,0.000979743560532,-0.000192415222472,0.999998397187,0.0,0.0,0.0,0.0,0.0,0.0
1609043649696164608,63,1609043649696164608,-0.00280607390959,-0.00471758277158,0.0861169680161,0.00059495122752,0.000923217932626,-0.000475691337866,0.999999283709,0.0,0.0,0.0,0.0,0.0,0.0
1609043649791517496,64,1609043649791517496,-0.00161092579772,-0.00937990008174,0.0797055263719,0.000566011455713,0.000991852991522,-0.000386078235984,0.999999273401,0.0,0.0,0.0,0.0,0.0,0.0
1609043649902424335,65,1609043649902424335,-0.00284193280008,-0.00417835882231,0.0546794656395,0.000205812641065,0.000513966393839,-0.000337811101977,0.999999789682,0.0,0.0,0.0,0.0,0.0,0.0
1609043649996346712,66,1609043649996346712,-0.00405324636551,-0.00122994798829,0.0502092498753,0.000541710463482,0.000424792764489,-0.000570620606143,0.999999600246,0.0,0.0,0.0,0.0,0.0,0.0
1609043650091483116,67,1609043650091483116,-0.00231942290207,-0.00557703328886,0.0435759889318,0.000718462212812,0.000606139375285,-0.000389835816803,0.999999482217,0.0,0.0,0.0,0.0,0.0,0.0
1609043650202539444,68,1609043650202539444,0.000849323017779,-0.00468502316959,0.0457288521597,-0.000244360364552,0.000585147490738,-0.000360588080627,0.999999733933,0.0,0.0,0.0,0.0,0.0,0.0
1609043650296222925,69,1609043650296222925,-0.000748861621654,-0.00879502172696,0.0618546123896,0.000629430481595,0.000399317477837,-0.000382019590246,0.999999649212,0.0,0.0,0.0,0.0,0.0,0.0
1609043650391599178,70,1609043650391599178,0.00163841007645,-0.0021054578915,0.048804428711,-0.000193865151096,0.000881105663694,-0.000544487365032,0.999999444801,0.0,0.0,0.0,0.0,0.0,0.0
1609043650502784014,71,1609043650502784014,-0.0066968736625,-0.00328343955758,0.0610343383999,0.000737857142039,0.000255165099419,-0.000295938397085,0.999999651439,0.0,0.0,0.0,0.0,0.0,0.0
1609043650596458912,72,1609043650596458912,-0.00487404087108,-0.00170441520292,0.0560504999683,0.00141127675829,-2.94342930114e-05,-2.38356027413e-05,0.999999003431,0.0,0.0,0.0,0.0,0.0,0.0
1609043650692670107,73,1609043650692670107,-0.0038695068459,-0.00457692017994,0.0489835494675,-0.000514676339303,0.00154328383205,-0.000200593990512,0.999998656572,0.0,0.0,0.0,0.0,0.0,0.0
1609043650802528858,74,1609043650802528858,-0.00391169077322,-0.00497949420885,0.0496566195622,0.000343283830382,0.000177966220852,-0.00062967308625,0.999999726998,0.0,0.0,0.0,0.0,0.0,0.0
1609043650896220207,75,1609043650896220207,0.0017591323368,-0.00433843921139,0.0587408813738,9.56094952528e-05,0.000970879905602,-0.000429799148459,0.999999431762,0.0,0.0,0.0,0.0,0.0,0.0
1609043650991568089,76,1609043650991568089,0.00589883710898,-0.0122932392326,0.0669591813547,-0.00038525464177,0.00102571923976,-0.000720389854201,0.999999140258,0.0,0.0,0.0,0.0,0.0,0.0
1609043651102053642,77,1609043651102053642,-0.00558991259437,-0.00377267834608,0.079153547897,0.000850582244177,0.00151398375564,-0.000321502482234,0.999998440498,0.0,0.0,0.0,0.0,0.0,0.0
1609043651195729256,78,1609043651195729256,-0.00424798859487,-0.00842924905141,0.0790488739187,0.000433537111527,0.000559335816587,-0.00026208293104,0.999999715251,0.0,0.0,0.0,0.0,0.0,0.0
1609043651290883541,79,1609043651290883541,-0.00378543499159,-0.00612334498554,0.075638287485,0.000554880188264,5.65495942363e-05,-7.21305301912e-05,0.999999841854,0.0,0.0,0.0,0.0,0.0,0.0
1609043651401990175,80,1609043651401990175,-0.00629858256792,-0.00238505843141,0.0670924017098,0.00082858521213,0.00148992483026,-0.000226398386134,0.999998521156,0.0,0.0,0.0,0.0,0.0,0.0
1609043651495388985,81,1609043651495388985,-0.000431346011188,-0.00350415543712,0.0708904226276,0.00121663577395,-0.000159729487722,-0.000692105436226,0.999999007636,0.0,0.0,0.0,0.0,0.0,0.0
1609043651590252638,82,1609043651590252638,-0.00455568730356,-0.00456803851243,0.0612548152668,0.00116089584761,0.000468796732775,-0.000479999764061,0.999999101075,0.0,0.0,0.0,0.0,0.0,0.0
1609043651701143742,83,1609043651701143742,0.00566269688267,-0.00317924927902,0.0899655963075,0.00127264971153,0.000350050800331,-0.000621253963828,0.999998935935,0.0,0.0,0.0,0.0,0.0,0.0
1609043651795102596,84,1609043651795102596,-0.00393586854688,-0.00640635225009,0.097424217601,0.000732175592838,0.000687257809633,-0.000388516014196,0.999999420325,0.0,0.0,0.0,0.0,0.0,0.0
1609043651890212536,85,1609043651890212536,-0.00404267885195,-0.00233217801136,0.0606381617454,0.000209888814469,0.000216045488843,-0.00045942093728,0.999999849102,0.0,0.0,0.0,0.0,0.0,0.0
1609043652001613855,86,1609043652001613855,0.00873367491057,-0.00217230079372,0.070746792871,0.00125249044515,0.00175365413726,-0.000858991477262,0.999997309046,0.0,0.0,0.0,0.0,0.0,0.0
1609043652097025871,87,1609043652097025871,-0.00153125629951,-0.00405984863237,0.070620720077,0.000308946680725,0.000825429966338,-0.000441991286957,0.99999951393,0.0,0.0,0.0,0.0,0.0,0.0
1609043652191180229,88,1609043652191180229,-0.00146405307712,-0.000529176009112,0.0501620448824,0.00172526148276,0.00108726307353,-0.00037120574651,0.999997851767,0.0,0.0,0.0,0.0,0.0,0.0
1609043652302369833,89,1609043652302369833,-0.00153376176962,-0.00378665922131,0.0404322646789,0.00160547493773,0.000726506291151,-0.000523603763585,0.999998310238,0.0,0.0,0.0,0.0,0.0,0.0
1609043652396425962,90,1609043652396425962,0.0055545871873,-0.00229064957914,0.0426809003083,0.00124464800949,0.000892502238511,-0.000466641632281,0.999998718267,0.0,0.0,0.0,0.0,0.0,0.0
1609043652491738319,91,1609043652491738319,-0.00828663777809,0.000218698565622,0.0513624245852,0.00155597747314,0.000876619951712,-3.5696432193e-05,0.999998404597,0.0,0.0,0.0,0.0,0.0,0.0
1609043652602623224,92,1609043652602623224,-1.66565560851e-06,-0.00310898029394,0.0309138970564,0.000486675596601,0.000680032577619,-0.000679372469095,0.999999419578,0.0,0.0,0.0,0.0,0.0,0.0
1609043652696133852,93,1609043652696133852,-0.00184489000236,-0.00352504668395,0.0407934118922,0.000198328425526,0.00133878754382,-0.000385717626941,0.999999009767,0.0,0.0,0.0,0.0,0.0,0.0
1609043652791276932,94,1609043652791276932,0.00432480570992,-0.00512521542936,0.0396147339281,0.000201457734987,0.000711992988858,-0.000655493268372,0.999999511405,0.0,0.0,0.0,0.0,0.0,0.0
1609043652902821064,95,1609043652902821064,0.000767419014321,-0.00506967645034,0.0446861346844,-0.000344435816246,0.000331544340187,-0.000535931605733,0.99999974211,0.0,0.0,0.0,0.0,0.0,0.0
1609043652995454788,96,1609043652995454788,-0.00323541350088,-0.00620655486348,0.0362646074892,0.00116809265599,0.00104682830658,-0.000290838194068,0.999998727561,0.0,0.0,0.0,0.0,0.0,0.0
1609043653090709686,97,1609043653090709686,-0.00305999204082,-0.00456097999131,0.0530216169342,-0.0001421913557,0.000665941298842,-0.00051897032888,0.999999633487,0.0,0.0,0.0,0.0,0.0,0.0
1609043653201574087,98,1609043653201574087,-0.00271774639952,-0.00361847232426,0.0518511853111,0.000526159322054,0.000866270111928,-0.000497476555833,0.999999362625,0.0,0.0,0.0,0.0,0.0,0.0
1609043653295418501,99,1609043653295418501,0.00402745339025,-0.00855911708849,0.0775034348554,-0.0004010945256,1.17175940213e-05,-0.000400038172535,0.999999839478,0.0,0.0,0.0,0.0,0.0,0.0
1609043653390455246,100,1609043653390455246,-0.0022539504405,-0.00230700161636,0.0661609305517,0.00162071052735,0.00100778801041,-0.000672238218149,0.999997952876,0.0,0.0,0.0,0.0,0.0,0.0
1609043653501995325,101,1609043653501995325,0.000369031950278,-0.000717309124094,0.0607640115724,0.00171171975018,0.000537322517976,-0.000589482754157,0.999998216903,0.0,0.0,0.0,0.0,0.0,0.0
1609043653595472336,102,1609043653595472336,-0.00797660108355,-0.00412189418705,0.0732105815565,0.000427847412335,0.00106992856597,-0.000172752253088,0.999999321178,0.0,0.0,0.0,0.0,0.0,0.0
1609043653690987825,103,1609043653690987825,0.00578038034783,-0.00428676648549,0.0835873305371,0.000806514053618,3.83889443836e-05,-0.000536647421672,0.999999530035,0.0,0.0,0.0,0.0,0.0,0.0
1609043653804563522,104,1609043653804563522,-0.00306394138068,-0.00321379255646,0.0719209530524,0.00110845566074,0.00124437473459,-0.000199902817031,0.999998591447,0.0,0.0,0.0,0.0,0.0,0.0
1609043653896149397,105,1609043653896149397,-0.00144091473932,-0.00699292489709,0.0691549738172,0.000938636859786,0.000827841553624,-0.000481096581131,0.999999101092,0.0,0.0,0.0,0.0,0.0,0.0
1609043653991488934,106,1609043653991488934,0.000898985252248,9.574443546e-05,0.0542545302855,-0.000695798051546,0.00108124708259,-0.000372282589671,0.999999104087,0.0,0.0,0.0,0.0,0.0,0.0
1609043654102961540,107,1609043654102961540,-0.0072842772224,-0.00897416860083,0.0644311212708,-3.36606372211e-05,0.000847128494996,-0.000152482853506,0.999999628995,0.0,0.0,0.0,0.0,0.0,0.0
1609043654196668386,108,1609043654196668386,0.000870578814879,-0.00396150314577,0.0499800060775,0.000582658417725,0.000153503367575,-0.000643914982202,0.99999961116,0.0,0.0,0.0,0.0,0.0,0.0
1609043654292183876,109,1609043654292183876,-0.00973936019601,-0.00128308879796,0.0555093620042,0.000278904248351,0.000698547358408,-0.00039499548771,0.999999639111,0.0,0.0,0.0,0.0,0.0,0.0
1609043654391701221,110,1609043654391701221,-0.00571226633357,-0.00781533409441,0.064094853689,-0.000482403989802,0.00133704681458,-4.05759849141e-05,0.999998988972,0.0,0.0,0.0,0.0,0.0,0.0
1609043654501185894,111,1609043654501185894,-0.00295881477739,-0.00494307517912,0.0714430339315,0.000779061117678,0.000637955575076,-0.000609009962746,0.999999307591,0.0,0.0,0.0,0.0,0.0,0.0
1609043654594986916,112,1609043654594986916,-0.00336824153608,-0.00833699938854,0.0740629034865,0.00069353542232,0.000747706885585,-4.42257437095e-05,0.999999478993,0.0,0.0,0.0,0.0,0.0,0.0
1609043654691385984,113,1609043654691385984,-0.00219431304266,-0.00765550057595,0.0672285129113,0.000778217034553,0.000797925023548,-0.000380981474971,0.999999306273,0.0,0.0,0.0,0.0,0.0,0.0
1609043654811316729,114,1609043654811316729,0.00059859917033,-0.00478865608688,0.0664389053687,0.000922546957854,0.000438502362069,-0.000339601130731,0.999999420647,0.0,0.0,0.0,0.0,0.0,0.0
1609043654913896561,115,1609043654913896561,-0.00287188967307,-0.00803118759899,0.0520123504959,0.00107245904124,0.00081188528586,-0.000318753765934,0.999999044535,0.0,0.0,0.0,0.0,0.0,0.0
1609043655016401291,116,1609043655016401291,-0.00632811220078,-0.00565115427318,0.0634233316213,0.000626829035919,0.000939982063204,-0.000489952011652,0.999999241733,0.0,0.0,0.0,0.0,0.0,0.0
1609043655119448423,117,1609043655119448423,0.0043647583992,-0.00595551194886,0.084722661439,0.000556433944281,0.000861250198954,-0.000461494035834,0.999999367826,0.0,0.0,0.0,0.0,0.0,0.0
1609043655191282272,118,1609043655191282272,-0.00422460396602,-0.0100421297296,0.0852697748044,0.000742377153354,0.0007302154608,-0.00033925568459,0.999999400283,0.0,0.0,0.0,0.0,0.0,0.0
1609043655291596651,119,1609043655291596651,0.00123049134361,-0.0090753688232,0.0918035998597,0.000165729172655,0.000650338016279,-0.000257203659094,0.99999974172,0.0,0.0,0.0,0.0,0.0,0.0
1609043655394699097,120,1609043655394699097,-0.000363918268929,-0.00452299319579,0.0698088636202,0.000769120826636,0.00069957316224,-0.000334112803243,0.999999403709,0.0,0.0,0.0,0.0,0.0,0.0
1609043655497698784,121,1609043655497698784,-0.00477422722525,-0.00641165229121,0.0538997358734,0.000962988626271,0.000108359830096,-0.000280949523229,0.999999490989,0.0,0.0,0.0,0.0,0.0,0.0
1609043655601108789,122,1609043655601108789,-0.00229734222169,-0.00851944113173,0.0631850470265,-0.000164492561685,0.00144157951878,-0.00024149125339,0.999998918236,0.0,0.0,0.0,0.0,0.0,0.0
1609043655704066515,123,1609043655704066515,-0.000500803726516,-0.0082364164181,0.0678732933044,0.000319002941895,0.000640570623569,-0.000540357522451,0.99999959796,0.0,0.0,0.0,0.0,0.0,0.0
1609043655808230162,124,1609043655808230162,0.0058492665235,-0.00825049695787,0.0615676113077,0.00053188243382,0.00107818785875,-0.000485582675976,0.99999915941,0.0,0.0,0.0,0.0,0.0,0.0
1609043655910398006,125,1609043655910398006,-0.00127631848286,-0.00945473709562,0.0481822393903,0.000587834410743,0.00117382338882,-0.000527608463858,0.999998999109,0.0,0.0,0.0,0.0,0.0,0.0
1609043655991637468,126,1609043655991637468,0.00577581202334,-0.0014019086747,0.0703509770063,0.0012231712965,0.00045252348011,-0.000449461545439,0.999999048529,0.0,0.0,0.0,0.0,0.0,0.0
1609043656104722738,127,1609043656104722738,-0.00287391915373,-0.00490284186332,0.056080464176,0.00100067757365,0.000563850611616,-0.000485870257498,0.999999222323,0.0,0.0,0.0,0.0,0.0,0.0
1609043656208684683,128,1609043656208684683,-0.0112520730098,-0.0020840634872,0.0591289068463,0.00146694754256,0.000635931439908,-8.15919266919e-05,0.999998718499,0.0,0.0,0.0,0.0,0.0,0.0
1609043656311864376,129,1609043656311864376,0.000354822903169,-0.00619183267131,0.0712104261089,0.000858333558247,0.00127617293953,-0.000357693784563,0.99999875335,0.0,0.0,0.0,0.0,0.0,0.0
1609043656415353060,130,1609043656415353060,-0.000401019196589,-0.00650559858344,0.0812451562596,0.00176211776795,0.000903195093033,-0.000402148780294,0.999997958726,0.0,0.0,0.0,0.0,0.0,0.0
1609043656518540859,131,1609043656518540859,-0.00278427785965,-0.00901381950068,0.0709619411663,0.000317269552715,0.00105988363075,-0.000643079530798,0.999999181217,0.0,0.0,0.0,0.0,0.0,0.0
1609043656621121168,132,1609043656621121168,0.000841103014958,-0.00251304472828,0.0618354717042,0.000459207279187,0.000296969591154,-0.000640304838629,0.999999645474,0.0,0.0,0.0,0.0,0.0,0.0
1609043656691882610,133,1609043656691882610,0.000142609418763,-0.00415535372745,0.0698490788451,0.000659566129815,0.000764002962655,-0.000444278151141,0.999999391944,0.0,0.0,0.0,0.0,0.0,0.0
1609043656793085575,134,1609043656793085575,0.00600318665748,-0.00531136444268,0.0423321378377,0.000365661820458,0.000110833203163,-0.000584963832577,0.999999755912,0.0,0.0,0.0,0.0,0.0,0.0
1609043656896668911,135,1609043656896668911,-0.00214323190633,-0.00646589559597,0.0573755900855,-0.000238224153548,0.00107841304763,-0.000328305268524,0.999999336245,0.0,0.0,0.0,0.0,0.0,0.0
1609043657000015736,136,1609043657000015736,-0.000292748829636,-0.00557227682275,0.0560589049707,0.000423521205147,0.000625434783631,-0.000469447024636,0.99999960454,0.0,0.0,0.0,0.0,0.0,0.0
1609043657102948189,137,1609043657102948189,-0.00297978483681,-0.000486372334259,0.0658848625017,0.000534309029535,0.00026247967637,-0.000279166792898,0.999999783842,0.0,0.0,0.0,0.0,0.0,0.0
1609043657205321789,138,1609043657205321789,0.000666379608733,-0.00678540368252,0.067714501566,0.000769780178358,0.000489409623564,-0.000529358981551,0.999999443848,0.0,0.0,0.0,0.0,0.0,0.0
1609043657308426857,139,1609043657308426857,0.00867915992432,-0.000448389321897,0.0448006195721,0.00154307198986,-1.61726191154e-05,-0.000704904385981,0.999998560888,0.0,0.0,0.0,0.0,0.0,0.0
1609043657412068844,140,1609043657412068844,0.00459734742932,0.00582556526437,0.0299650586072,0.00176222036756,-0.000161213738452,-0.000769356007706,0.999998138339,0.0,0.0,0.0,0.0,0.0,0.0
1609043657514689922,141,1609043657514689922,-0.000157788677134,-0.00135736469766,0.0483764748886,0.00236412645352,0.000378129268143,-0.000462638397657,0.999997026941,0.0,0.0,0.0,0.0,0.0,0.0
1609043657618461847,142,1609043657618461847,0.00639301905072,-0.00571044485218,0.0562777191836,0.00167145663371,0.000427783404378,-0.000529827985709,0.999998371257,0.0,0.0,0.0,0.0,0.0,0.0
1609043657720895529,143,1609043657720895529,0.00392049613043,-0.0021082153344,0.0507309053861,0.00163943646826,0.000334293820552,-0.000594542314929,0.999998423506,0.0,0.0,0.0,0.0,0.0,0.0
1609043657792515039,144,1609043657792515039,0.00199969320793,-0.000710743440524,0.046822591189,0.00209604985718,0.00114082188618,-0.000537588194998,0.999997008045,0.0,0.0,0.0,0.0,0.0,0.0
1609043657892947435,145,1609043657892947435,-0.000901906714203,-0.00110344558722,0.031652886551,-0.000591904405617,0.000124848500484,-0.000779303447317,0.999999513374,0.0,0.0,0.0,0.0,0.0,0.0
1609043657996776104,146,1609043657996776104,0.00431955099686,-0.00871271360334,0.0538925998652,-0.000209544693372,0.00041761522217,-0.000410246614943,0.999999806693,0.0,0.0,0.0,0.0,0.0,0.0
1609043658100443363,147,1609043658100443363,0.000208681865777,-0.00698625756822,0.0679473078617,0.000346304766788,0.000563009093859,-0.000555095407594,0.999999627481,0.0,0.0,0.0,0.0,0.0,0.0
1609043658202826977,148,1609043658202826977,-0.000490137483025,-0.000954180908257,0.0558973160692,0.000588743032521,0.000875999139318,-0.000596721201897,0.999999264965,0.0,0.0,0.0,0.0,0.0,0.0
1609043658306740046,149,1609043658306740046,-3.72846217284e-05,-0.0118240422865,0.0606391376632,0.000565992802717,0.000631387177345,-0.00024518544112,0.999999610443,0.0,0.0,0.0,0.0,0.0,0.0
1609043658412096977,150,1609043658412096977,-0.00303652186272,-0.00195536021232,0.0716855964499,0.000162555880003,0.000684467648533,-0.000519087869202,0.999999617814,0.0,0.0,0.0,0.0,0.0,0.0
1609043658515050411,151,1609043658515050411,1.48743429611e-05,-0.0113633644966,0.052890108463,-0.000431272803205,0.000154506531892,-0.000677676976479,0.999999665443,0.0,0.0,0.0,0.0,0.0,0.0
1609043658618355751,152,1609043658618355751,0.00508460300027,-0.00387959425569,0.0762731446784,0.00167895564182,0.000932123869674,-0.000636973913711,0.999997953257,0.0,0.0,0.0,0.0,0.0,0.0
1609043658721572638,153,1609043658721572638,-0.000213711079098,-0.00944567742233,0.0713466968953,-0.000848540601953,-0.000165075595725,-0.000536407837431,0.999999482498,0.0,0.0,0.0,0.0,0.0,0.0
1609043658792092323,154,1609043658792092323,0.00859177784855,-0.00973591269021,0.083848445362,-0.000322227044789,0.000225530756699,-0.000730658256041,0.999999655722,0.0,0.0,0.0,0.0,0.0,0.0
1609043658892846107,155,1609043658892846107,-0.000808072625374,-0.00924518805056,0.0796063200438,0.000851412657234,0.00138215314698,-0.00017782248353,0.999998666563,0.0,0.0,0.0,0.0,0.0,0.0
1609043658995822191,156,1609043658995822191,0.00100001011141,-0.00439185514919,0.0685018505141,0.00113088225796,0.000671005117179,-0.000490608692488,0.99999901508,0.0,0.0,0.0,0.0,0.0,0.0
1609043659099614143,157,1609043659099614143,0.00121110855462,-0.00802092366523,0.0645944942549,0.000364796132055,0.000491677511009,-0.000624886716505,0.999999617347,0.0,0.0,0.0,0.0,0.0,0.0
1609043659202844143,158,1609043659202844143,0.00400847966328,-0.00460454463386,0.0565335310642,0.000357747830751,0.000503328024968,-0.000798140584032,0.999999490824,0.0,0.0,0.0,0.0,0.0,0.0
1609043659306779146,159,1609043659306779146,0.00121011784373,-0.00784187293865,0.0648273017976,0.000297889605975,0.000662211580816,-0.000572240212578,0.999999572639,0.0,0.0,0.0,0.0,0.0,0.0
1609043659408468246,160,1609043659408468246,0.000747570274607,-0.00319180659579,0.0647615531652,-6.42595147668e-05,0.00059970601198,-0.000702804268977,0.999999571145,0.0,0.0,0.0,0.0,0.0,0.0
1609043659511890650,161,1609043659511890650,0.00165923651085,-0.00589145825098,0.0566448259399,-0.000344137040987,0.00143120741752,-0.00063220481617,0.999998716765,0.0,0.0,0.0,0.0,0.0,0.0
1609043659614902735,162,1609043659614902735,-0.000312800398876,-0.00178670024095,0.0587492913979,0.00121710409131,0.000756703093654,-0.000503942644563,0.999998846049,0.0,0.0,0.0,0.0,0.0,0.0
1609043659718211174,163,1609043659718211174,0.00795754310999,-0.00489648004281,0.0753272400235,0.00136057974329,0.000351187934153,-0.0005435882712,0.999998865,0.0,0.0,0.0,0.0,0.0,0.0
1609043659821568012,164,1609043659821568012,-0.0026956426009,-0.00251083883456,0.0777583093807,0.00185846743302,0.000883127035073,-0.000437842371353,0.999997787237,0.0,0.0,0.0,0.0,0.0,0.0
1609043659892356396,165,1609043659892356396,0.00601866300839,-0.00800469339747,0.0739931328097,0.000572450705763,0.00101603405174,-0.000547407552626,0.99999917016,0.0,0.0,0.0,0.0,0.0,0.0
1609043659993070364,166,1609043659993070364,0.00615887583779,-0.00445217193467,0.0532816749764,-0.000216708893838,0.00060288981966,-0.000355818722252,0.999999731477,0.0,0.0,0.0,0.0,0.0,0.0
1609043660095923901,167,1609043660095923901,0.00362371062471,-0.00656104452312,0.0621829602602,0.0011742403003,0.000287382171701,-0.000455872003891,0.999999165376,0.0,0.0,0.0,0.0,0.0,0.0
1609043660199874878,168,1609043660199874878,0.0109802355367,-0.00325526208953,0.0794747893569,0.00083826937872,0.000605591034284,-0.000725382878106,0.999999202192,0.0,0.0,0.0,0.0,0.0,0.0
1609043660302499294,169,1609043660302499294,0.0134317710445,-0.00490971467514,0.08209201673,0.00049138089991,0.000581490351791,-0.000753876554523,0.999999426042,0.0,0.0,0.0,0.0,0.0,0.0
1609043660406151056,170,1609043660406151056,0.0077403844048,-0.00637524764865,0.0705255501458,0.000509585055804,0.00140771047534,-0.000676635148037,0.999998650419,0.0,0.0,0.0,0.0,0.0,0.0
1609043660508600473,171,1609043660508600473,0.00770069726207,-0.00596684694689,0.0691974113382,0.00134030196322,-3.62391656641e-05,-0.000610751233558,0.99999891463,0.0,0.0,0.0,0.0,0.0,0.0
1609043660614635706,172,1609043660614635706,-0.00298190906969,-0.0019747008297,0.0503538588904,0.000606678522987,0.000403694650694,-0.000252267358246,0.999999702667,0.0,0.0,0.0,0.0,0.0,0.0
1609043660714884996,173,1609043660714884996,0.00432031456213,-0.0030511827419,0.0611589750057,0.000142485439893,-0.000100070007015,-0.00076029455616,0.999999695818,0.0,0.0,0.0,0.0,0.0,0.0
1609043660817903042,174,1609043660817903042,0.00447171396187,-0.00622231699999,0.0572929536435,0.000171401119673,0.000331276492674,-0.000556485997317,0.999999775601,0.0,0.0,0.0,0.0,0.0,0.0
1609043660921043873,175,1609043660921043873,0.00372842654074,-0.00401084502913,0.0732117381542,0.000356271772864,-0.000290823924995,-0.000507220126979,0.99999976561,0.0,0.0,0.0,0.0,0.0,0.0
1609043660991322756,176,1609043660991322756,-0.00184948828341,-0.00676317959259,0.0665703882031,-4.26718206278e-06,0.00119581224795,-0.000226574196221,0.999999259339,0.0,0.0,0.0,0.0,0.0,0.0
1609043661093570232,177,1609043661093570232,0.00801913577738,-0.00348471925733,0.0913749082098,0.00178115254307,0.00120152873859,-0.000369169998872,0.999997623766,0.0,0.0,0.0,0.0,0.0,0.0
1609043661196658134,178,1609043661196658134,0.00515860156083,-0.000230724365097,0.071830218464,0.00194716242361,0.000519147666805,-0.00048087832647,0.999997853898,0.0,0.0,0.0,0.0,0.0,0.0
1609043661299451113,179,1609043661299451113,-0.00594447563558,-0.00806448611322,0.057604166926,0.00101987578041,0.000739742396141,-0.000557864760338,0.99999905071,0.0,0.0,0.0,0.0,0.0,0.0
1609043661403145790,180,1609043661403145790,0.00375342343856,-0.00544838027065,0.0642146316927,4.20658415536e-05,0.000479346868576,-0.000526142590763,0.999999745816,0.0,0.0,0.0,0.0,0.0,0.0
1609043661506687403,181,1609043661506687403,0.0018125421786,-0.00379436920206,0.0725974468981,0.00108384467892,3.01377424869e-05,-0.000520675530246,0.999999276635,0.0,0.0,0.0,0.0,0.0,0.0
1609043661608501673,182,1609043661608501673,-4.30927060271e-06,-0.00323571768198,0.0512065833445,0.000433725482783,0.000561355800295,-0.000479897865196,0.99999963323,0.0,0.0,0.0,0.0,0.0,0.0
1609043661711476326,183,1609043661711476326,0.00542224253678,-0.0079340109322,0.0643460511956,-0.000639755740043,0.00060565966023,-0.000281276406767,0.999999572386,0.0,0.0,0.0,0.0,0.0,0.0
1609043661814483643,184,1609043661814483643,0.0051031515209,0.00066111634814,0.0584357652136,0.000285120946436,0.000114286497395,-0.000724558685704,0.99999969033,0.0,0.0,0.0,0.0,0.0,0.0
1609043661918184996,185,1609043661918184996,0.00757667872547,-0.00502684215459,0.0600759569509,0.0010195222015,0.00131076756157,-0.000525976038218,0.999998482905,0.0,0.0,0.0,0.0,0.0,0.0
1609043662021422863,186,1609043662021422863,-0.0074948375784,0.00262044639365,0.0479102198118,0.00158396258688,0.000389984547116,-0.000367314177569,0.999998602027,0.0,0.0,0.0,0.0,0.0,0.0
1609043662090835094,187,1609043662090835094,0.00610525592731,-0.00177779045585,0.0484898270471,0.00204443278149,0.00018576812613,-0.000418998572694,0.99999780511,0.0,0.0,0.0,0.0,0.0,0.0
1609043662192310333,188,1609043662192310333,-0.00354023751852,0.000371156103715,0.0410972660333,0.000991585120162,0.0010576293222,-0.000484307250964,0.999998831812,0.0,0.0,0.0,0.0,0.0,0.0
1609043662295542955,189,1609043662295542955,0.00456185750221,0.00216156252005,0.0376680332337,0.00256876996806,0.000285139729876,-0.000253724700061,0.999996627864,0.0,0.0,0.0,0.0,0.0,0.0
1609043662399462223,190,1609043662399462223,0.00774425882683,0.00205162722067,0.0352609067448,0.00152824623643,0.000735296821832,-0.000742610360669,0.999998286165,0.0,0.0,0.0,0.0,0.0,0.0
1609043662502590656,191,1609043662502590656,0.00145624441178,0.00442962631582,0.0542418391256,0.00215716963683,0.000623441134216,-0.000432605322371,0.999997385393,0.0,0.0,0.0,0.0,0.0,0.0
1609043662605285406,192,1609043662605285406,0.00408518264362,0.00174197097211,0.035820918505,0.00158934975307,0.000127244877187,-0.000766449341059,0.999998435165,0.0,0.0,0.0,0.0,0.0,0.0
1609043662708168745,193,1609043662708168745,-0.00709454927793,0.000633594156027,0.0538173161839,0.00148672385697,0.000497337229856,-0.000104994715938,0.999998765641,0.0,0.0,0.0,0.0,0.0,0.0
1609043662811407804,194,1609043662811407804,0.00436437165441,1.7321515811e-05,0.0645017446596,0.00188210330577,0.00138172716777,-0.000415912874987,0.999997187763,0.0,0.0,0.0,0.0,0.0,0.0
1609043662914854527,195,1609043662914854527,0.00622908488525,-0.00355932204644,0.0611315743838,0.000546570795214,0.000273193283058,-0.000580409126618,0.999999644876,0.0,0.0,0.0,0.0,0.0,0.0
1609043663017557383,196,1609043663017557383,0.0075540757166,-0.00712840803554,0.0697931480466,-3.00724261189e-05,0.000920652764962,-0.000653480849573,0.999999362228,0.0,0.0,0.0,0.0,0.0,0.0
1609043663120848179,197,1609043663120848179,-0.00320796243801,-0.00365575994175,0.0712843675421,0.000486225446951,0.000254218175166,-0.000475791470427,0.99999973629,0.0,0.0,0.0,0.0,0.0,0.0
1609043663191036224,198,1609043663191036224,0.00342103062934,-0.00807080483002,0.0593046604936,0.000155982217387,0.000152650366,-0.000382301508347,0.999999903107,0.0,0.0,0.0,0.0,0.0,0.0
1609043663293177605,199,1609043663293177605,0.0017761649835,-0.00127415760342,0.0698914634743,0.00107492549072,0.00096137704525,-0.00045981657824,0.999998854429,0.0,0.0,0.0,0.0,0.0,0.0
1609043663396496058,200,1609043663396496058,9.0177130312e-05,-0.00473161073128,0.0581463503456,0.000120568652017,0.000314274091729,-0.00078791313444,0.999999632944,0.0,0.0,0.0,0.0,0.0,0.0
1609043663509965897,201,1609043663509965897,0.00230403742504,-0.00535327302864,0.0656456149087,0.000893885430181,0.000167073469581,-0.000268417175691,0.999999550504,0.0,0.0,0.0,0.0,0.0,0.0
1609043663613918543,202,1609043663613918543,0.00538923543943,-0.0074406894103,0.0551781969481,-0.000328083973593,0.00117378829506,-0.000532539292501,0.999999115492,0.0,0.0,0.0,0.0,0.0,0.0
1609043663716702700,203,1609043663716702700,0.00111752566685,-0.00597931656785,0.0563392241772,-0.00036767346307,0.000616347294857,-0.000646282013701,0.999999533626,0.0,0.0,0.0,0.0,0.0,0.0
1609043663819625616,204,1609043663819625616,0.00890181379003,-0.00369867115745,0.0457316240071,1.62553242812e-06,0.000393471535412,-0.000614394274353,0.999999733849,0.0,0.0,0.0,0.0,0.0,0.0
1609043663891801834,205,1609043663891801834,0.00243925333952,-0.0024094222809,0.044108487289,0.000102559377553,0.000711838643891,-0.000548377143556,0.999999591025,0.0,0.0,0.0,0.0,0.0,0.0
1609043663992544413,206,1609043663992544413,0.00551547625143,-0.00860396209613,0.0540940416312,0.000503544318188,0.000684263740455,-0.000882644101478,0.999999249583,0.0,0.0,0.0,0.0,0.0,0.0
1609043664094749212,207,1609043664094749212,0.0105950574568,-0.00521901060721,0.0787564707393,4.06017004122e-05,0.00138620194267,-0.000722409670072,0.999998777459,0.0,0.0,0.0,0.0,0.0,0.0
1609043664198612690,208,1609043664198612690,-0.00250186146785,-0.00237389515497,0.0743343502338,0.00170895491368,0.000476782453087,-0.000230687828055,0.999998399466,0.0,0.0,0.0,0.0,0.0,0.0
1609043664301440716,209,1609043664301440716,0.00112247922873,-0.00314027282923,0.0461644204886,-0.000647948531847,0.000368356293843,-0.000572763045724,0.999999558209,0.0,0.0,0.0,0.0,0.0,0.0
1609043664408858776,210,1609043664408858776,0.00103872359649,-0.00776707653879,0.0775715466481,-7.56394491251e-05,0.000633211870401,-0.000297745424763,0.999999752335,0.0,0.0,0.0,0.0,0.0,0.0
1609043664512251139,211,1609043664512251139,0.00608386432744,-0.00565904342522,0.0751847097855,0.000503309292059,0.000246227131311,-0.00086455782528,0.999999469296,0.0,0.0,0.0,0.0,0.0,0.0
1609043664615066528,212,1609043664615066528,0.00571574291731,-0.00285612550808,0.0523057704344,0.000447021297439,0.000678523434794,-0.000737037525958,0.999999398277,0.0,0.0,0.0,0.0,0.0,0.0
1609043664719622135,213,1609043664719622135,-0.00306786418002,-0.00475480957166,0.0522615094622,-1.61667977612e-05,0.000653717639601,-0.000282107642564,0.999999746404,0.0,0.0,0.0,0.0,0.0,0.0
1609043664821291447,214,1609043664821291447,0.00755068487492,-0.00407391624581,0.0547460637678,0.000301698422096,0.000656463866679,-0.000637041179439,0.999999536106,0.0,0.0,0.0,0.0,0.0,0.0
1609043664891544580,215,1609043664891544580,-0.00325432585143,-0.0043220925981,0.0580159228812,0.000525553852251,0.00110445127635,-0.000422959977388,0.999999162542,0.0,0.0,0.0,0.0,0.0,0.0
1609043664993272781,216,1609043664993272781,0.00460216174278,-0.00428193184572,0.0716457508266,0.000589982338912,0.000838593595179,-0.000662651487667,0.999999254787,0.0,0.0,0.0,0.0,0.0,0.0
1609043665096437216,217,1609043665096437216,-0.00143276505119,-0.00450530141454,0.055436454404,8.71301276847e-05,0.000574079395486,-0.000515015210941,0.9999996988,0.0,0.0,0.0,0.0,0.0,0.0
1609043665199517727,218,1609043665199517727,-0.000325492674561,-0.0039144513629,0.0537750011478,0.000413931102194,0.000453521144701,-0.000357256009997,0.999999747674,0.0,0.0,0.0,0.0,0.0,0.0
1609043665304474592,219,1609043665304474592,0.00442233416832,-0.00607496096594,0.0397478012285,-0.00099628325652,0.00135653905425,-0.000733195359919,0.999998314822,0.0,0.0,0.0,0.0,0.0,0.0
1609043665408085346,220,1609043665408085346,0.00547894844478,-0.00262586909394,0.0472627720731,0.00024531276835,0.000717342827884,-0.000546779811671,0.999999563136,0.0,0.0,0.0,0.0,0.0,0.0
1609043665508807898,221,1609043665508807898,0.00826789493475,-0.00640884343726,0.0650176496521,0.000543211586873,0.000446606420028,-0.000496105335733,0.999999629672,0.0,0.0,0.0,0.0,0.0,0.0
1609043665611940145,222,1609043665611940145,-0.00160804705616,-0.00159975483726,0.0691565313025,0.000372092964883,0.000728512337593,-0.000391565884211,0.999999588746,0.0,0.0,0.0,0.0,0.0,0.0
1609043665715078592,223,1609043665715078592,0.00496592686121,-0.00279913073228,0.0563591673022,0.000965157410074,0.000977603114758,-0.000686530346658,0.999998820719,0.0,0.0,0.0,0.0,0.0,0.0
1609043665817961216,224,1609043665817961216,0.00486478681574,1.9619802416e-05,0.0562100854743,0.000719595934584,6.13774118158e-05,-0.000323931490984,0.999999686742,0.0,0.0,0.0,0.0,0.0,0.0
1609043665920999527,225,1609043665920999527,0.000561149603328,-0.00496204036169,0.066722139257,0.000163877315461,0.000947625053952,-0.000438948230523,0.999999441238,0.0,0.0,0.0,0.0,0.0,0.0
1609043665992403746,226,1609043665992403746,0.00522963252723,-0.00659092128739,0.0616697462916,-0.000230554738428,0.000500431557886,-0.000473395477486,0.999999736155,0.0,0.0,0.0,0.0,0.0,0.0
1609043666093026161,227,1609043666093026161,0.00190930461848,-0.00628099614627,0.0655315804046,0.00139730216902,0.000578453587675,-0.000612696475773,0.99999866877,0.0,0.0,0.0,0.0,0.0,0.0
1609043666195912123,228,1609043666195912123,0.00899558142462,0.00355958811738,0.0579293714349,0.00218073673055,-0.000403257327134,-0.000742269359166,0.9999972654,0.0,0.0,0.0,0.0,0.0,0.0
1609043666298624992,229,1609043666298624992,0.00451995800948,9.1532267289e-05,0.0587245926143,0.00177649216191,0.00055071780418,-0.000650329061662,0.999998058927,0.0,0.0,0.0,0.0,0.0,0.0
1609043666402892113,230,1609043666402892113,0.0105454176266,-0.000642808511942,0.0506767065167,0.00176083217244,0.000476092921394,-0.00120140284814,0.999997614716,0.0,0.0,0.0,0.0,0.0,0.0
1609043666504906893,231,1609043666504906893,-0.000695555898166,0.00140560311928,0.0479034825185,0.00166682192984,0.000865763364609,-0.000368565384645,0.999998168157,0.0,0.0,0.0,0.0,0.0,0.0
1609043666609304905,232,1609043666609304905,0.00506699431725,0.000832185545356,0.0464724507662,0.00176773726521,0.000953930802354,-0.00102355418522,0.999997458726,0.0,0.0,0.0,0.0,0.0,0.0
1609043666712860823,233,1609043666712860823,0.00363392521685,-0.00185568264734,0.0219161203445,0.00158244995858,0.000719418099343,-0.00064191898717,0.999998283114,0.0,0.0,0.0,0.0,0.0,0.0
1609043666816776752,234,1609043666816776752,-0.00311526509775,0.00122695894209,0.042567610801,0.0016294443865,0.00080348602629,-0.000297696602326,0.999998305348,0.0,0.0,0.0,0.0,0.0,0.0
1609043666918361187,235,1609043666918361187,0.00160043959025,0.00124017051989,0.0339150337271,0.000962465507314,0.000192163625068,-0.000655611096176,0.999999303454,0.0,0.0,0.0,0.0,0.0,0.0
1609043667022550583,236,1609043667022550583,0.00832067762403,-0.0039326098569,0.0559205280948,0.000122038840812,0.000239984267518,-0.000606521041511,0.999999779823,0.0,0.0,0.0,0.0,0.0,0.0
1609043667091216564,237,1609043667091216564,0.000370226655132,-0.00111677256369,0.0386056470906,-0.000990987565548,0.0003270313956,-0.000745253239644,0.999999177796,0.0,0.0,0.0,0.0,0.0,0.0
1609043667193174839,238,1609043667193174839,-0.00368389876429,-0.00278950834552,0.062298486412,0.00151718999529,-9.99252245514e-05,-0.000151412502396,0.999998832611,0.0,0.0,0.0,0.0,0.0,0.0
1609043667295942783,239,1609043667295942783,0.00447338833082,-0.00142652904483,0.0609094358723,0.000356218307886,0.00044902709193,-0.00092294980324,0.999999409823,0.0,0.0,0.0,0.0,0.0,0.0
1609043667400463581,240,1609043667400463581,0.00420110552397,-0.0048882022986,0.0666453292947,-0.000199028661808,0.00110307177171,-0.000661271357791,0.99999915317,0.0,0.0,0.0,0.0,0.0,0.0
1609043667503677130,241,1609043667503677130,0.00855206325861,-0.00623746412975,0.072847986183,0.00121937158222,0.00102552811702,-0.000531070307367,0.999998589694,0.0,0.0,0.0,0.0,0.0,0.0
1609043667605851173,242,1609043667605851173,0.00504876365224,-0.00419533436832,0.0577754839132,0.000766614763934,-1.28957491227e-05,-0.000549199610533,0.999999555258,0.0,0.0,0.0,0.0,0.0,0.0
1609043667708718777,243,1609043667708718777,0.0109340389458,-0.00343727606536,0.0686108500769,-4.61386126367e-05,0.000586481360613,-0.000736257343743,0.999999555918,0.0,0.0,0.0,0.0,0.0,0.0
1609043667813937902,244,1609043667813937902,0.00576669704195,-0.00160787426679,0.0667107109956,0.000647469616742,0.000399116826813,-0.000583152255541,0.999999540711,0.0,0.0,0.0,0.0,0.0,0.0
1609043667916262865,245,1609043667916262865,0.00594364960548,-0.00118581783108,0.0612861181142,0.00127194697247,0.000416036497208,-0.000785060825354,0.999998796371,0.0,0.0,0.0,0.0,0.0,0.0
1609043668018258572,246,1609043668018258572,0.000969152067674,0.00066926727744,0.068609294479,0.00164865902563,0.000860277272696,-0.000409695847397,0.999998186996,0.0,0.0,0.0,0.0,0.0,0.0
1609043668122063398,247,1609043668122063398,0.00598486510754,-0.00772617407051,0.0611277105552,-0.000806144195314,0.000589989575258,-0.000907209203666,0.999999089507,0.0,0.0,0.0,0.0,0.0,0.0
1609043668191821098,248,1609043668191821098,0.00398034791288,0.000942050629083,0.0710268710876,0.00116265147494,0.000506013817,-0.000743514044938,0.999998919689,0.0,0.0,0.0,0.0,0.0,0.0
1609043668294965506,249,1609043668294965506,0.00888315265847,-0.00255731861936,0.080951345152,0.000824235128423,0.00082990944212,-0.000814196669531,0.999998984485,0.0,0.0,0.0,0.0,0.0,0.0
1609043668400661230,250,1609043668400661230,0.00853511219116,0.000385243796879,0.069624778219,0.000559876242111,0.000552241750396,-0.000618847315568,0.999999499298,0.0,0.0,0.0,0.0,0.0,0.0
1609043668504817247,251,1609043668504817247,0.0119630687142,-0.00527550561493,0.0687309942108,0.000350678748807,-0.000194054146611,-0.000902537815606,0.999999512396,0.0,0.0,0.0,0.0,0.0,0.0
1609043668607369661,252,1609043668607369661,0.00565396948996,-0.00318009997562,0.0484887963596,-0.000449510957177,0.000507665531873,-0.000811782654595,0.999999440612,0.0,0.0,0.0,0.0,0.0,0.0
1609043668710504293,253,1609043668710504293,0.00664181804856,-0.00287019152335,0.07611064779,0.00138809344188,0.000742403072207,-0.000729342787875,0.999998495046,0.0,0.0,0.0,0.0,0.0,0.0
1609043668812617540,254,1609043668812617540,0.0183093518284,-0.00273800323946,0.0836160959562,0.00101505251283,0.00159369814637,-0.000970739292716,0.999997743727,0.0,0.0,0.0,0.0,0.0,0.0
1609043668915652275,255,1609043668915652275,0.00981998420912,-0.00635190695213,0.0757430140002,0.000553887829168,3.54818581721e-05,-0.000956400729225,0.999999388623,0.0,0.0,0.0,0.0,0.0,0.0
1609043669019469261,256,1609043669019469261,-0.000325953141394,-0.00337781087918,0.0597130443277,0.000172808947805,0.000720134152197,-0.000543807293416,0.999999577909,0.0,0.0,0.0,0.0,0.0,0.0
1609043669090519905,257,1609043669090519905,0.0091587246888,-0.00028107341701,0.0594779751214,0.000592703716305,-0.000301713995325,-0.000446468976949,0.999999679168,0.0,0.0,0.0,0.0,0.0,0.0
1609043669190798283,258,1609043669190798283,0.00263879989837,-0.00940643229506,0.0637837947526,9.21389893282e-06,0.000832173963344,-0.000666502545653,0.999999431588,0.0,0.0,0.0,0.0,0.0,0.0
1609043669294069290,259,1609043669294069290,0.0132031869965,-0.00230814373623,0.0635414879094,0.000675182042762,0.000117423001263,-0.000843341211556,0.999999409558,0.0,0.0,0.0,0.0,0.0,0.0
1609043669397521257,260,1609043669397521257,0.00837839468702,-0.00634238905672,0.0790643554608,0.000268400426171,0.00124028368045,-0.00083587626953,0.999998845484,0.0,0.0,0.0,0.0,0.0,0.0
1609043669501488447,261,1609043669501488447,0.00665672348675,-0.00295466162148,0.0610701787853,5.00971065258e-05,0.000205229022271,-0.000881428708932,0.999999589227,0.0,0.0,0.0,0.0,0.0,0.0
1609043669604767084,262,1609043669604767084,0.0109990301057,-0.00528122494627,0.0904447735936,0.000623133491356,0.00106164627068,-0.000602222514511,0.99999906097,0.0,0.0,0.0,0.0,0.0,0.0
1609043669713109970,263,1609043669713109970,0.00340442184323,-0.00561172911139,0.0652937021359,0.0011158445679,0.000364699358914,-0.000304981217698,0.999999264436,0.0,0.0,0.0,0.0,0.0,0.0
1609043669815817833,264,1609043669815817833,0.00766725377536,-0.00770577157622,0.064604540266,0.00042090326808,0.00106258057341,-0.00118580460262,0.999998643814,0.0,0.0,0.0,0.0,0.0,0.0
1609043669918853283,265,1609043669918853283,-0.00239792940554,-0.00210374455221,0.0712527011293,0.000907095909056,0.000621080255839,-0.000218509405407,0.999999371845,0.0,0.0,0.0,0.0,0.0,0.0
1609043669992087126,266,1609043669992087126,0.00793416342255,-0.00198547700214,0.0611219860423,0.00037343660318,0.000930013699058,-0.000754406972679,0.999999213245,0.0,0.0,0.0,0.0,0.0,0.0
1609043670090816975,267,1609043670090816975,0.00457647414739,-0.00340412844798,0.0708041366553,0.00105955813766,0.000554494518067,-0.000865921022333,0.999998910026,0.0,0.0,0.0,0.0,0.0,0.0
1609043670194376945,268,1609043670194376945,0.00235319050247,-0.00601458205458,0.0665186713475,0.00117257019701,0.00111887001038,-0.000631936675533,0.999998486931,0.0,0.0,0.0,0.0,0.0,0.0
1609043670297145605,269,1609043670297145605,0.00388133016719,-0.00367615474488,0.0595561001386,-6.96919084503e-06,0.000155347851653,-0.000598666383758,0.999999808709,0.0,0.0,0.0,0.0,0.0,0.0
1609043670401131392,270,1609043670401131392,0.0122852136215,-0.00788887874566,0.0811185682543,-0.00044439174364,0.000938615565056,-0.000656132976343,0.999999245503,0.0,0.0,0.0,0.0,0.0,0.0
1609043670505501986,271,1609043670505501986,0.00746640356167,-0.00338565115352,0.0467864325524,0.000778675794814,0.000729085167421,-0.00081199925757,0.999999101378,0.0,0.0,0.0,0.0,0.0,0.0
1609043670606436729,272,1609043670606436729,0.000663499779368,-0.000131310818894,0.0536148610151,0.00138758429741,0.000447187945778,-0.000620608451421,0.999998744738,0.0,0.0,0.0,0.0,0.0,0.0
1609043670709305286,273,1609043670709305286,0.00955114203023,-0.00308007742983,0.0569843906472,0.00142402117869,0.000794988629097,-0.000805664247976,0.99999834553,0.0,0.0,0.0,0.0,0.0,0.0
1609043670812419891,274,1609043670812419891,0.00465683362868,-0.00544374197923,0.0506933918716,-0.00092709291655,0.00141258510119,-0.00085657254975,0.999998205691,0.0,0.0,0.0,0.0,0.0,0.0
1609043670915699720,275,1609043670915699720,-0.00555549736352,-0.00216822682658,0.0620202742632,0.000736282317347,0.00101076567368,-0.00010372745474,0.999999212741,0.0,0.0,0.0,0.0,0.0,0.0
1609043671018879652,276,1609043671018879652,0.00877128914419,-0.00465988848726,0.0569501572534,0.000231678535532,8.65635183633e-05,-0.00076474799752,0.999999676996,0.0,0.0,0.0,0.0,0.0,0.0
1609043671090722322,277,1609043671090722322,0.0041949539076,-0.00345431171126,0.0599174966357,0.000122921810349,0.00108360562768,-0.000580134402099,0.999999237066,0.0,0.0,0.0,0.0,0.0,0.0
1609043671190819025,278,1609043671190819025,0.0138256632214,-0.00509015877517,0.0492551558488,-0.000168567012797,0.000114008830885,-0.000774850343774,0.999999679097,0.0,0.0,0.0,0.0,0.0,0.0
1609043671295125723,279,1609043671295125723,0.00570967415278,-0.00357537671771,0.0569051727354,0.000587564856938,0.000777375059429,-0.000929868326873,0.9999990929,0.0,0.0,0.0,0.0,0.0,0.0
1609043671398484468,280,1609043671398484468,0.00553793325763,-0.00138538320479,0.0493899868078,0.00067493032943,0.000157504815168,-0.000577683815094,0.999999592971,0.0,0.0,0.0,0.0,0.0,0.0
1609043671504138947,281,1609043671504138947,-0.00205007541081,-0.00604116766851,0.0640200879638,0.000139420499538,-0.000248699358752,-0.00043762573053,0.999999863597,0.0,0.0,0.0,0.0,0.0,0.0
1609043671604353189,282,1609043671604353189,0.00363936303489,-0.0019741904249,0.0563065566103,0.00041776458941,0.000629291576627,-0.000493589952885,0.999999592917,0.0,0.0,0.0,0.0,0.0,0.0
1609043671707053423,283,1609043671707053423,0.00401130501829,-0.00155541924203,0.0681473130286,0.000723167946933,0.000431644243144,-0.000431176464122,0.999999552399,0.0,0.0,0.0,0.0,0.0,0.0
1609043671810101271,284,1609043671810101271,0.00824093485427,-0.00513096312229,0.0562015888241,-0.000658223297151,0.00125627077121,-0.000532267263773,0.999998852608,0.0,0.0,0.0,0.0,0.0,0.0
1609043671913836718,285,1609043671913836718,0.0109519219875,-0.00601412250821,0.0693996102059,0.000555183911732,0.000301821307941,-0.000644075116856,0.999999592921,0.0,0.0,0.0,0.0,0.0,0.0
1609043672018087626,286,1609043672018087626,0.00424571756551,0.00191046248067,0.0560368756747,0.0019449510474,0.000699496907673,-0.00075853486402,0.999997576244,0.0,0.0,0.0,0.0,0.0,0.0
1609043672119539976,287,1609043672119539976,0.00468531660699,-0.0033514295102,0.0531976275797,0.000681514045014,0.000427675493283,-0.000702032944874,0.999999429891,0.0,0.0,0.0,0.0,0.0,0.0
1609043672191970825,288,1609043672191970825,0.00459829782903,-0.000137249704427,0.0602671822845,0.000750722065787,0.000842396116846,-0.000704442498794,0.999999115273,0.0,0.0,0.0,0.0,0.0,0.0
1609043672292523861,289,1609043672292523861,0.010952659348,-0.00305106898975,0.0786425604108,0.00120986979387,0.000465716412274,-0.000725651454985,0.999998896376,0.0,0.0,0.0,0.0,0.0,0.0
1609043672394478083,290,1609043672394478083,0.000197440400593,-0.00200106747891,0.0626134220139,0.000201907075596,0.000751372170812,-0.000484218015577,0.999999580103,0.0,0.0,0.0,0.0,0.0,0.0
1609043672504173517,291,1609043672504173517,0.00739354909378,-0.00216500095026,0.0600188767603,0.00182460598216,0.000192071562829,-0.000709941782396,0.99999806495,0.0,0.0,0.0,0.0,0.0,0.0
1609043672606811762,292,1609043672606811762,-0.00398002160402,-0.00243406184453,0.0360662594207,-0.0002321178732,0.0014525593702,-0.000166094249989,0.999998904302,0.0,0.0,0.0,0.0,0.0,0.0
1609043672710219622,293,1609043672710219622,0.00584853564371,-0.00261813690469,0.0739625817042,0.000807671611114,0.00102023914145,-0.0009608143314,0.999998691806,0.0,0.0,0.0,0.0,0.0,0.0
1609043672814164877,294,1609043672814164877,0.011235044,-0.00317778120394,0.068691286094,-0.000173330669968,0.000761953799443,-0.000560100394016,0.999999537835,0.0,0.0,0.0,0.0,0.0,0.0
1609043672916537046,295,1609043672916537046,0.00775083016391,-0.005044914011,0.0692317473519,0.000242681671919,0.000138226510288,-0.000692561139679,0.999999721179,0.0,0.0,0.0,0.0,0.0,0.0
1609043673019195080,296,1609043673019195080,0.00148109346125,-0.00208581613033,0.0560119371522,0.000234253880016,0.000798551485924,-0.000809945178326,0.999999325715,0.0,0.0,0.0,0.0,0.0,0.0
1609043673091558218,297,1609043673091558218,0.00332054870419,-0.00567327684665,0.0698132614197,-0.000438004472886,0.00048587922719,-0.000453145450297,0.999999683366,0.0,0.0,0.0,0.0,0.0,0.0
1609043673191236496,298,1609043673191236496,0.00256269564757,-0.00513968696089,0.0715822930903,0.000164512480056,0.000528053416288,-0.000534382806357,0.999999704265,0.0,0.0,0.0,0.0,0.0,0.0
1609043673294081211,299,1609043673294081211,0.00392983428723,-0.00230025117398,0.0573543490343,0.00115841141422,-6.25107095959e-05,-0.00077726377232,0.999999025018,0.0,0.0,0.0,0.0,0.0,0.0
1609043673398538589,300,1609043673398538589,0.00778358238348,-0.00187704624987,0.0562299727117,0.000111710700843,0.000596222091549,-0.000989846773658,0.999999326121,0.0,0.0,0.0,0.0,0.0,0.0
1609043673500343084,301,1609043673500343084,0.0102753352112,-0.00528235667541,0.0690823651447,0.000216677695826,0.000829944696602,-0.000756053484177,0.999999346313,0.0,0.0,0.0,0.0,0.0,0.0
1609043673604635000,302,1609043673604635000,0.00503963542154,-0.0031198613206,0.0658500256608,0.000694734314538,0.000421287996364,-0.000585342136454,0.999999498618,0.0,0.0,0.0,0.0,0.0,0.0
1609043673706527710,303,1609043673706527710,0.00391782783126,-0.00421850427973,0.051543427678,0.00105188419376,0.000736954892222,-0.000429978001147,0.999999082778,0.0,0.0,0.0,0.0,0.0,0.0
1609043673810506821,304,1609043673810506821,0.00435483852,-0.00436198544217,0.0656071663915,0.00077283903661,0.000589666813306,-0.000724411947776,0.99999926512,0.0,0.0,0.0,0.0,0.0,0.0
1609043673912477493,305,1609043673912477493,0.00966994410618,-0.00329164004235,0.0643597475577,5.15635825818e-05,0.00115531058145,-0.000560141258996,0.99999917442,0.0,0.0,0.0,0.0,0.0,0.0
1609043674016529799,306,1609043674016529799,0.00357926329111,-0.00551178606374,0.0570178004007,-0.000678340526583,0.00104697776204,-0.000759057065702,0.999998933762,0.0,0.0,0.0,0.0,0.0,0.0
1609043674118952513,307,1609043674118952513,0.00831357567659,-0.00437915538604,0.0623886709346,0.000572246970505,-7.17681172697e-05,-0.000520327679083,0.999999698321,0.0,0.0,0.0,0.0,0.0,0.0
1609043674190720320,308,1609043674190720320,0.00650138346012,-0.000621533759257,0.0524191867047,0.000760518485615,0.000739742586042,-0.000542097021114,0.999999290261,0.0,0.0,0.0,0.0,0.0,0.0
1609043674291492462,309,1609043674291492462,-0.00145179230393,-0.00101456796104,0.0502753275725,0.0021777041946,1.544253842e-05,-0.000379687576501,0.999997556599,0.0,0.0,0.0,0.0,0.0,0.0
1609043674394336462,310,1609043674394336462,0.0020699131752,0.00108831310914,0.0399710773999,0.00238432672614,0.000897395728283,-0.000561921220236,0.99999659695,0.0,0.0,0.0,0.0,0.0,0.0
1609043674499919653,311,1609043674499919653,0.00413700034178,-0.00395353792449,0.0591485492148,-0.000128484279275,0.000423667391131,-0.000894253353125,0.999999502154,0.0,0.0,0.0,0.0,0.0,0.0
1609043674600389242,312,1609043674600389242,0.00433585522785,-0.00081734287145,0.0538606400004,0.000259215518411,0.000963878346473,-0.000639277967178,0.999999297535,0.0,0.0,0.0,0.0,0.0,0.0
1609043674703620672,313,1609043674703620672,0.0126952155737,-0.00367276096309,0.0533390542805,0.000763349898753,0.000307704938448,-0.000777374044271,0.999999359152,0.0,0.0,0.0,0.0,0.0,0.0
1609043674808561325,314,1609043674808561325,0.00296681275774,-0.00245266344896,0.0529442128393,0.00142257789218,0.000192141192843,-0.000730383834874,0.999998702946,0.0,0.0,0.0,0.0,0.0,0.0
1609043674910585642,315,1609043674910585642,0.00329672541249,-0.00253429680671,0.0535652410483,-0.000717063437451,0.000854819231848,-0.000786433619949,0.999999068313,0.0,0.0,0.0,0.0,0.0,0.0
1609043675013031721,316,1609043675013031721,0.0028026360252,-0.00663797219022,0.0628669645767,0.000642800638424,0.000685117692709,-0.000302900961075,0.999999512836,0.0,0.0,0.0,0.0,0.0,0.0
1609043675115803003,317,1609043675115803003,0.00817223112226,-0.00149818827055,0.063039808187,-0.000134663468621,0.000770959258762,-0.000671665169531,0.999999468177,0.0,0.0,0.0,0.0,0.0,0.0
1609043675218754292,318,1609043675218754292,0.0122344511703,-0.00566502665664,0.0727582078981,8.01199357761e-06,0.000548193063756,-0.0010119545669,0.999999337684,0.0,0.0,0.0,0.0,0.0,0.0
1609043675290478706,319,1609043675290478706,0.0121968298566,-0.00604958258356,0.0506330590456,0.000569500366858,0.000673421377386,-0.00063546070876,0.999999409181,0.0,0.0,0.0,0.0,0.0,0.0
1609043675390860319,320,1609043675390860319,0.00645833320255,-0.0057420293665,0.0494763011149,0.00042512907645,0.000543937026619,-0.000529181486736,0.999999621682,0.0,0.0,0.0,0.0,0.0,0.0
1609043675495446682,321,1609043675495446682,0.00302361239992,-0.00428110178221,0.0459820105783,-9.15726631641e-05,0.00015082119397,-0.000660677959338,0.999999766186,0.0,0.0,0.0,0.0,0.0,0.0
1609043675597039461,322,1609043675597039461,0.00451483561381,-0.00641836384776,0.0579646112381,0.000343418027905,0.00107267724005,-0.000863049244345,0.999998993286,0.0,0.0,0.0,0.0,0.0,0.0
1609043675700586319,323,1609043675700586319,0.00481240098901,-0.00584056371633,0.051718655391,-0.000159031530294,0.000316927536078,-0.000959794041617,0.999999476531,0.0,0.0,0.0,0.0,0.0,0.0
1609043675805696487,324,1609043675805696487,0.0118079485401,-0.00374813851737,0.0587701516154,0.000373281126511,0.000147782251113,-0.000601346284201,0.999999738602,0.0,0.0,0.0,0.0,0.0,0.0
1609043675906606436,325,1609043675906606436,0.0109711709317,-0.00468084981041,0.0652929695814,-7.66352511506e-05,0.00122183117184,-0.000699314780954,0.999999006107,0.0,0.0,0.0,0.0,0.0,0.0
1609043676009920835,326,1609043676009920835,0.0123164743955,-0.00653327114045,0.0606593850607,0.000467190273757,0.000761778151068,-0.000721148595805,0.999999340686,0.0,0.0,0.0,0.0,0.0,0.0
1609043676113352537,327,1609043676113352537,0.0103174180938,-0.00344942190223,0.0703757335203,1.82142558882e-05,0.00111420183609,-0.000766827987542,0.999999085098,0.0,0.0,0.0,0.0,0.0,0.0
1609043676215862036,328,1609043676215862036,0.00627825560349,-0.00735844900566,0.0662359076608,-9.82059092233e-05,0.00032199228791,-0.00060711922948,0.999999759041,0.0,0.0,0.0,0.0,0.0,0.0
1609043676319493532,329,1609043676319493532,0.00369584059729,0.000159665033764,0.05723282301,0.000491093869458,0.000817864449398,-0.000800103917845,0.999999224879,0.0,0.0,0.0,0.0,0.0,0.0
1609043676391329527,330,1609043676391329527,0.0094017325335,-0.00224278074446,0.0601650731149,0.000424334406002,0.000118299501513,-0.000713899443204,0.999999648147,0.0,0.0,0.0,0.0,0.0,0.0
1609043676490969181,331,1609043676490969181,0.0129296073049,-0.0057573955924,0.0496849058257,-0.000564608639391,0.000867732016458,-0.000974638317384,0.999998989169,0.0,0.0,0.0,0.0,0.0,0.0
1609043676594326496,332,1609043676594326496,0.0101798389187,-0.00288567810147,0.0733027226091,0.00108757025641,0.000547945259239,-0.00103419936678,0.999998723688,0.0,0.0,0.0,0.0,0.0,0.0
1609043676697613001,333,1609043676697613001,0.00456516292986,-0.0045194919725,0.0369977264833,0.000614753395737,0.000108745206745,-0.000791728060278,0.99999949171,0.0,0.0,0.0,0.0,0.0,0.0
1609043676800331116,334,1609043676800331116,0.00398539766727,-0.000640668097602,0.0791805430023,0.000794732241538,0.000632622195472,-0.000451818924243,0.999999382025,0.0,0.0,0.0,0.0,0.0,0.0
1609043676903037548,335,1609043676903037548,0.00842734933934,-0.00446530348195,0.0479735295752,0.000400083138264,0.000617409135435,-0.000966388254334,0.999999262416,0.0,0.0,0.0,0.0,0.0,0.0
1609043677007469654,336,1609043677007469654,0.0036529746472,-0.00199294823128,0.0714684294691,0.00163934866211,0.000616121775265,-0.000669215188265,0.999998242539,0.0,0.0,0.0,0.0,0.0,0.0
1609043677110418081,337,1609043677110418081,0.009038550641,-0.00555699161994,0.0656631862223,0.000629608519432,0.000861192388551,-0.000592786456675,0.999999255272,0.0,0.0,0.0,0.0,0.0,0.0
1609043677212510824,338,1609043677212510824,0.00305681290631,-0.00523797507438,0.0575690028715,-0.000194294029394,0.000511812464535,-0.000850876417263,0.999999488153,0.0,0.0,0.0,0.0,0.0,0.0
1609043677315542459,339,1609043677315542459,0.00862077567496,0.00139471224457,0.0555009637815,0.00109123473018,0.000777633683428,-0.00043695631631,0.99999900678,0.0,0.0,0.0,0.0,0.0,0.0
1609043677418789864,340,1609043677418789864,0.00258121459499,-0.00740639817232,0.0595449763623,-0.000698713618278,0.000471653833529,-0.000356947458215,0.999999580965,0.0,0.0,0.0,0.0,0.0,0.0
1609043677490395308,341,1609043677490395308,0.0148747901124,-0.00555327351353,0.0565405073781,-0.000477258976822,0.000200740145832,-0.00109233171888,0.999999269369,0.0,0.0,0.0,0.0,0.0,0.0
1609043677590747118,342,1609043677590747118,0.00721908309324,-0.00572566451328,0.0586573668795,-0.00014304801889,0.000814932825118,-0.000801866327978,0.999999336216,0.0,0.0,0.0,0.0,0.0,0.0
1609043677694610834,343,1609043677694610834,0.00859874706306,0.00206144902467,0.0521304686736,0.00166323823531,0.000256600861408,-0.000877783751775,0.999998198643,0.0,0.0,0.0,0.0,0.0,0.0
1609043677797233582,344,1609043677797233582,0.00765798636878,-0.000768336794087,0.0708464489779,0.00127302520484,0.000766119059628,-0.000576054866811,0.999998730314,0.0,0.0,0.0,0.0,0.0,0.0
1609043677899544001,345,1609043677899544001,0.00591277415861,-0.00159666361296,0.0547987687161,-0.0003467929336,-0.000120555238739,-0.000520635115346,0.99999979707,0.0,0.0,0.0,0.0,0.0,0.0
1609043678002827883,346,1609043678002827883,0.00503207851403,-0.00563976128214,0.0563688007172,0.000841600631326,0.000846955916047,-0.000552631016944,0.999999134486,0.0,0.0,0.0,0.0,0.0,0.0
1609043678106266975,347,1609043678106266975,0.00338617616811,-0.00115657494992,0.0589530276023,-0.000119891210209,0.000275055899159,-0.000939388071984,0.99999951376,0.0,0.0,0.0,0.0,0.0,0.0
1609043678209020138,348,1609043678209020138,0.0113628702633,-0.0101700893673,0.0724264173909,-0.00057898286302,0.00120072265592,-0.000816560517577,0.999998778136,0.0,0.0,0.0,0.0,0.0,0.0
1609043678312034845,349,1609043678312034845,0.0107299777309,-0.00640764208206,0.0678015826049,0.000842079968653,0.000765132112278,-0.000707082557736,0.999999102754,0.0,0.0,0.0,0.0,0.0,0.0
