%time,field.header.seq,field.header.stamp,field.pose.pose.position.x,field.pose.pose.position.y,field.pose.pose.position.z,field.pose.pose.orientation.x,field.pose.pose.orientation.y,field.pose.pose.orientation.z,field.pose.pose.orientation.w,field.twist.twist.linear.x,field.twist.twist.linear.y,field.twist.twist.linear.z,field.twist.twist.angular.x,field.twist.twist.angular.y,field.twist.twist.angular.z
1609060339777889967,50,1609060339777889967,-0.0214530815822,-0.00253980584434,-0.00386229224998,-0.000194926166844,-0.000153284272846,-0.000156112812386,0.999999957068,0.0,0.0,0.0,0.0,0.0,0.0
1609060339849735260,51,1609060339849735260,-0.00541058699827,-0.00216379647991,-0.0019748248612,-1.06634501434e-05,0.000344089177624,-0.000246680759791,0.999999910319,0.0,0.0,0.0,0.0,0.0,0.0
1609060339949380636,52,1609060339949380636,-0.00704713661725,0.0103754938842,-0.0020109024359,-0.000218101113882,0.000104170452053,-0.000102137688076,0.999999965574,0.0,0.0,0.0,0.0,0.0,0.0
1609060340052584410,53,1609060340052584410,-0.00615035793323,1.61848051796e-05,-0.00180799687535,-0.000147316142089,5.48605883456e-05,-0.000224408478109,0.999999962465,0.0,0.0,0.0,0.0,0.0,0.0
1609060340155597210,54,1609060340155597210,-0.00593080035242,0.00515410002478,-0.0025641164507,0.000235790496427,-9.25245102791e-05,-0.000209424564629,0.999999945992,0.0,0.0,0.0,0.0,0.0,0.0
1609060340258954525,55,1609060340258954525,-0.0084534640522,0.00495202113075,-0.00365669218927,-0.000116273528836,-0.000265397925777,-0.000236628723642,0.999999930026,0.0,0.0,0.0,0.0,0.0,0.0
1609060340361977100,56,1609060340361977100,-0.0166099096574,-0.00172471327641,-0.00140825197643,-0.000132930927826,-0.000122157181331,-0.000279260448262,0.99999994471,0.0,0.0,0.0,0.0,0.0,0.0
1609060340464877367,57,1609060340464877367,-0.00412174015231,0.00586331067711,-0.00162466270375,0.000193317750957,-0.000197246974329,-0.000227309822562,0.999999936026,0.0,0.0,0.0,0.0,0.0,0.0
1609060340567844391,58,1609060340567844391,-0.00598260256207,0.000626841330704,-0.00377203238214,-6.52824092335e-05,-2.60762676943e-05,-0.000140599643935,0.999999987645,0.0,0.0,0.0,0.0,0.0,0.0
1609060340671374798,59,1609060340671374798,-0.00777770154236,-0.000400153582717,-0.0031735841459,3.41170163082e-05,0.000117901859663,-0.000132030693788,0.999999983752,0.0,0.0,0.0,0.0,0.0,0.0
1609060340773963451,60,1609060340773963451,-0.00868690014887,0.00169822051989,-0.0038232120301,-1.46061746893e-05,-0.000296017367259,-0.000138760803459,0.999999946453,0.0,0.0,0.0,0.0,0.0,0.0
1609060340876789331,61,1609060340876789331,-0.00798614702243,-0.000508332173016,-0.00218450790487,-1.18982293379e-05,0.000144116519484,-0.000275452784666,0.999999951607,0.0,0.0,0.0,0.0,0.0,0.0
1609060340948875189,62,1609060340948875189,-0.00601519426552,-0.00687946434515,-0.00294725890393,-0.000242645338198,-0.000270569298738,-0.00011867675894,0.999999926916,0.0,0.0,0.0,0.0,0.0,0.0
1609060341048787832,63,1609060341048787832,-0.0126713349989,-0.00283968746192,-0.00418321801136,0.000122056764068,0.000178628406118,-0.000363741974125,0.999999910443,0.0,0.0,0.0,0.0,0.0,0.0
1609060341152105808,64,1609060341152105808,-0.015432663936,0.00500313067232,-0.00353002136099,2.3909820628e-05,5.06404928961e-05,-0.000297068605457,0.999999954307,0.0,0.0,0.0,0.0,0.0,0.0
1609060341255239725,65,1609060341255239725,-0.00551074702076,0.000364242078291,-0.00216609228078,8.72917847978e-05,7.04920322632e-05,-0.000211841583858,0.999999971267,0.0,0.0,0.0,0.0,0.0,0.0
1609060341358510017,66,1609060341358510017,-0.0113344189976,0.00136514489924,-0.00417147271243,6.16420900738e-05,-0.000167130415067,-0.000228900152358,0.999999957936,0.0,0.0,0.0,0.0,0.0,0.0
1609060341461435556,67,1609060341461435556,-0.0119545748762,0.00327681287996,-0.00352299833237,-6.34261570605e-05,-1.99848471787e-05,-0.000337904058105,0.999999940699,0.0,0.0,0.0,0.0,0.0,0.0
1609060341564483643,68,1609060341564483643,-0.0140371389976,0.00154764001907,-0.00290660344366,-9.69385336584e-05,-0.000207208505382,-0.000201694044621,0.999999953493,0.0,0.0,0.0,0.0,0.0,0.0
1609060341667694330,69,1609060341667694330,-0.00434629936512,-0.00365422379613,-0.00292153787776,-1.58968778224e-05,0.000239612251093,-0.000178555945947,0.999999955225,0.0,0.0,0.0,0.0,0.0,0.0
1609060341770805120,70,1609060341770805120,-0.0139927807642,0.00015959474016,-0.00284358657106,-9.37478821326e-05,-0.000276145749632,-0.000302032888944,0.999999911865,0.0,0.0,0.0,0.0,0.0,0.0
1609060341873924732,71,1609060341873924732,-0.00686752156289,-0.0073258328945,-0.00269728910869,5.36610865066e-05,0.000191010818182,-0.000359704554099,0.999999915624,0.0,0.0,0.0,0.0,0.0,0.0
1609060341977236986,72,1609060341977236986,-0.0176282640328,-0.00178834743154,-0.00389707709212,3.51405847794e-05,4.41313352124e-05,-0.000359838943634,0.999999933667,0.0,0.0,0.0,0.0,0.0,0.0
1609060342049194098,73,1609060342049194098,0.000265817503722,-4.35417873148e-05,-0.000803012336358,-6.54433960455e-05,0.000225499248929,-0.000404228450619,0.999999890733,0.0,0.0,0.0,0.0,0.0,0.0
1609060342149164677,74,1609060342149164677,-0.0172820589796,0.00445736113774,-0.00368431337525,-2.30431419198e-05,-1.99864974509e-05,-0.000366892906718,0.99999993223,0.0,0.0,0.0,0.0,0.0,0.0
1609060342252700806,75,1609060342252700806,-0.0122002578922,-0.00079010506567,-0.00471974614257,4.55614396155e-05,-0.000228069858005,-0.000259451538247,0.999999939297,0.0,0.0,0.0,0.0,0.0,0.0
1609060342355244398,76,1609060342355244398,-0.0149083339374,-0.00555100988214,-0.00307173571443,8.68616431999e-05,-5.57515002081e-05,-0.000226861913933,0.99999996894,0.0,0.0,0.0,0.0,0.0,0.0
1609060342458437681,77,1609060342458437681,-0.00886391408923,-0.00131630582407,-0.00398352002847,6.53489313238e-05,-9.22424899802e-05,-0.000333306944379,0.999999938064,0.0,0.0,0.0,0.0,0.0,0.0
1609060342561306477,78,1609060342561306477,-0.0117910771291,-0.00207331321509,-0.00404791463448,-9.70314332227e-05,0.000135629382217,-0.000206725361284,0.999999964727,0.0,0.0,0.0,0.0,0.0,0.0
1609060342664904356,79,1609060342664904356,-0.012247671955,0.00106899473694,-0.00343668425836,3.09456436826e-05,5.33776079992e-06,-0.000228059507772,0.999999973501,0.0,0.0,0.0,0.0,0.0,0.0
1609060342767347574,80,1609060342767347574,-0.00411660339194,0.00577114187484,-0.00301392260713,-1.11893851199e-06,0.000171369259349,-0.000198918282018,0.999999965531,0.0,0.0,0.0,0.0,0.0,0.0
1609060342870455980,81,1609060342870455980,-0.0122503511233,-0.00408730586945,-0.00349791203797,0.000102226315567,0.000199881164129,-0.000373813118017,0.99999990493,0.0,0.0,0.0,0.0,0.0,0.0
1609060342973705530,82,1609060342973705530,-0.0129253721684,0.00139721554947,-0.00621726255137,7.69626008736e-05,-0.000347664239321,-0.000272389312523,0.999999899505,0.0,0.0,0.0,0.0,0.0,0.0
1609060343077748299,83,1609060343077748299,-0.00823213700592,-0.00117490656936,-0.00530548752268,8.99761759041e-05,1.86484092679e-05,-0.000286059502613,0.999999954863,0.0,0.0,0.0,0.0,0.0,0.0
1609060343148822784,84,1609060343148822784,-0.0138873766675,-0.00884979179747,-0.0035679166872,1.792321914e-05,-0.000266706957091,-0.000288167036118,0.999999922753,0.0,0.0,0.0,0.0,0.0,0.0
1609060343248710155,85,1609060343248710155,-0.00792324615959,0.00070345054082,-0.00340469992629,-8.4910216394e-06,-7.78712995061e-05,-0.000166623536634,0.99999998305,0.0,0.0,0.0,0.0,0.0,0.0
1609060343351909876,86,1609060343351909876,-0.0153607799195,0.00707880433542,-0.00563749957072,5.11238726692e-05,0.000182414886686,-0.000173771401853,0.999999966957,0.0,0.0,0.0,0.0,0.0,0.0
1609060343455102205,87,1609060343455102205,-0.0145873327435,0.00240563520752,-0.00112283476978,-1.08150260675e-05,-0.000191132185671,-0.000295770603637,0.999999937936,0.0,0.0,0.0,0.0,0.0,0.0
1609060343558024645,88,1609060343558024645,-0.00929882814951,0.000738450928436,-0.00560641572874,0.000193223329893,-8.23948505068e-05,-0.000312295388112,0.999999929174,0.0,0.0,0.0,0.0,0.0,0.0
1609060343662369728,89,1609060343662369728,-0.0175860932306,0.0033904724505,-0.00435903962584,-1.86494081539e-05,-0.000142908902544,-0.000301776987555,0.99999994408,0.0,0.0,0.0,0.0,0.0,0.0
1609060343764807224,90,1609060343764807224,-0.00687879249539,0.00644560436388,-0.0035390977074,9.71799125144e-05,-2.1093916909e-06,-0.000285684647119,0.999999954468,0.0,0.0,0.0,0.0,0.0,0.0
1609060343867611647,91,1609060343867611647,-0.0133752416514,0.00705304590831,-0.00657802689146,-8.57399301708e-06,-0.000113905009405,-0.000339742516299,0.999999935763,0.0,0.0,0.0,0.0,0.0,0.0
1609060343970663548,92,1609060343970663548,-0.00895434598492,0.00108162226989,-0.00484541685262,-3.85111006507e-06,-0.000328212461177,-0.000283280688423,0.999999906007,0.0,0.0,0.0,0.0,0.0,0.0
1609060344073735714,93,1609060344073735714,-0.0103443789204,-0.00463056544126,-0.00495924084267,-4.98795335287e-06,5.71499871818e-07,-0.000239035019298,0.999999971418,0.0,0.0,0.0,0.0,0.0,0.0
1609060344176668167,94,1609060344176668167,-0.00930602740795,-0.00593700819474,-0.0033210676298,0.000113922263242,-7.13550477978e-05,-0.000246365405973,0.999999960617,0.0,0.0,0.0,0.0,0.0,0.0
1609060344248834610,95,1609060344248834610,-0.0150630606766,0.00753156103958,-0.00610654450375,1.78151380963e-05,-3.08550072514e-06,-0.000320116317867,0.999999948599,0.0,0.0,0.0,0.0,0.0,0.0
1609060344348703623,96,1609060344348703623,-0.0098296377368,-0.00694257215827,-0.00478109748835,7.68090243747e-05,-5.26012649763e-05,-0.000235336758656,0.999999967975,0.0,0.0,0.0,0.0,0.0,0.0
1609060344452110291,97,1609060344452110291,-0.00819247633856,-0.00138321722252,-0.00424389798986,8.29534548909e-05,-4.46737173807e-05,-0.000231246317474,0.999999968824,0.0,0.0,0.0,0.0,0.0,0.0
1609060344555062056,98,1609060344555062056,-0.0134149141917,0.00880157732373,-0.00405173960703,-4.06746716842e-05,-5.13860413073e-05,-0.000397561537197,0.999999918825,0.0,0.0,0.0,0.0,0.0,0.0
1609060344658272982,99,1609060344658272982,-0.00872273645376,0.00787915969686,-0.00296052334379,-0.000132394510836,-8.20230449123e-06,-0.000285719674507,0.999999950384,0.0,0.0,0.0,0.0,0.0,0.0
1609060344761461735,100,1609060344761461735,-0.00946713268331,-0.00281415701997,-0.00457590107112,-0.000124174540408,0.000209187531352,-0.000224128003053,0.999999945294,0.0,0.0,0.0,0.0,0.0,0.0
1609060344864367723,101,1609060344864367723,-0.00775946770692,0.00581712969065,-0.00535069618196,5.1606813086e-05,2.68306609368e-06,-0.000261273415767,0.999999964533,0.0,0.0,0.0,0.0,0.0,0.0
1609060344967698097,102,1609060344967698097,-0.00871530056457,-0.00723427739577,-0.00395275522341,0.000208062041234,-2.75555467765e-05,-0.000207414758682,0.999999956465,0.0,0.0,0.0,0.0,0.0,0.0
1609060345070574284,103,1609060345070574284,-0.010494027633,-0.00293262544342,-0.00628683045796,0.000163788069624,7.60086898488e-05,-0.000368335701364,0.999999915862,0.0,0.0,0.0,0.0,0.0,0.0
1609060345173685551,104,1609060345173685551,-0.00550840486735,0.0105984556468,-0.00363022534918,1.36044052285e-05,5.42445631808e-06,-0.000226858218261,0.99999997416,0.0,0.0,0.0,0.0,0.0,0.0
1609060345276948452,105,1609060345276948452,-0.0173559040397,0.00847039548503,-0.00629472934438,-3.73520840916e-05,-0.000277472635756,-0.000286313969135,0.999999919819,0.0,0.0,0.0,0.0,0.0,0.0
1609060345348872423,106,1609060345348872423,-0.01170616519,-0.000816504761147,-0.0051694568426,-1.06502192288e-05,0.000197586917642,-0.00025452792122,0.999999948031,0.0,0.0,0.0,0.0,0.0,0.0
1609060345448992968,107,1609060345448992968,-0.020026594922,0.00562067639139,-0.00369789774244,-0.00018418311458,0.000235564582477,-0.000306720731798,0.999999908254,0.0,0.0,0.0,0.0,0.0,0.0
1609060345552400589,108,1609060345552400589,-0.00724981960924,-0.00190672450738,-0.00743250143233,0.000199902135564,-0.000346607883714,-0.000361283891787,0.999999854688,0.0,0.0,0.0,0.0,0.0,0.0
1609060345655210018,109,1609060345655210018,-0.0107197956132,0.000147461332972,-0.00573455829992,-1.59149913503e-05,-0.000180331247632,-0.000333711714598,0.999999927932,0.0,0.0,0.0,0.0,0.0,0.0
1609060345758053541,110,1609060345758053541,-0.0235439033722,-0.00257594410474,-0.00564452761325,-0.000245357443463,-0.000343581124195,-0.000199452997491,0.999999890985,0.0,0.0,0.0,0.0,0.0,0.0
1609060345861207962,111,1609060345861207962,-0.014446910828,-0.00125347325638,-0.00578426499105,0.000195022573005,-7.91944928561e-05,-0.000213320934582,0.999999955094,0.0,0.0,0.0,0.0,0.0,0.0
1609060345964406252,112,1609060345964406252,-0.0165237120921,0.0045302678824,-0.00688184305301,-5.27888165736e-05,-0.000210649013334,-0.000336738783934,0.999999919723,0.0,0.0,0.0,0.0,0.0,0.0
1609060346067427158,113,1609060346067427158,-0.0113893497333,0.00457173375238,-0.00316639109115,-3.51181899707e-05,-1.12097535796e-05,-0.000284140018778,0.999999958953,0.0,0.0,0.0,0.0,0.0,0.0
1609060346171197653,114,1609060346171197653,-0.0110513625747,-0.00235888631378,-0.00397867730647,-4.10874568866e-05,-0.000446951682973,-0.000224888571206,0.999999873985,0.0,0.0,0.0,0.0,0.0,0.0
1609060346273771524,115,1609060346273771524,-0.0157168922739,0.00242753879469,-0.00448050357247,-0.00010645507085,0.000195331634199,-0.0002302670722,0.999999948745,0.0,0.0,0.0,0.0,0.0,0.0
1609060346376943350,116,1609060346376943350,-0.00866795578284,0.00422829459742,-0.00407978686041,-0.000130735229689,-5.96464084997e-05,-0.0002218258044,0.999999965072,0.0,0.0,0.0,0.0,0.0,0.0
1609060346448893309,117,1609060346448893309,-0.0174325145485,0.00790448868417,-0.0042174467925,1.80127700304e-05,-0.000306607300544,-0.000322397146647,0.999999900864,0.0,0.0,0.0,0.0,0.0,0.0
1609060346548856258,118,1609060346548856258,-0.0129211457522,-0.0019422607775,-0.00564041126468,0.000251081626842,-1.66283965927e-05,-0.000165652770047,0.99999995462,0.0,0.0,0.0,0.0,0.0,0.0
1609060346652072191,119,1609060346652072191,-0.00996943738548,0.00183633829005,-0.00430904709764,-7.75335995203e-05,-0.000257602662233,-0.000238036744525,0.999999935484,0.0,0.0,0.0,0.0,0.0,0.0
1609060346755150557,120,1609060346755150557,-0.00823168573435,0.0104917174538,-0.00587052652419,0.000105581553912,-8.12975683079e-05,-0.000374245627372,0.999999921092,0.0,0.0,0.0,0.0,0.0,0.0
1609060346858361006,121,1609060346858361006,-0.0162581478188,-0.00291834464508,-0.00436528148008,-1.3927436053e-05,-9.2902904437e-05,-0.000176104896405,0.999999980081,0.0,0.0,0.0,0.0,0.0,0.0
1609060346961341619,122,1609060346961341619,-0.0140843819639,0.00937570557368,-0.00170653698426,-0.000108340320567,-0.000172965984501,-0.000188410164327,0.999999961423,0.0,0.0,0.0,0.0,0.0,0.0
1609060347064414501,123,1609060347064414501,-0.0104318824657,-0.00208861842463,-0.00454435618163,-1.77553891025e-05,-0.00030500838603,-0.000273777854131,0.99999991585,0.0,0.0,0.0,0.0,0.0,0.0
1609060347167480946,124,1609060347167480946,-0.0061677854531,0.0125212311049,-0.00740119312621,-0.000171122450064,-8.92911897696e-05,-0.00031481108788,0.999999931819,0.0,0.0,0.0,0.0,0.0,0.0
1609060347270663261,125,1609060347270663261,-0.0104826806076,-0.00144875994478,-0.0044283964724,9.19410021225e-05,-0.000182884075704,-0.000322084372723,0.999999927181,0.0,0.0,0.0,0.0,0.0,0.0
1609060347373665094,126,1609060347373665094,-0.0117547026587,0.00937300537233,-0.00473085941052,-0.000102651930139,0.000214879937994,-0.000268153676185,0.999999935691,0.0,0.0,0.0,0.0,0.0,0.0
1609060347476710558,127,1609060347476710558,-0.0233843633409,-0.00665966930443,-0.00488771986347,0.000102051486375,-0.000275539763379,-0.000317837983139,0.999999906321,0.0,0.0,0.0,0.0,0.0,0.0
1609060347548682928,128,1609060347548682928,-0.0162495547611,0.010383016221,-0.00483608157962,-0.000220449868034,0.000153411838831,-0.000427014909883,0.999999872762,0.0,0.0,0.0,0.0,0.0,0.0
1609060347648681164,129,1609060347648681164,-0.0110215274468,-0.0024628562427,-0.00612363659679,0.000171530979554,-2.26891594493e-06,-0.000340251106114,0.9999999274,0.0,0.0,0.0,0.0,0.0,0.0
1609060347751874447,130,1609060347751874447,-0.00873324333178,0.00827847673389,-0.00528720254536,-8.45469747105e-05,6.01221177185e-05,-0.00029172757086,0.999999952066,0.0,0.0,0.0,0.0,0.0,0.0
1609060347860090971,131,1609060347860090971,-0.0127094642265,0.00189795748985,-0.00536738445929,7.28355166347e-05,8.3154218336e-05,-0.000346953064982,0.999999933702,0.0,0.0,0.0,0.0,0.0,0.0
1609060347963306189,132,1609060347963306189,-0.0151055412186,0.00299459111344,-0.00739621006048,-2.89259170682e-05,-0.000473587601174,-0.000264150825942,0.999999852551,0.0,0.0,0.0,0.0,0.0,0.0
1609060348066298485,133,1609060348066298485,-0.0101673925973,0.00537134187607,-0.00560035726689,-2.15211414906e-05,0.000124890719982,-0.000391098709534,0.99999991549,0.0,0.0,0.0,0.0,0.0,0.0
1609060348169837475,134,1609060348169837475,-0.0127159043892,-0.00320818193748,-0.00617599158903,-3.84256677549e-05,-0.000249947365128,-0.000265802964336,0.999999932699,0.0,0.0,0.0,0.0,0.0,0.0
1609060348272389650,135,1609060348272389650,-0.0189393537032,-0.00476819391358,-0.00534512712588,5.98771960587e-05,-4.50566620689e-05,-0.000340993353127,0.999999939054,0.0,0.0,0.0,0.0,0.0,0.0
1609060348375344515,136,1609060348375344515,-0.0186253832055,0.0040475846187,-0.00640778847557,2.8669056189e-05,-6.47492111174e-05,-0.000459282098282,0.999999892023,0.0,0.0,0.0,0.0,0.0,0.0
1609060348478895903,137,1609060348478895903,-0.00685147786257,-0.000103399086376,-0.00566350708662,0.000210415313681,0.000166036871677,-0.000305050247851,0.99999991755,0.0,0.0,0.0,0.0,0.0,0.0
1609060348548521042,138,1609060348548521042,-0.0113866329764,0.0020403397433,-0.00556715185545,-7.22336184884e-05,9.90201191781e-05,-0.000285386016226,0.999999951766,0.0,0.0,0.0,0.0,0.0,0.0
1609060348650807858,139,1609060348650807858,-0.005305388671,-0.00355198795429,-0.00369872391195,-2.42273593794e-05,4.79406033175e-05,-0.000282273088694,0.999999958718,0.0,0.0,0.0,0.0,0.0,0.0
1609060348753650188,140,1609060348753650188,-0.0177261995044,0.00215851371302,-0.00571167510431,-9.45061252419e-06,-0.00011811926607,-0.000200508836492,0.999999972877,0.0,0.0,0.0,0.0,0.0,0.0
1609060348856770515,141,1609060348856770515,-0.0146240072611,0.00500732567447,-0.00494727182888,-6.79285928723e-05,9.53419598643e-05,-0.000304235976791,0.999999946868,0.0,0.0,0.0,0.0,0.0,0.0
1609060348960122585,142,1609060348960122585,-0.0168506043223,0.00816539831581,-0.00694453908488,-0.000210147187148,-7.11934564801e-05,-0.000251746801449,0.999999943696,0.0,0.0,0.0,0.0,0.0,0.0
1609060349062848091,143,1609060349062848091,-0.00974939278786,0.00246339034962,-0.00469977856627,9.17844748265e-05,7.55913911887e-05,-0.000316879389741,0.999999942724,0.0,0.0,0.0,0.0,0.0,0.0
1609060349165938854,144,1609060349165938854,-0.0208140932104,0.00395155868459,-0.00663912951709,-0.000188480972933,-0.000241272183832,-0.000360948220717,0.999999887989,0.0,0.0,0.0,0.0,0.0,0.0
1609060349269557953,145,1609060349269557953,-0.0172109472856,0.00378679400617,-0.00644937436348,-2.73066287457e-05,-0.00013229008458,-0.000275397280643,0.999999952955,0.0,0.0,0.0,0.0,0.0,0.0
1609060349372140408,146,1609060349372140408,-0.0172491682392,0.00130784883968,-0.00610817831499,1.59932733981e-05,-1.88733935143e-05,-0.000418998316578,0.999999911914,0.0,0.0,0.0,0.0,0.0,0.0
1609060349475540161,147,1609060349475540161,-0.0110572459057,-0.00386708053994,-0.00624974738869,-5.25154877441e-06,-9.94229742386e-05,-0.000249746638767,0.999999963857,0.0,0.0,0.0,0.0,0.0,0.0
1609060349578554153,148,1609060349578554153,-0.0182911527952,0.00139155692904,-0.0048765254703,-8.05775802344e-05,-0.000177283021803,-0.000327847014805,0.999999927297,0.0,0.0,0.0,0.0,0.0,0.0
1609060349648634672,149,1609060349648634672,-0.0157305525071,0.00350369893504,-0.0069197720005,-0.000138395986634,-0.000346037836705,-0.000307165047103,0.999999883377,0.0,0.0,0.0,0.0,0.0,0.0
1609060349750355005,150,1609060349750355005,-0.0122799749636,0.00386090951709,-0.00482656677525,-4.47686630618e-05,6.96741409618e-05,-0.000288792769242,0.99999995487,0.0,0.0,0.0,0.0,0.0,0.0
1609060349853764772,151,1609060349853764772,-0.0154613828051,-0.00623910047297,-0.00522401145366,-3.83937376356e-05,-0.00022963059749,-0.000154230209573,0.999999961004,0.0,0.0,0.0,0.0,0.0,0.0
1609060349956382990,152,1609060349956382990,-0.0108533683537,0.0057699248888,-0.00526083782683,6.92529955573e-05,-3.86236380693e-05,-0.000295911488213,0.999999953074,0.0,0.0,0.0,0.0,0.0,0.0
1609060350059517145,153,1609060350059517145,-0.00667101614709,0.0032931051063,-0.0053394346217,-0.000153877274004,-9.01932550209e-05,-0.000346444291953,0.999999924081,0.0,0.0,0.0,0.0,0.0,0.0
1609060350162584782,154,1609060350162584782,-0.0122280906677,-0.00375457402177,-0.00536812780593,2.39732760741e-05,-0.000187482950842,-0.000304106423892,0.999999935897,0.0,0.0,0.0,0.0,0.0,0.0
1609060350265693426,155,1609060350265693426,-0.0224126543786,0.005742742003,-0.00503299483296,-6.34935692168e-06,0.000106677464863,-0.000418332726436,0.999999906788,0.0,0.0,0.0,0.0,0.0,0.0
1609060350369354963,156,1609060350369354963,-0.0143792573185,0.00667376443549,-0.00476866061181,1.78511899398e-05,-0.000194630733287,-0.000345740049434,0.999999921132,0.0,0.0,0.0,0.0,0.0,0.0
1609060350472209215,157,1609060350472209215,-0.00274466990413,0.00314742802528,-0.00607205108217,0.000144264007048,-3.4256455557e-05,-0.000319318331461,0.999999938025,0.0,0.0,0.0,0.0,0.0,0.0
1609060350575234413,158,1609060350575234413,-0.0120248412521,-0.00101517592679,-0.00542932909057,-0.000134274856957,-5.74274591809e-05,-0.000197144770939,0.999999969903,0.0,0.0,0.0,0.0,0.0,0.0
1609060350678378105,159,1609060350678378105,-0.0167662831965,0.00383550847054,-0.00503480877439,8.17772309154e-06,-4.06757808448e-05,-0.000211844910612,0.9999999767,0.0,0.0,0.0,0.0,0.0,0.0
1609060350749866486,160,1609060350749866486,-0.0162918304624,-0.00319994429704,-0.00682760215835,-5.07240362315e-06,2.00433861777e-05,-0.000269139826962,0.999999963568,0.0,0.0,0.0,0.0,0.0,0.0
1609060350850369453,161,1609060350850369453,-0.00852845493774,-0.00341160131536,-0.00574610591746,-0.000184896553685,-0.000270844757046,-0.000293494578236,0.999999903158,0.0,0.0,0.0,0.0,0.0,0.0
1609060350955535412,162,1609060350955535412,-0.0115800129189,0.00961915495474,-0.00722633648436,-1.63005724024e-05,-9.28490652975e-05,-0.000317365653366,0.999999945196,0.0,0.0,0.0,0.0,0.0,0.0
1609060351056481838,163,1609060351056481838,-0.0131664858258,0.00338189044008,-0.00572334289044,-0.000135018025885,-6.21838153254e-05,-0.000321835324691,0.999999937162,0.0,0.0,0.0,0.0,0.0,0.0
1609060351159757376,164,1609060351159757376,-0.0178323792831,0.00383679011586,-0.00686336352038,1.09639414995e-05,-0.00027584760486,-0.000377559582848,0.999999890618,0.0,0.0,0.0,0.0,0.0,0.0
1609060351262967587,165,1609060351262967587,-0.0177142119367,0.00708396815544,-0.00488446114702,-0.000104414616022,-0.000159796514285,-0.00044937491825,0.999999880812,0.0,0.0,0.0,0.0,0.0,0.0
1609060351365724325,166,1609060351365724325,-0.0162008846584,0.00608382592317,-0.00403347374836,-4.78100623569e-06,-5.93785684589e-05,-0.000351668964569,0.99999993639,0.0,0.0,0.0,0.0,0.0,0.0
1609060351468960762,167,1609060351468960762,-0.0154620954364,0.00686624280354,-0.00649887409461,2.28229057413e-05,-0.00022497305938,-0.000386257054449,0.999999899835,0.0,0.0,0.0,0.0,0.0,0.0
1609060351572281599,168,1609060351572281599,-0.0166557837877,0.00509951267578,-0.00462905580999,-6.80227098028e-05,-0.000197740026007,-0.000345700690113,0.999999918381,0.0,0.0,0.0,0.0,0.0,0.0
1609060351680430174,169,1609060351680430174,-0.0128794316053,0.008896879588,-0.00578486929896,2.3140910275e-05,3.97415377439e-05,-0.000431868843382,0.999999905687,0.0,0.0,0.0,0.0,0.0,0.0
1609060351778410196,170,1609060351778410196,-0.0138472562477,9.24212155066e-05,-0.00671093325109,-3.77388400085e-05,-0.000213496300398,-0.000396106646571,0.999999898047,0.0,0.0,0.0,0.0,0.0,0.0
1609060351849167109,171,1609060351849167109,-0.0150707326026,0.00556344836779,-0.00788921217971,6.42742305569e-05,-0.00020276103,-0.000251125246389,0.999999945846,0.0,0.0,0.0,0.0,0.0,0.0
1609060351951774836,172,1609060351951774836,-0.0202646964072,0.00298068062616,-0.00795007007891,5.70672731892e-05,-0.000226200597211,-0.000336311388723,0.999999916235,0.0,0.0,0.0,0.0,0.0,0.0
1609060352053684950,173,1609060352053684950,-0.0124113487539,0.00197247604209,-0.0046508562149,-0.000279267451701,-9.67498932826e-05,-0.000336075467072,0.999999899851,0.0,0.0,0.0,0.0,0.0,0.0
1609060352156837225,174,1609060352156837225,-0.0174639983895,-0.0024235479131,-0.00518690758667,-1.00689046474e-06,-3.41539383422e-05,-0.000378527023663,0.999999927774,0.0,0.0,0.0,0.0,0.0,0.0
1609060352260051012,175,1609060352260051012,-0.012939057256,0.00689318668471,-0.00655893812931,-1.36874818676e-05,-0.000134285323238,-0.000322536517429,0.999999938875,0.0,0.0,0.0,0.0,0.0,0.0
1609060352362803698,176,1609060352362803698,-0.0180126401712,0.00216105632298,-0.00691059898298,-0.000256233989726,-6.5320581335e-05,-0.000294769511542,0.999999921594,0.0,0.0,0.0,0.0,0.0,0.0
1609060352465768814,177,1609060352465768814,-0.0137900150189,0.00199445703327,-0.00677857870431,0.000115020419606,-0.000444786766157,-0.000377405321205,0.99999982325,0.0,0.0,0.0,0.0,0.0,0.0
1609060352568870783,178,1609060352568870783,-0.0241379820926,0.00265718165891,-0.00559367632127,-0.000139576941431,-0.000108130248452,-0.000389411921876,0.999999908592,0.0,0.0,0.0,0.0,0.0,0.0
1609060352672152281,179,1609060352672152281,-0.00997694276186,0.00518740141274,-0.00810316220219,6.72570541052e-05,6.58251328087e-05,-0.000330885735651,0.999999940829,0.0,0.0,0.0,0.0,0.0,0.0
1609060352775721312,180,1609060352775721312,-0.0168668119486,-4.96255169956e-05,-0.00578962357164,0.000150437917051,0.000251338731286,-0.000388055683876,0.999999881805,0.0,0.0,0.0,0.0,0.0,0.0
1609060352849160910,181,1609060352849160910,-0.0174765753211,0.00340908467558,-0.00574215509921,0.000132534072076,-1.0238700398e-10,-0.000475206042047,0.999999878307,0.0,0.0,0.0,0.0,0.0,0.0
1609060352950887918,182,1609060352950887918,-0.0140906792799,0.0036357577733,-0.00642247311861,-9.2552141407e-05,-7.73257476387e-05,-0.000380574480517,0.999999920308,0.0,0.0,0.0,0.0,0.0,0.0
1609060353053784370,183,1609060353053784370,-0.0179756419233,0.00528427941016,-0.00824504846156,7.42196930657e-05,-0.000146587110257,-0.000350060394661,0.99999992523,0.0,0.0,0.0,0.0,0.0,0.0
1609060353156775951,184,1609060353156775951,-0.020894668315,0.00380915193322,-0.00642512665001,-0.000319446987674,-0.000381582964736,-0.000374249082047,0.999999806142,0.0,0.0,0.0,0.0,0.0,0.0
1609060353259968281,185,1609060353259968281,-0.0197680853245,0.00609787447286,-0.00411627362785,6.15729610237e-05,9.62876694935e-05,-0.000354533213985,0.999999930621,0.0,0.0,0.0,0.0,0.0,0.0
1609060353363960743,186,1609060353363960743,-0.0227729773293,-0.00311864248193,-0.00775466589672,7.76384542642e-05,-0.000337987014692,-0.000371260890052,0.999999870951,0.0,0.0,0.0,0.0,0.0,0.0
1609060353466013432,187,1609060353466013432,-0.0169205642875,0.00256436725004,-0.00677377429537,-2.3051377286e-05,-0.000180694545431,-0.000379166239128,0.999999911525,0.0,0.0,0.0,0.0,0.0,0.0
1609060353568959236,188,1609060353568959236,-0.0183496295407,-0.00334052821391,-0.00680379956501,-5.82811222474e-05,-0.000146859678238,-0.000440688663023,0.999999890414,0.0,0.0,0.0,0.0,0.0,0.0
1609060353672769070,189,1609060353672769070,-0.0142545431251,0.00855570746842,-0.00746062627882,0.00014293743889,8.71802246954e-05,-0.000438276634324,0.999999889941,0.0,0.0,0.0,0.0,0.0,0.0
1609060353775416613,190,1609060353775416613,-0.015956190441,-0.000529562254932,-0.00544844385298,0.000139137864214,-0.000119074390018,-0.000324707289891,0.999999930513,0.0,0.0,0.0,0.0,0.0,0.0
1609060353878434420,191,1609060353878434420,-0.0212476296606,0.00489954654805,-0.00761430506729,-4.96007699626e-05,-4.84452966019e-05,-0.00035515303317,0.999999934529,0.0,0.0,0.0,0.0,0.0,0.0
1609060353950099945,192,1609060353950099945,-0.0181814440195,0.0085655928747,-0.00444609244121,-0.000185417768236,-0.000133178209724,-0.000429576287442,0.999999881674,0.0,0.0,0.0,0.0,0.0,0.0
1609060354050130129,193,1609060354050130129,-0.0124994743178,0.0081427398458,-0.00939648835734,-0.000154274476141,-5.56357123773e-05,-0.000346933766735,0.99999992637,0.0,0.0,0.0,0.0,0.0,0.0
1609060354154399157,194,1609060354154399157,-0.0218334819071,-0.00433658966945,-0.00633888672899,1.16600280964e-05,-0.000173189696616,-0.000366487591992,0.999999917778,0.0,0.0,0.0,0.0,0.0,0.0
1609060354256497860,195,1609060354256497860,-0.020124503334,0.00945419164124,-0.00618878967263,-9.09513493362e-05,8.63474634173e-05,-0.000436499665217,0.999999896869,0.0,0.0,0.0,0.0,0.0,0.0
1609060354359743595,196,1609060354359743595,-0.0155214646941,0.0128019127715,-0.00622533312216,0.00010725835716,-0.000151010781612,-0.000360384758741,0.999999917907,0.0,0.0,0.0,0.0,0.0,0.0
1609060354462809086,197,1609060354462809086,-0.0168843927264,0.00368791457055,-0.00748218103321,1.55255693193e-05,-0.000121464568627,-0.000387509222309,0.99999991742,0.0,0.0,0.0,0.0,0.0,0.0
1609060354566198111,198,1609060354566198111,-0.0152351097605,-0.0029798282671,-0.00786891150743,-0.000164349776595,-9.20456897562e-05,-0.000246207955976,0.999999951949,0.0,0.0,0.0,0.0,0.0,0.0
1609060354668872833,199,1609060354668872833,-0.0205600272831,0.00747605334608,-0.0073571982782,0.000253285606262,0.000223663646476,-0.000422375559359,0.999999853709,0.0,0.0,0.0,0.0,0.0,0.0
1609060354772094727,200,1609060354772094727,-0.0118840944559,0.00889065074704,-0.00637083718297,-0.000139578948381,-6.45535619983e-05,-0.000380052568374,0.999999915955,0.0,0.0,0.0,0.0,0.0,0.0
1609060354875271082,201,1609060354875271082,-0.0203573348769,0.00644854714763,-0.00480419874508,-6.65328683808e-05,-0.000289092643461,-0.000358973119032,0.999999891568,0.0,0.0,0.0,0.0,0.0,0.0
1609060354978046894,202,1609060354978046894,-0.0128648490583,0.00834031506706,-0.00643515927275,0.000141637032161,-6.94579422407e-05,-0.000323587664415,0.999999935202,0.0,0.0,0.0,0.0,0.0,0.0
1609060355048535824,203,1609060355048535824,-0.0181086185132,0.00124802753702,-0.00550402036476,6.67288563557e-05,-0.00018181479168,-0.000410332102907,0.999999897059,0.0,0.0,0.0,0.0,0.0,0.0
1609060355150753736,204,1609060355150753736,-0.0203876533541,0.00191254773427,-0.00692297258583,-0.000150168745684,-3.07713471849e-05,-0.000292736335252,0.999999945403,0.0,0.0,0.0,0.0,0.0,0.0
1609060355253820658,205,1609060355253820658,-0.0214383099318,0.00756304997859,-0.00762806487694,-5.27740243687e-05,-7.58473477857e-05,-0.000447799770892,0.999999895468,0.0,0.0,0.0,0.0,0.0,0.0
1609060355356574297,206,1609060355356574297,-0.00690677384337,0.00379581336464,-0.00454769117822,-0.000108501274826,-3.26234020186e-05,-0.000466571797165,0.999999884736,0.0,0.0,0.0,0.0,0.0,0.0
1609060355459748983,207,1609060355459748983,-0.019538684833,0.0144190769181,-0.00836075243467,-0.000176273663584,-0.000312367087056,-0.000503789526968,0.999999808775,0.0,0.0,0.0,0.0,0.0,0.0
1609060355565509081,208,1609060355565509081,-0.0126269129693,0.00766511981034,-0.00687143391841,1.61794497508e-05,-0.000194269797198,-0.000301526112271,0.999999935539,0.0,0.0,0.0,0.0,0.0,0.0
1609060355665901661,209,1609060355665901661,-0.0107337609846,0.00980775756443,-0.00540652671647,-0.000170533705439,0.000293074412914,-0.000509651949179,0.99999981264,0.0,0.0,0.0,0.0,0.0,0.0
1609060355769042015,210,1609060355769042015,-0.0175146876714,0.0065028899029,-0.00780941908519,9.50035117952e-05,-0.000376745645696,-0.000360572438703,0.999999859512,0.0,0.0,0.0,0.0,0.0,0.0
1609060355872229338,211,1609060355872229338,-0.0140772374086,0.0108821830221,-0.00390802807017,-0.000105552386854,-6.00863844503e-05,-0.000387627666239,0.999999917496,0.0,0.0,0.0,0.0,0.0,0.0
1609060355975613117,212,1609060355975613117,-0.0259218944844,0.00334412084282,-0.00680678232321,-7.6903401784e-05,-0.000363228918874,-0.000295290715761,0.999999887476,0.0,0.0,0.0,0.0,0.0,0.0
1609060356078740358,213,1609060356078740358,-0.0117137952393,0.00504126829647,-0.0071532555813,-6.26172403989e-06,-0.000303811436448,-0.000368299966763,0.999999886007,0.0,0.0,0.0,0.0,0.0,0.0
1609060356148900032,214,1609060356148900032,-0.0109050889308,0.00130234142346,-0.00543146162564,-0.000174994889285,-0.000217064269774,-0.000313189134532,0.999999912086,0.0,0.0,0.0,0.0,0.0,0.0
1609060356250971794,215,1609060356250971794,-0.0158273430173,0.00847158241859,-0.00913546220218,0.000237034707045,-0.000234989120995,-0.000326470357025,0.999999891005,0.0,0.0,0.0,0.0,0.0,0.0
1609060356353475809,216,1609060356353475809,-0.0138906990912,0.00920220963719,-0.00516933102089,4.86764107743e-05,-0.000197207813749,-0.000305338602994,0.999999932753,0.0,0.0,0.0,0.0,0.0,0.0
1609060356456522942,217,1609060356456522942,-0.0138483537697,-0.00192617188769,-0.00579403489835,5.04901996214e-05,-0.000136343639522,-0.000318495150994,0.99999993871,0.0,0.0,0.0,0.0,0.0,0.0
1609060356561446905,218,1609060356561446905,-0.0119764818976,0.00412499138102,-0.00846814786259,3.2905681889e-05,-0.000110525067687,-0.000410000159842,0.9999999093,0.0,0.0,0.0,0.0,0.0,0.0
1609060356664868832,219,1609060356664868832,-0.0214322923857,0.00887097246212,-0.00603465414566,5.77609845227e-05,-0.000106560573972,-0.000475975813243,0.999999879377,0.0,0.0,0.0,0.0,0.0,0.0
1609060356766592026,220,1609060356766592026,-0.0102490949517,0.00645262473259,-0.00810822115518,2.83744958074e-05,-0.000284440612604,-0.000394018809263,0.999999881518,0.0,0.0,0.0,0.0,0.0,0.0
1609060356869700670,221,1609060356869700670,-0.0124359218032,0.0111942423306,-0.00534311285467,0.000113577454702,-0.000175531691191,-0.000458317529135,0.999999873116,0.0,0.0,0.0,0.0,0.0,0.0
1609060356972997665,222,1609060356972997665,-0.01507906957,0.00987510732989,-0.0074116952954,5.41898661041e-06,-1.14370318266e-05,-0.000483718754594,0.999999882927,0.0,0.0,0.0,0.0,0.0,0.0
1609060357075427771,223,1609060357075427771,-0.0150512128093,0.0115941228486,-0.00813075788892,4.03437949252e-05,-0.000340591022755,-0.000404276317816,0.999999859465,0.0,0.0,0.0,0.0,0.0,0.0
1609060357178622246,224,1609060357178622246,-0.0171486647728,8.6660531876e-05,-0.00809941545201,-9.65498291375e-05,-3.9475764027e-05,-0.00035320493161,0.999999932182,0.0,0.0,0.0,0.0,0.0,0.0
1609060357248783112,225,1609060357248783112,-0.0110468191761,0.00821084447672,-0.00625657076668,-0.000137364881926,8.84540243922e-06,-0.000333501038855,0.999999934914,0.0,0.0,0.0,0.0,0.0,0.0
1609060357350047350,226,1609060357350047350,-0.0258667899092,0.00304411753941,-0.00861935053573,-7.89391139542e-05,-6.8083524059e-05,-0.000334258785496,0.999999938701,0.0,0.0,0.0,0.0,0.0,0.0
1609060357453486919,227,1609060357453486919,-0.0207547948217,0.00385228170257,-0.0062857840574,-4.37629230924e-05,-0.000306897398438,-0.000555265544634,0.999999797789,0.0,0.0,0.0,0.0,0.0,0.0
1609060357556615591,228,1609060357556615591,-0.0114376320389,0.00142362771833,-0.0064958708676,-1.53196601391e-06,5.19385632426e-05,-0.000327405411123,0.999999945052,0.0,0.0,0.0,0.0,0.0,0.0
1609060357659832239,229,1609060357659832239,-0.0162536494368,0.00391815417735,-0.00549276326946,5.58407883513e-05,-0.000177519581244,-0.000429152176012,0.999999890598,0.0,0.0,0.0,0.0,0.0,0.0
1609060357762833118,230,1609060357762833118,-0.0138310014545,0.0129272220212,-0.00744030416312,3.31620176608e-05,-0.000170499968698,-0.000349526777285,0.99999992383,0.0,0.0,0.0,0.0,0.0,0.0
1609060357865934134,231,1609060357865934134,-0.0183337968089,0.00410990595932,-0.00632153433155,1.23225491481e-06,-1.01075923722e-06,-0.000389848721017,0.999999924007,0.0,0.0,0.0,0.0,0.0,0.0
1609060357968722343,232,1609060357968722343,-0.0159215487758,0.00252892170772,-0.00823069748892,0.000137036674607,-6.08719972963e-05,-0.000271488469626,0.999999951904,0.0,0.0,0.0,0.0,0.0,0.0
1609060358072232246,233,1609060358072232246,-0.0107818443925,0.00909801673374,-0.00577828144611,-0.000256546337034,0.000295120155631,-0.000566147318284,0.999999763282,0.0,0.0,0.0,0.0,0.0,0.0
1609060358175340652,234,1609060358175340652,-0.01842904704,0.00128344392862,-0.00777646883516,1.27489942969e-05,-0.000342056598096,-0.000344349793275,0.999999882128,0.0,0.0,0.0,0.0,0.0,0.0
1609060358278251410,235,1609060358278251410,-0.0185887702527,0.0115666019791,-0.0088943257628,0.000164809963052,3.80050793096e-06,-0.000498232775764,0.999999862293,0.0,0.0,0.0,0.0,0.0,0.0
1609060358348742962,236,1609060358348742962,-0.0196687948713,0.00280639222949,-0.00543349969961,-0.000122083990905,-0.000185551692997,-0.000325354683398,0.999999922404,0.0,0.0,0.0,0.0,0.0,0.0
1609060358450282574,237,1609060358450282574,-0.014599707483,0.00392098150058,-0.00639245946117,1.76139327572e-05,2.27851441154e-05,-0.000439780392564,0.999999902881,0.0,0.0,0.0,0.0,0.0,0.0
1609060358553434372,238,1609060358553434372,-0.0142384689789,0.00481154376936,-0.00639475023891,-7.82186790138e-05,-0.000286079182153,-0.000312807293824,0.999999907095,0.0,0.0,0.0,0.0,0.0,0.0
1609060358656509638,239,1609060358656509638,-0.0159834143648,0.00258324757235,-0.00912645546525,5.89618941307e-05,-0.000226176839833,-0.000411072454012,0.999999888193,0.0,0.0,0.0,0.0,0.0,0.0
1609060358759878397,240,1609060358759878397,-0.0213738925573,0.00313350721732,-0.0082493427038,-0.000131300952884,-7.86155696462e-05,-0.000456246982416,0.999999884208,0.0,0.0,0.0,0.0,0.0,0.0
1609060358862795830,241,1609060358862795830,-0.021753848021,0.00107156871101,-0.00728112963387,-0.000225037269227,-0.000346650828554,-0.000232827856353,0.999999887491,0.0,0.0,0.0,0.0,0.0,0.0
1609060358965811729,242,1609060358965811729,-0.0152536218472,0.00599218682031,-0.00813941593408,4.62125623041e-05,-0.000130739742219,-0.000326023495325,0.999999937239,0.0,0.0,0.0,0.0,0.0,0.0
1609060359068913221,243,1609060359068913221,-0.0193074190305,0.0078187708626,-0.00747130750069,-0.00015518451551,-0.000328676889933,-0.000376724277947,0.999999862983,0.0,0.0,0.0,0.0,0.0,0.0
1609060359172047138,244,1609060359172047138,-0.0185234155641,0.0045526705931,-0.00839484259751,-0.000284338501094,-0.000175643678283,-0.000436882807167,0.999999848716,0.0,0.0,0.0,0.0,0.0,0.0
1609060359275064945,245,1609060359275064945,-0.0167096324116,-0.00432612593807,-0.0053053311909,1.64797084977e-05,-0.000197237834657,-0.000470425285478,0.999999869762,0.0,0.0,0.0,0.0,0.0,0.0
1609060359378169775,246,1609060359378169775,-0.0128509531523,-0.00142304501225,-0.00653577053621,0.000195681578506,-5.18722537214e-05,-0.000417941146448,0.999999892171,0.0,0.0,0.0,0.0,0.0,0.0
1609060359448380709,247,1609060359448380709,-0.0142214509716,0.0079245536528,-0.0087906313857,-0.000199983168291,-0.000137881910268,-0.000518802881166,0.999999835919,0.0,0.0,0.0,0.0,0.0,0.0
1609060359550393581,248,1609060359550393581,-0.0226300802056,0.0051843128208,-0.00742722480171,0.000206335709867,-0.00025641993524,-0.000350928767247,0.999999884261,0.0,0.0,0.0,0.0,0.0,0.0
1609060359653324127,249,1609060359653324127,-0.000952913376534,0.000899333686545,-0.00669041193991,8.90367012262e-05,-0.000316023095789,-0.000257569401472,0.999999912929,0.0,0.0,0.0,0.0,0.0,0.0
1609060359756447077,250,1609060359756447077,-0.0130743302655,-0.00177728492723,-0.00568133449074,6.05414454044e-05,2.51193253372e-06,-0.000387818179505,0.999999922962,0.0,0.0,0.0,0.0,0.0,0.0
1609060359859733820,251,1609060359859733820,-0.0265593152194,0.000660862611609,-0.00724043445237,5.75938036451e-05,-0.000251982786319,-0.00041397670431,0.999999880905,0.0,0.0,0.0,0.0,0.0,0.0
1609060359962715626,252,1609060359962715626,-0.0152549816914,-0.000114792418132,-0.0105908398182,0.00021860476075,-0.000367600382814,-0.000377476098455,0.999999837296,0.0,0.0,0.0,0.0,0.0,0.0
1609060360065917492,253,1609060360065917492,-0.0154853608155,0.00489754626971,-0.00726962599912,0.000146627902706,-0.000240120247436,-0.000349611394364,0.999999899306,0.0,0.0,0.0,0.0,0.0,0.0
1609060360169003725,254,1609060360169003725,-0.0144630068578,-0.00366091277728,-0.00519905445113,-8.02493890883e-05,0.000135275672774,-0.000393490909601,0.999999910212,0.0,0.0,0.0,0.0,0.0,0.0
1609060360272150040,255,1609060360272150040,-0.0107577851356,0.00665744175407,-0.00868762004841,-1.37589581298e-05,6.39347322206e-05,-0.000389279093797,0.999999922092,0.0,0.0,0.0,0.0,0.0,0.0
1609060360375067234,256,1609060360375067234,-0.0214102864758,-0.00131558576396,-0.00619105625742,-4.76533775173e-05,-0.000285418174309,-0.000283997436612,0.999999917805,0.0,0.0,0.0,0.0,0.0,0.0
1609060360478045464,257,1609060360478045464,-0.0118819616108,0.0132198294925,-0.00558430350513,-0.000140896776155,8.81141197568e-05,-0.000369030272875,0.999999918099,0.0,0.0,0.0,0.0,0.0,0.0
1609060360548471689,258,1609060360548471689,-0.0237512176412,-0.00106394129371,-0.00785616709028,-4.61754354616e-05,-0.000118419923958,-0.000446291815976,0.999999892333,0.0,0.0,0.0,0.0,0.0,0.0
1609060360650310040,259,1609060360650310040,-0.0148365993893,0.00758079965037,-0.00658485150343,2.92015891449e-05,2.12448547215e-05,-0.000395505413785,0.999999921135,0.0,0.0,0.0,0.0,0.0,0.0
1609060360753682852,260,1609060360753682852,-0.0133142313681,0.000380672587733,-0.00749265006181,-0.000163220839373,-0.000193921407114,-0.000473644143501,0.999999855706,0.0,0.0,0.0,0.0,0.0,0.0
1609060360856611252,261,1609060360856611252,-0.0183514745201,0.0126802016016,-0.00725887999712,-3.32787167905e-05,-5.4347282971e-05,-0.000498212362181,0.999999873861,0.0,0.0,0.0,0.0,0.0,0.0
1609060360959744453,262,1609060360959744453,-0.00914429073762,-0.00371848372673,-0.0068321826604,-8.76041857283e-05,-0.000161639181171,-0.000296053986815,0.999999939274,0.0,0.0,0.0,0.0,0.0,0.0
1609060361062636852,263,1609060361062636852,-0.0102228721663,0.00317639005804,-0.00723407190487,1.95887727679e-05,-0.000324837145752,-0.000483506186227,0.999999830159,0.0,0.0,0.0,0.0,0.0,0.0
1609060361166207075,264,1609060361166207075,-0.0164527127615,0.0157024671654,-0.00591244323754,0.000106096947845,4.73380195919e-05,-0.000438864654755,0.999999896949,0.0,0.0,0.0,0.0,0.0,0.0
1609060361269498348,265,1609060361269498348,-0.00953786368447,0.000444942319595,-0.00930206921855,-6.42785660866e-05,-0.000233159452487,-0.000289562863883,0.999999928828,0.0,0.0,0.0,0.0,0.0,0.0
1609060361372528076,266,1609060361372528076,-0.0178005708777,-0.000960791514527,-0.00697300021093,0.000138799650482,0.000100929723206,-0.000404421521599,0.999999903495,0.0,0.0,0.0,0.0,0.0,0.0
1609060361475512743,267,1609060361475512743,-0.0103325365351,0.00503987492345,-0.00712356899486,8.85951518819e-05,0.000108040577151,-0.000424537979772,0.999999900122,0.0,0.0,0.0,0.0,0.0,0.0
1609060361579172611,268,1609060361579172611,-0.016712330214,-0.00105840454067,-0.00658088859629,-2.0181233134e-05,-0.000116150961123,-0.00036377708807,0.999999926883,0.0,0.0,0.0,0.0,0.0,0.0
1609060361648321629,269,1609060361648321629,-0.0167610591264,0.00114956762333,-0.00794028068879,5.57018591052e-05,-0.000222150976448,-0.00045572826404,0.999999869928,0.0,0.0,0.0,0.0,0.0,0.0
1609060361750512123,270,1609060361750512123,-0.0169029526395,0.00550768394676,-0.00640399827443,-5.25364851261e-05,-0.000221040427663,-0.000454747159097,0.999999870792,0.0,0.0,0.0,0.0,0.0,0.0
1609060361852807999,271,1609060361852807999,-0.0175637700358,0.00496084916276,-0.00954548990584,0.00013601473368,-6.32077699976e-05,-0.000323456481641,0.999999936439,0.0,0.0,0.0,0.0,0.0,0.0
1609060361955957174,272,1609060361955957174,-0.0172038194175,0.000919181864966,-0.00719743204015,0.000127195651549,-0.000119920578151,-0.000307725114855,0.999999937372,0.0,0.0,0.0,0.0,0.0,0.0
1609060362059494495,273,1609060362059494495,-0.0231166020338,-0.00311595889236,-0.00837001994472,-0.000104947115239,-0.000359670572116,-0.000284109313322,0.999999889452,0.0,0.0,0.0,0.0,0.0,0.0
1609060362162713528,274,1609060362162713528,-0.0209655396125,0.00173131178936,-0.00908776384874,-8.93043885067e-05,0.00010401248901,-0.000431641996205,0.999999897445,0.0,0.0,0.0,0.0,0.0,0.0
1609060362265881777,275,1609060362265881777,-0.0200758006361,0.00476101400824,-0.00594636915394,-5.8701775682e-05,6.77270059772e-05,-0.000480998437171,0.999999880303,0.0,0.0,0.0,0.0,0.0,0.0
1609060362369132042,276,1609060362369132042,-0.0194911539527,0.0011789383472,-0.00915856584897,-0.000153753456219,-6.01120173497e-05,-0.000360095434511,0.999999921538,0.0,0.0,0.0,0.0,0.0,0.0
1609060362472335339,277,1609060362472335339,-0.0272045389094,0.00062814139896,-0.00737953811748,0.00013258347205,-0.000292726896292,-0.000375784067674,0.999999877758,0.0,0.0,0.0,0.0,0.0,0.0
1609060362575396538,278,1609060362575396538,-0.0219895503098,-0.00455417202162,-0.00600841428638,-0.000115521785349,-0.000392150455494,-0.000221528065948,0.999999891898,0.0,0.0,0.0,0.0,0.0,0.0
1609060362678878307,279,1609060362678878307,-0.0171026351637,0.00236119661652,-0.00775117510427,6.92053365348e-07,-2.88469518204e-05,-0.00028852478591,0.999999957959,0.0,0.0,0.0,0.0,0.0,0.0
1609060362748673916,280,1609060362748673916,-0.0176463999276,0.00511468396866,-0.00992505349118,1.92187224936e-05,-0.000114282330118,-0.000389808433129,0.999999917309,0.0,0.0,0.0,0.0,0.0,0.0
1609060362850505829,281,1609060362850505829,-0.0242700166728,0.00126053922547,-0.00780601057724,0.000117427432405,-0.000280199239291,-0.000345204297531,0.999999894266,0.0,0.0,0.0,0.0,0.0,0.0
1609060362953424215,282,1609060362953424215,-0.0120600071546,0.00506147450212,-0.00662543058287,-0.00024263149792,8.13225190872e-05,-0.000395321796394,0.999999889118,0.0,0.0,0.0,0.0,0.0,0.0
1609060363056455612,283,1609060363056455612,-0.0115434919436,-0.00289405050448,-0.00852492286195,4.3338746186e-05,-3.85654144175e-05,-0.000363777563267,0.999999932149,0.0,0.0,0.0,0.0,0.0,0.0
1609060363159607410,284,1609060363159607410,-0.0210656533315,0.00666989410931,-0.00653706313021,5.37140977283e-05,-0.000218037053869,-0.000403399703732,0.999999893421,0.0,0.0,0.0,0.0,0.0,0.0
1609060363262762547,285,1609060363262762547,-0.0119803467805,0.0019481789928,-0.00810101059051,-0.000156033317743,-0.000118883773029,-0.000317212794087,0.999999930447,0.0,0.0,0.0,0.0,0.0,0.0
1609060363365814924,286,1609060363365814924,-0.0250758352967,0.000316352113259,-0.00908369325355,1.01708926756e-05,-0.000473141492936,-0.000314935711785,0.999999838424,0.0,0.0,0.0,0.0,0.0,0.0
1609060363469112635,287,1609060363469112635,-0.0146005860965,0.00077881499067,-0.00488665939047,-0.000182964099114,8.6288429984e-05,-0.000501773570201,0.99999985365,0.0,0.0,0.0,0.0,0.0,0.0
1609060363572238445,288,1609060363572238445,-0.0249525197528,0.00797315566756,-0.0105768267117,-0.000146732976306,-0.000347904033157,-0.000407085549976,0.999999845856,0.0,0.0,0.0,0.0,0.0,0.0
1609060363675321579,289,1609060363675321579,-0.0267953141658,0.00581818196723,-0.00667014476041,-0.000110379015287,3.82292852566e-05,-0.000387827210903,0.999999917971,0.0,0.0,0.0,0.0,0.0,0.0
1609060363778607130,290,1609060363778607130,-0.0202798221462,0.000490968251841,-0.0103221153147,0.000121165125339,-0.000134289816634,-0.000359806742298,0.999999918911,0.0,0.0,0.0,0.0,0.0,0.0
1609060363848457098,291,1609060363848457098,-0.0181096743853,0.0065288083235,-0.00562117851772,3.652700311e-05,-0.000187625805194,-0.000324908595693,0.999999928947,0.0,0.0,0.0,0.0,0.0,0.0
1609060363950571060,292,1609060363950571060,-0.0175573122898,0.00358275034848,-0.00711486201816,-0.000103519780887,-1.94119327812e-05,-0.000453275086506,0.999999891723,0.0,0.0,0.0,0.0,0.0,0.0
1609060364053252220,293,1609060364053252220,-0.0289356373599,0.00576422059198,-0.00771804983409,0.000102290208491,-0.000526720690328,-0.000474173312669,0.99999974363,0.0,0.0,0.0,0.0,0.0,0.0
1609060364156430006,294,1609060364156430006,-0.0201866701846,-0.00294669391101,-0.00755734885481,0.000146504997316,-0.000150518132866,-0.000384657189346,0.999999903959,0.0,0.0,0.0,0.0,0.0,0.0
1609060364259648085,295,1609060364259648085,-0.0172520571582,0.00340621544009,-0.00783130415124,-0.000112892140261,-0.000106843441834,-0.000309592855884,0.999999939995,0.0,0.0,0.0,0.0,0.0,0.0
1609060364362620354,296,1609060364362620354,-0.0242009917682,0.0035846743841,-0.00978278895258,-6.7323738472e-05,-0.000409710937399,-0.000307743229234,0.999999866448,0.0,0.0,0.0,0.0,0.0,0.0
1609060364465783358,297,1609060364465783358,-0.0172410309765,-0.0054622869499,-0.00701005956476,-0.000111170629404,1.28799024787e-06,-0.000412264676269,0.999999908838,0.0,0.0,0.0,0.0,0.0,0.0
1609060364568794966,298,1609060364568794966,-0.0181634283369,-0.00888339359066,-0.00664676193619,9.58919705762e-05,-0.000218609783221,-0.000387460956868,0.999999896443,0.0,0.0,0.0,0.0,0.0,0.0
1609060364671866655,299,1609060364671866655,-0.0167845295744,0.00366560232525,-0.00667557721746,-5.00752186318e-06,-0.00027887037789,-0.000280247084781,0.999999921833,0.0,0.0,0.0,0.0,0.0,0.0
1609060364775324106,300,1609060364775324106,-0.0151305560385,-0.00478426887395,-0.00695582318924,5.568018453e-05,-3.89631654891e-05,-0.000338388787437,0.999999940436,0.0,0.0,0.0,0.0,0.0,0.0
1609060364878245115,301,1609060364878245115,-0.0133929553318,0.00917284199042,-0.00850882835073,1.92500976346e-05,0.000191697668145,-0.000503485705464,0.999999854691,0.0,0.0,0.0,0.0,0.0,0.0
1609060364948561430,302,1609060364948561430,-0.0185773178061,-0.00603981876863,-0.00786268309521,-0.000140726166358,-0.000254468032589,-0.000355195567364,0.999999894638,0.0,0.0,0.0,0.0,0.0,0.0
1609060365050234318,303,1609060365050234318,-0.0130998851239,-0.00252392293798,-0.00777208618357,3.09367466889e-06,-0.000194046734319,-0.000377612790201,0.999999909871,0.0,0.0,0.0,0.0,0.0,0.0
1609060365153410673,304,1609060365153410673,-0.0203403389105,0.00670806208713,-0.00669438076828,-0.000135833645052,-0.000122522779648,-0.000391858597329,0.999999906491,0.0,0.0,0.0,0.0,0.0,0.0
1609060365256483078,305,1609060365256483078,-0.0152609275885,-0.00984586017148,-0.00786947362007,0.000117259257742,-1.37763585575e-05,-0.000387554516617,0.99999991793,0.0,0.0,0.0,0.0,0.0,0.0
1609060365359792948,306,1609060365359792948,-0.0197177337791,-3.22046902173e-05,-0.0085550988513,0.000129955644917,-0.000295375096537,-0.000354161298881,0.999999885216,0.0,0.0,0.0,0.0,0.0,0.0
1609060365462662697,307,1609060365462662697,-0.0168443450079,0.00287020911431,-0.00997899982791,-9.59571886811e-05,-0.000185496756153,-0.000412294898818,0.999999893197,0.0,0.0,0.0,0.0,0.0,0.0
1609060365565434456,308,1609060365565434456,-0.0113626279491,0.00482954262759,-0.00757264670646,-0.000105303923593,-0.000235863557865,-0.000373604474889,0.999999896848,0.0,0.0,0.0,0.0,0.0,0.0
1609060365669104576,309,1609060365669104576,-0.0203629126082,-0.000576136239945,-0.00848221125908,-0.000156968815698,8.51711042169e-05,-0.000354315647887,0.999999921282,0.0,0.0,0.0,0.0,0.0,0.0
1609060365771614790,310,1609060365771614790,-0.0149491562581,-0.00294189653451,-0.00687754712144,0.000164193796244,-0.000110132508167,-0.000702400438725,0.999999733771,0.0,0.0,0.0,0.0,0.0,0.0
1609060365874801397,311,1609060365874801397,-0.0110905715787,0.00477885832084,-0.00674687386128,-9.00079035829e-05,-0.000552064784545,8.16582016908e-05,0.999999840226,0.0,0.0,0.0,0.0,0.0,0.0
1609060365978292465,312,1609060365978292465,-0.00916232976995,-0.000787547012745,-0.00348513528586,-3.1792505242e-06,-0.00021005687893,-0.000403407463821,0.999999896563,0.0,0.0,0.0,0.0,0.0,0.0
1609060366048538923,313,1609060366048538923,-0.0252246614557,-0.00554601005551,-0.0125730230734,0.00010929510352,-6.82353226749e-05,-0.000570883526771,0.999999828744,0.0,0.0,0.0,0.0,0.0,0.0
1609060366150029182,314,1609060366150029182,-0.0270443744494,0.0110025295684,-0.00865414344688,-9.15747870319e-05,5.79815307115e-06,-9.5296273885e-05,0.999999991248,0.0,0.0,0.0,0.0,0.0,0.0
1609060366253244400,315,1609060366253244400,-0.014955098984,0.00428605021556,-0.00281051448699,-9.53985355042e-05,-0.000159704838285,-0.000304572240399,0.999999936313,0.0,0.0,0.0,0.0,0.0,0.0
1609060366356507778,316,1609060366356507778,-0.0032955796427,0.00852899301888,-0.00236360414256,-0.000158321845201,-0.000328159965265,-0.000322644658064,0.999999881572,0.0,0.0,0.0,0.0,0.0,0.0
1609060366459547997,317,1609060366459547997,-0.0126758828435,0.0145093350293,-0.0111083635989,6.81663128421e-05,0.000202646485065,-0.000387577891438,0.999999902034,0.0,0.0,0.0,0.0,0.0,0.0
1609060366562590599,318,1609060366562590599,-0.0070684280286,0.0085105189112,-0.00784748897587,-0.000116633332935,0.000248003077522,-0.000398395223013,0.999999883085,0.0,0.0,0.0,0.0,0.0,0.0
1609060366665657997,319,1609060366665657997,-0.00569894960239,0.000295362827606,-0.00607445627788,-4.95372236779e-05,-0.000201979291135,-0.000530456081359,0.999999837682,0.0,0.0,0.0,0.0,0.0,0.0
1609060366769158363,320,1609060366769158363,-0.0124987689018,0.00177803265244,-0.00851961267858,3.34604345767e-05,-0.000167939643542,-0.00025937151479,0.9999999517,0.0,0.0,0.0,0.0,0.0,0.0
1609060366872115135,321,1609060366872115135,-0.0162234257869,-0.00131563932001,-0.00496127330015,-4.47446243489e-05,-0.000271581608608,-0.000324406170729,0.9999999095,0.0,0.0,0.0,0.0,0.0,0.0
1609060366974959135,322,1609060366974959135,-0.0189918772078,0.0035882642628,-0.0104885013497,-0.000134674507251,-0.00025551025391,-0.000541731197793,0.999999811551,0.0,0.0,0.0,0.0,0.0,0.0
1609060367078755617,323,1609060367078755617,-0.0188216003982,0.00613928527027,-0.00632470986458,5.33791279358e-05,0.000132785405614,-0.000376246209565,0.999999918977,0.0,0.0,0.0,0.0,0.0,0.0
1609060367148311377,324,1609060367148311377,-0.0192756507301,0.000197576956724,-0.00594819209674,0.00015332599628,-7.01459701838e-05,-0.000461175356092,0.999999879443,0.0,0.0,0.0,0.0,0.0,0.0
1609060367250182152,325,1609060367250182152,-0.0305727204783,0.000120143946271,-0.0104190732604,-8.98846512968e-05,-0.000395691768918,-0.000640099455908,0.999999712809,0.0,0.0,0.0,0.0,0.0,0.0
1609060367353706121,326,1609060367353706121,-0.0137699282546,-0.00249442415724,-0.00737344662065,-0.000152775873762,-0.000484795343703,-0.0004307144112,0.999999778058,0.0,0.0,0.0,0.0,0.0,0.0
1609060367456403732,327,1609060367456403732,-0.0240563524862,0.00724623413541,-0.00791785007897,-2.44925466591e-05,-0.000141403802981,-0.000362687794792,0.99999992393,0.0,0.0,0.0,0.0,0.0,0.0
1609060367559820890,328,1609060367559820890,-0.0330885348055,0.00589805098637,-0.00940981326273,0.000128596357092,8.99958348978e-05,-0.00052304697971,0.999999850891,0.0,0.0,0.0,0.0,0.0,0.0
1609060367662819862,329,1609060367662819862,-0.0270071904292,-0.00382584965869,-0.0078128928011,-5.11311565023e-05,8.46880376486e-05,-0.000652079447947,0.999999782502,0.0,0.0,0.0,0.0,0.0,0.0
1609060367765856028,330,1609060367765856028,-0.0293475700824,0.00254841909599,-0.00738047131486,-2.32363142802e-05,4.55252266487e-06,-0.000458778104674,0.99999989448,0.0,0.0,0.0,0.0,0.0,0.0
1609060367868984699,331,1609060367868984699,-0.0279072320408,0.00379717807464,-0.00903933861731,-0.000205140144067,-0.000351678702764,-0.000453742004635,0.999999814178,0.0,0.0,0.0,0.0,0.0,0.0
1609060367972021103,332,1609060367972021103,-0.020067000276,0.00195267061784,-0.00907509661898,0.000141522344462,-0.000255489517182,-0.000560384904255,0.999999800331,0.0,0.0,0.0,0.0,0.0,0.0
1609060368075006485,333,1609060368075006485,-0.00472196595409,-0.00860445274913,-0.00701563063019,-0.000177560893496,-0.000640723408798,-0.000490254974654,0.999999658796,0.0,0.0,0.0,0.0,0.0,0.0
1609060368178050756,334,1609060368178050756,0.00743360019183,-0.006997278051,-0.00820267318554,0.000137136128254,-0.000850412042266,-0.000639112011893,0.999999424763,0.0,0.0,0.0,0.0,0.0,0.0
1609060368248478413,335,1609060368248478413,0.0209448552039,-0.0028230018463,-0.00651718236622,0.000270654678218,-0.00146855409187,-0.000754715277614,0.999998600248,0.0,0.0,0.0,0.0,0.0,0.0
1609060368350262165,336,1609060368350262165,0.0523646452944,0.00806885700965,-0.0114928782658,-9.99222997411e-05,-0.00102838916735,-0.00145460449099,0.999998408276,0.0,0.0,0.0,0.0,0.0,0.0
1609060368453233242,337,1609060368453233242,0.0530631667852,0.00174538694373,-0.0129536174394,-0.000170256862681,-0.000402992826711,-0.00131554492419,0.999999038974,0.0,0.0,0.0,0.0,0.0,0.0
1609060368556213856,338,1609060368556213856,0.0555657730008,0.00860571465413,-0.0159641453502,0.000159184573206,-0.000137196323827,-0.00146361905802,0.999998906826,0.0,0.0,0.0,0.0,0.0,0.0
1609060368659443140,339,1609060368659443140,0.0476049847256,-0.00121772913272,-0.0166102848439,-0.000105555195442,-0.000868803467808,-0.00150490659237,0.999998484645,0.0,0.0,0.0,0.0,0.0,0.0
1609060368762521744,340,1609060368762521744,0.060308847113,0.00801952145267,-0.0313940984877,0.000666435142572,-0.00435447216019,-0.00184541744984,0.999988594369,0.0,0.0,0.0,0.0,0.0,0.0
1609060368865485668,341,1609060368865485668,0.0776069359817,0.0147708742473,-0.0470331021003,0.000714903463405,-0.00216125425271,-0.00264774476657,0.99999390365,0.0,0.0,0.0,0.0,0.0,0.0
1609060368968556881,342,1609060368968556881,0.0912409403927,0.0450036836106,-0.0764297091015,-0.000950369524818,-0.00365620048461,-0.00352153396087,0.999986663807,0.0,0.0,0.0,0.0,0.0,0.0
1609060369071669817,343,1609060369071669817,0.112798963604,0.0383131062719,-0.0987877206897,0.000268086540193,-0.00200805116374,-0.003925328047,0.999990243781,0.0,0.0,0.0,0.0,0.0,0.0
1609060369174860954,344,1609060369174860954,0.122530010061,0.046582598312,-0.146746999195,0.000169778208672,-0.00169229019698,-0.00397309428751,0.99999066088,0.0,0.0,0.0,0.0,0.0,0.0
1609060369277888775,345,1609060369277888775,0.108082074695,0.0943517614729,-0.18573486189,4.67744671689e-05,-0.00234109563239,-0.00420598249989,0.999988413329,0.0,0.0,0.0,0.0,0.0,0.0
1609060369348282337,346,1609060369348282337,0.0896701966405,0.0961654950931,-0.304735349287,0.000473156565194,-0.00340606786157,-0.00418665717978,0.999985323254,0.0,0.0,0.0,0.0,0.0,0.0
1609060369449961424,347,1609060369449961424,0.112573622919,0.101608427365,-0.248885966833,-0.000346721895496,-0.00224496032372,-0.00358973561069,0.999990976826,0.0,0.0,0.0,0.0,0.0,0.0
1609060369553020477,348,1609060369553020477,0.126040056189,0.104086059827,-0.286893332619,-0.00381152468524,-0.003015499552,-0.00353977908812,0.999981924338,0.0,0.0,0.0,0.0,0.0,0.0
1609060369656153917,349,1609060369656153917,0.102581075454,0.0888494480596,-0.308021779646,-0.00636997775325,-0.00267889601658,-0.00304716924404,0.999971480421,0.0,0.0,0.0,0.0,0.0,0.0
1609060369759435415,350,1609060369759435415,0.130513725882,0.0877120864406,-0.330152010984,-0.0134769435912,-0.00217955102902,-0.00314681320003,0.99990185474,0.0,0.0,0.0,0.0,0.0,0.0
1609060369862546206,351,1609060369862546206,0.148938264695,0.0869800366507,-0.702264158336,-0.0325894813849,-0.00129467389752,-0.00307769834286,0.999463244593,0.0,0.0,0.0,0.0,0.0,0.0
1609060369965663671,352,1609060369965663671,0.176208328637,0.0841681923195,-0.91068485337,-0.045778180354,-0.00365895466272,-0.00297709853209,0.99894049229,0.0,0.0,0.0,0.0,0.0,0.0
1609060370068766832,353,1609060370068766832,0.182392407358,0.0793420826179,-1.04427290483,-0.0542250865393,-0.00632215984513,-0.00285506882197,0.998504641383,0.0,0.0,0.0,0.0,0.0,0.0
1609060370171928167,354,1609060370171928167,0.200946074355,0.0417271968317,-1.13896768087,-0.0486310157384,-0.00553416289159,-0.00295456353301,0.998797110479,0.0,0.0,0.0,0.0,0.0,0.0
1609060370275095940,355,1609060370275095940,0.240759694142,0.0247055828067,-1.29536083094,-0.0335592510234,-0.00722852627565,-0.00322751835385,0.999405377312,0.0,0.0,0.0,0.0,0.0,0.0
1609060370378220320,356,1609060370378220320,0.240824564502,0.000666882935447,-1.51452148209,-0.0137401543137,-0.00621451591631,-0.00303306657343,0.999881687229,0.0,0.0,0.0,0.0,0.0,0.0
1609060370448285580,357,1609060370448285580,0.260090149377,-0.039534564356,-1.579962385,0.0049448070818,-0.00112531079887,-0.00319651355096,0.999982032267,0.0,0.0,0.0,0.0,0.0,0.0
1609060370549949884,358,1609060370549949884,0.286427727636,-0.082752609247,-1.66431593512,0.0102586219562,0.00105704103955,-0.00350836096673,0.99994066561,0.0,0.0,0.0,0.0,0.0,0.0
1609060370652942657,359,1609060370652942657,0.324813443372,-0.0989870465091,-1.83337319277,0.0150320223062,0.00364423903391,-0.00397446410566,0.999872472598,0.0,0.0,0.0,0.0,0.0,0.0
1609060370756180763,360,1609060370756180763,0.344298281181,-0.132333498921,-1.94280161328,0.0191320031668,0.00831103123957,-0.00387348194165,0.999774919344,0.0,0.0,0.0,0.0,0.0,0.0
1609060370859647036,361,1609060370859647036,0.381134119306,-0.188332072836,-2.0147224622,0.0165028535905,0.0108789734163,-0.00386029467759,0.999797180373,0.0,0.0,0.0,0.0,0.0,0.0
1609060370962866783,362,1609060370962866783,0.420727708537,-0.216867843277,-2.1350996027,0.0125919573732,0.0126934305788,-0.00804192105752,0.999807804997,0.0,0.0,0.0,0.0,0.0,0.0
