%time,field.header.seq,field.header.stamp,field.pose.pose.position.x,field.pose.pose.position.y,field.pose.pose.position.z,field.pose.pose.orientation.x,field.pose.pose.orientation.y,field.pose.pose.orientation.z,field.pose.pose.orientation.w,field.twist.twist.linear.x,field.twist.twist.linear.y,field.twist.twist.linear.z,field.twist.twist.angular.x,field.twist.twist.angular.y,field.twist.twist.angular.z
1609060339844695807,50,1609060339844695807,-0.00437682780264,-0.00931795079778,0.0186617601211,0.000338135958395,6.20619343901e-05,0.000267955610923,0.999999905006,0.0,0.0,0.0,0.0,0.0,0.0
1609060339914852619,51,1609060339914852619,-0.00602143964053,-0.00761040492616,0.0115404996261,0.000683088570733,0.000111178301818,0.000255646122706,0.999999727837,0.0,0.0,0.0,0.0,0.0,0.0
1609060340017308950,52,1609060340017308950,-0.0211426725168,-0.00676317023192,0.00654091550586,0.000178672137505,-3.01994578051e-05,0.000311840441932,0.99999993496,0.0,0.0,0.0,0.0,0.0,0.0
1609060340120150566,53,1609060340120150566,-0.0030281110801,-0.00586405775794,0.02064075416,0.000496955970412,-0.000130298213401,0.000243804517666,0.999999838308,0.0,0.0,0.0,0.0,0.0,0.0
1609060340222889900,54,1609060340222889900,-0.0215435695298,-0.00422693905288,0.0240547016314,0.000989804247337,-0.000253380754246,0.000420983198973,0.999999389429,0.0,0.0,0.0,0.0,0.0,0.0
1609060340326255798,55,1609060340326255798,-0.00551506879208,-0.00307758283622,0.0219235470964,0.00116541732805,-0.000445430088696,0.000259229207626,0.999999188097,0.0,0.0,0.0,0.0,0.0,0.0
1609060340429228067,56,1609060340429228067,-0.00285733598163,-0.00790870868771,-0.00659374623432,0.00046452712531,-0.000331433975953,0.000288764123678,0.999999795491,0.0,0.0,0.0,0.0,0.0,0.0
1609060340532346964,57,1609060340532346964,-0.00638399436314,-0.00543567016551,0.0142983838744,0.000346928979405,-6.14925357537e-05,0.000372178396334,0.999999868671,0.0,0.0,0.0,0.0,0.0,0.0
1609060340635401726,58,1609060340635401726,-0.00454141065682,-0.00863935940331,0.0253207715849,0.000481893147653,6.29124301334e-05,0.000339895971838,0.999999824146,0.0,0.0,0.0,0.0,0.0,0.0
1609060340738509893,59,1609060340738509893,-0.0122889574057,-0.00601517803445,0.01242714697,0.000374342144645,-0.000122881178508,0.000337125246271,0.999999865557,0.0,0.0,0.0,0.0,0.0,0.0
1609060340841681480,60,1609060340841681480,-0.00892068311158,-0.00785087845411,0.00596101459219,-5.56356305952e-05,-0.00020563109533,0.000264257500438,0.999999942394,0.0,0.0,0.0,0.0,0.0,0.0
1609060340944837332,61,1609060340944837332,-0.0144931083487,-0.00651163524097,0.00326621167181,0.000595154891878,-0.000292526298823,0.000215575169505,0.999999756873,0.0,0.0,0.0,0.0,0.0,0.0
1609060341015148163,62,1609060341015148163,-0.0138817702729,-0.0078387609392,0.0318561496406,8.30634817647e-06,0.000258276482861,0.00026390151567,0.99999993179,0.0,0.0,0.0,0.0,0.0,0.0
1609060341117012501,63,1609060341117012501,-0.0134380479144,-0.00547400883128,0.0242165492854,0.00170704360848,-0.000198392947933,0.000261210046444,0.999998489205,0.0,0.0,0.0,0.0,0.0,0.0
1609060341220295668,64,1609060341220295668,-0.00878826805928,-0.00926906546246,0.0231585557593,0.000942094895469,-0.00012659037555,0.000295117724801,0.999999504669,0.0,0.0,0.0,0.0,0.0,0.0
1609060341324901342,65,1609060341324901342,-0.0183229670395,-0.00824970311936,0.00338210476138,0.000592503934435,-0.000356865370898,0.00028783707578,0.999999719368,0.0,0.0,0.0,0.0,0.0,0.0
1609060341426250935,66,1609060341426250935,-0.0182923521484,-0.0069838743435,0.0212358995528,0.000601369753505,0.000273118686596,0.000383540164254,0.999999708329,0.0,0.0,0.0,0.0,0.0,0.0
1609060341529313326,67,1609060341529313326,-0.0203661503363,-0.00573899935323,0.0243012383402,0.00147079347911,-0.000382402879844,0.000310014055941,0.999998797212,0.0,0.0,0.0,0.0,0.0,0.0
1609060341632460356,68,1609060341632460356,-0.0133623511449,-0.00607445522098,-0.00786677160969,-0.000229881413642,-0.000356151156936,0.000229776990167,0.999999883757,0.0,0.0,0.0,0.0,0.0,0.0
1609060341735656261,69,1609060341735656261,-0.0164513403713,-0.00452091795047,-0.00342223940086,6.46287932705e-05,-8.85256763928e-05,0.000131737076537,0.999999985316,0.0,0.0,0.0,0.0,0.0,0.0
1609060341838603020,70,1609060341838603020,-0.016397615212,-0.00925452045245,0.0154404174945,0.00112213267847,-0.000466424310417,0.000394168054814,0.999999183949,0.0,0.0,0.0,0.0,0.0,0.0
1609060341941675425,71,1609060341941675425,-0.0200017164126,-0.00761701619107,0.0152704791879,0.000914588740704,-0.000232823378081,0.000315449550612,0.999999504906,0.0,0.0,0.0,0.0,0.0,0.0
1609060342045132875,72,1609060342045132875,-0.0192117970143,-0.0065307581912,0.0211929684541,0.000602027463627,0.000154068258525,0.000287402578267,0.999999765613,0.0,0.0,0.0,0.0,0.0,0.0
1609060342115037441,73,1609060342115037441,-0.0133055469394,-0.00490067014943,0.0137792470349,0.00165967511995,-0.000229884448227,0.000346386627036,0.999998536323,0.0,0.0,0.0,0.0,0.0,0.0
1609060342217463732,74,1609060342217463732,-0.012096911268,-0.00710369885675,0.0272238551918,0.0012066265143,-0.000115937584757,0.000294006275118,0.999999222085,0.0,0.0,0.0,0.0,0.0,0.0
1609060342319499016,75,1609060342319499016,-0.0117495225215,-0.00910164079633,0.00324905657298,0.000123583753819,0.000136985892991,0.000239869289582,0.999999954212,0.0,0.0,0.0,0.0,0.0,0.0
1609060342422518492,76,1609060342422518492,-0.0158526066316,-0.00699488822916,0.0335182230799,0.00197929780177,-0.000193788987001,0.000246524607608,0.999997992024,0.0,0.0,0.0,0.0,0.0,0.0
1609060342527113438,77,1609060342527113438,-0.0159387803456,-0.00902455707883,0.028541298273,0.000213296299281,9.94891496742e-05,0.000244960681784,0.9999999423,0.0,0.0,0.0,0.0,0.0,0.0
1609060342630025864,78,1609060342630025864,-0.00738474498867,-0.00823356911562,0.0169787373088,0.000384556738584,-8.80409413423e-06,0.000301575430771,0.999999880545,0.0,0.0,0.0,0.0,0.0,0.0
1609060342732311964,79,1609060342732311964,-0.0188347429973,-0.00621454686538,0.0160477681655,0.000803054788362,-0.000323719386567,0.00026301879327,0.999999590565,0.0,0.0,0.0,0.0,0.0,0.0
1609060342835401535,80,1609060342835401535,-0.0123618671504,-0.00941780425367,0.0262317483757,0.00045583641036,-0.000214305624381,0.00018018198842,0.99999985691,0.0,0.0,0.0,0.0,0.0,0.0
1609060342938426733,81,1609060342938426733,-0.0122286324425,-0.0104429791964,0.0225437664488,0.000252222045873,9.73133166138e-05,0.000243496823271,0.999999933812,0.0,0.0,0.0,0.0,0.0,0.0
1609060343041519642,82,1609060343041519642,-0.0111223512528,-0.0126992384909,0.0156835113096,4.27395475813e-05,2.00780394962e-05,8.10080365138e-05,0.999999995604,0.0,0.0,0.0,0.0,0.0,0.0
1609060343144946814,83,1609060343144946814,-0.0191610071115,-0.00822503253437,0.0249885327903,0.00133524640248,-0.000420892359163,0.000369575404465,0.99999895169,0.0,0.0,0.0,0.0,0.0,0.0
1609060343214867115,84,1609060343214867115,-0.0107553057244,-0.00835744541432,0.0224683407609,0.00036558443566,0.000132528634105,0.000219036817162,0.999999900404,0.0,0.0,0.0,0.0,0.0,0.0
1609060343316503525,85,1609060343316503525,-0.0168963747003,-0.00478582733207,0.0307865574838,0.000969484258388,-6.46675259985e-05,0.000263325904655,0.999999493289,0.0,0.0,0.0,0.0,0.0,0.0
1609060343419714212,86,1609060343419714212,-0.0149182451803,-0.00950507188459,0.0104256621265,-0.000151828439549,-0.000111193942677,0.000267651117142,0.999999946473,0.0,0.0,0.0,0.0,0.0,0.0
1609060343522730350,87,1609060343522730350,-0.0124343912727,-0.00753285136504,0.016065650538,0.00134958253312,-0.000613032949073,0.000378361236179,0.999998829829,0.0,0.0,0.0,0.0,0.0,0.0
1609060343625708580,88,1609060343625708580,-0.00666469902622,-0.00710733791031,0.00307109768552,-0.000176455760775,-0.000260317647372,0.00022486710196,0.999999925266,0.0,0.0,0.0,0.0,0.0,0.0
1609060343730070829,89,1609060343730070829,-0.0238941697719,-0.00733656141462,-0.00182277472896,-0.000196994821786,0.000156362295627,0.000223639207647,0.999999943365,0.0,0.0,0.0,0.0,0.0,0.0
1609060343831854343,90,1609060343831854343,-0.00691926606185,-0.0102185591863,-0.00155249477865,0.000239222497089,-0.000129727090532,8.92860915143e-05,0.999999958986,0.0,0.0,0.0,0.0,0.0,0.0
1609060343935283661,91,1609060343935283661,-0.0129566820532,-0.00936548962148,0.0199995472611,0.000250584388686,-0.000128713281818,0.000156387931461,0.999999948092,0.0,0.0,0.0,0.0,0.0,0.0
1609060344038087130,92,1609060344038087130,-0.0120351117354,-0.00869749747359,0.00780421247127,0.000456804249105,-0.000192912534036,0.000289717431209,0.999999835089,0.0,0.0,0.0,0.0,0.0,0.0
1609060344141299963,93,1609060344141299963,-0.0233222696002,-0.0068081589338,0.0119724957881,-0.000234755320937,0.000438505608227,0.000376504229699,0.999999805424,0.0,0.0,0.0,0.0,0.0,0.0
1609060344244400501,94,1609060344244400501,-0.011747447596,-0.00789088146283,0.00786842375082,0.00094021614635,-0.000239491526934,0.000202923287392,0.99999950873,0.0,0.0,0.0,0.0,0.0,0.0
1609060344314883471,95,1609060344314883471,-0.0204567512261,-0.00785480647592,-0.000508697511083,-0.000333823474054,0.000223894696379,0.000217901067073,0.999999895476,0.0,0.0,0.0,0.0,0.0,0.0
1609060344417405605,96,1609060344417405605,-0.0177552508959,-0.00894811268161,0.00510275512521,0.000257274188308,0.000182030728718,0.000144174797592,0.999999939944,0.0,0.0,0.0,0.0,0.0,0.0
1609060344520844936,97,1609060344520844936,-0.0120071314693,-0.0103634637765,0.0173721188457,0.00092735407125,-6.18147362909e-06,0.000239944872862,0.999999541201,0.0,0.0,0.0,0.0,0.0,0.0
1609060344622543573,98,1609060344622543573,-0.018360383483,-0.0119484957105,0.0158955899745,0.000205529382214,-0.00027902068478,0.000381520165499,0.999999867174,0.0,0.0,0.0,0.0,0.0,0.0
1609060344725990295,99,1609060344725990295,-0.0207533634564,-0.00866444295333,0.0103863948707,0.000364913586763,0.000269660997213,0.000299018527824,0.999999852354,0.0,0.0,0.0,0.0,0.0,0.0
1609060344829452038,100,1609060344829452038,-0.0228101428114,-0.00913522044385,0.0246257451383,0.000721197554325,4.65967560274e-06,0.000236462432171,0.999999711969,0.0,0.0,0.0,0.0,0.0,0.0
1609060344932109833,101,1609060344932109833,-0.023378872538,-0.00710765659061,0.0157165056964,0.000719592892169,-0.000201496880401,0.000279833846848,0.999999681639,0.0,0.0,0.0,0.0,0.0,0.0
1609060345035376072,102,1609060345035376072,-0.0179846024024,-0.0101221982303,0.0284743730574,0.00115401066813,-0.000146812090066,0.00028986944773,0.99999928134,0.0,0.0,0.0,0.0,0.0,0.0
1609060345138029814,103,1609060345138029814,-0.0238480706496,-0.00925616589339,0.00880547338483,0.000637984022585,-0.000189412247863,0.000371041839696,0.999999709714,0.0,0.0,0.0,0.0,0.0,0.0
1609060345241119862,104,1609060345241119862,-0.0182273526573,-0.00832840616234,0.00424317752545,-4.8118606531e-05,-0.000145896511193,0.000199886945144,0.999999968222,0.0,0.0,0.0,0.0,0.0,0.0
1609060345344230413,105,1609060345344230413,-0.0275583448881,-0.00661171762997,0.038904825732,0.0013310036972,-0.000274996929106,0.000279011724479,0.999999037479,0.0,0.0,0.0,0.0,0.0,0.0
1609060345414525270,106,1609060345414525270,-0.00623072653655,-0.00796236264973,0.0263753213264,0.000613953082854,0.0003971764595,0.000414652091028,0.999999646688,0.0,0.0,0.0,0.0,0.0,0.0
1609060345516316175,107,1609060345516316175,-0.0127236495365,-0.00849568709837,0.0275550418188,0.000960366392388,8.47599225499e-05,0.000242500283258,0.999999505853,0.0,0.0,0.0,0.0,0.0,0.0
1609060345621860504,108,1609060345621860504,-0.0216832087692,-0.00424002241749,0.0187795540284,0.0012847870559,-0.000239198393249,0.000311237343031,0.999999097618,0.0,0.0,0.0,0.0,0.0,0.0
1609060345723087549,109,1609060345723087549,-0.0155684470385,-0.0128637484833,0.0246750960705,-0.000202239385416,0.000212703476879,0.000547938428487,0.99999980681,0.0,0.0,0.0,0.0,0.0,0.0
1609060345825968027,110,1609060345825968027,-0.0281017560828,-0.00715700011142,0.0202672235665,0.000992609000837,-5.34080847576e-05,0.00027427960346,0.999999468323,0.0,0.0,0.0,0.0,0.0,0.0
1609060345929384947,111,1609060345929384947,-0.016877575936,-0.0114925429013,0.00764101460317,0.000656669406948,-0.000439092360953,0.000265014108876,0.999999652875,0.0,0.0,0.0,0.0,0.0,0.0
1609060346032657385,112,1609060346032657385,-0.0103893717359,-0.00760040214977,0.0164857223465,0.000563817401413,-6.72544060734e-05,0.000211715973586,0.999999816382,0.0,0.0,0.0,0.0,0.0,0.0
1609060346135705233,113,1609060346135705233,-0.0315883128126,-0.00816659769916,0.00225724373222,0.000148578180879,3.45477850243e-05,0.000364421750388,0.999999921964,0.0,0.0,0.0,0.0,0.0,0.0
1609060346238989115,114,1609060346238989115,-0.0074240971906,-0.0108055278394,0.00740628657722,0.000266651525759,-0.000186630122832,0.000157525583369,0.999999934626,0.0,0.0,0.0,0.0,0.0,0.0
1609060346341686964,115,1609060346341686964,-0.0186868225504,-0.0128862730154,0.02969927846,0.000525143989642,4.56173148465e-05,0.000305263818922,0.999999814478,0.0,0.0,0.0,0.0,0.0,0.0
1609060346444740295,116,1609060346444740295,-0.020715797014,-0.00827525415446,0.0312682511957,0.00125339203516,-0.00043059952673,0.000251994398961,0.999999090045,0.0,0.0,0.0,0.0,0.0,0.0
1609060346514747143,117,1609060346514747143,-0.0181047497622,-0.00962340200438,0.0296060748354,0.000248706490618,0.000272915374564,0.000246583934363,0.999999901429,0.0,0.0,0.0,0.0,0.0,0.0
1609060346616441488,118,1609060346616441488,-0.0176561077918,-0.0129348942589,0.00962191464413,0.000657093928765,-5.06366696278e-05,0.000170578614415,0.999999768283,0.0,0.0,0.0,0.0,0.0,0.0
1609060346719583035,119,1609060346719583035,-0.0202503888435,-0.0111712813801,0.0173810392577,-0.000124695898478,-0.000260264344317,0.000313848102049,0.999999909106,0.0,0.0,0.0,0.0,0.0,0.0
1609060346822566271,120,1609060346822566271,-0.0223922726972,-0.0141034472982,0.0116562999114,0.00102530239489,7.4434902898e-05,0.000266345609136,0.999999436137,0.0,0.0,0.0,0.0,0.0,0.0
1609060346925556183,121,1609060346925556183,-0.0285047245888,-0.0127089395541,0.0255023936847,-9.81825553634e-05,0.0001358543913,5.51984669851e-05,0.999999984428,0.0,0.0,0.0,0.0,0.0,0.0
1609060347029309988,122,1609060347029309988,-0.0183271616812,-0.0110053370109,0.0154144154225,0.00106964726043,-0.000182520734921,0.000172134352259,0.999999396455,0.0,0.0,0.0,0.0,0.0,0.0
1609060347131656647,123,1609060347131656647,-0.0190992104875,-0.0124474909381,0.0276377769979,0.00030250955429,0.000112088019167,0.000183182469858,0.999999931184,0.0,0.0,0.0,0.0,0.0,0.0
1609060347234893084,124,1609060347234893084,-0.0247878355436,-0.0122573248547,0.0259545097056,0.000174017261025,0.00030788824067,0.000304567697094,0.999999891081,0.0,0.0,0.0,0.0,0.0,0.0
1609060347338083506,125,1609060347338083506,-0.0246791844572,-0.0109391220196,0.0158652766604,0.000973665340056,-0.000385707910169,0.000247068329662,0.999999421081,0.0,0.0,0.0,0.0,0.0,0.0
1609060347441507578,126,1609060347441507578,-0.0134462563985,-0.0112521242809,0.0220237945802,9.94543277903e-05,0.00029096864404,0.000169352172589,0.999999938383,0.0,0.0,0.0,0.0,0.0,0.0
1609060347544945240,127,1609060347544945240,-0.0268240352792,-0.011282092359,0.0254981072109,0.000326574738381,-0.000251393409853,0.000123917747833,0.999999907397,0.0,0.0,0.0,0.0,0.0,0.0
1609060347614966869,128,1609060347614966869,-0.0209967098512,-0.0140127315558,0.00763842132064,0.000313311838707,0.000223292382015,0.000312616347639,0.999999877124,0.0,0.0,0.0,0.0,0.0,0.0
1609060347716908693,129,1609060347716908693,-0.0177378885619,-0.00946100770308,0.0231505036421,0.000808873195321,3.7990025296e-05,0.000217267937451,0.999999648538,0.0,0.0,0.0,0.0,0.0,0.0
1609060347820641994,130,1609060347820641994,-0.024277746717,-0.0101270426301,0.028779269921,0.000953574591805,0.00014283226648,0.000287999914567,0.999999493675,0.0,0.0,0.0,0.0,0.0,0.0
1609060347922955036,131,1609060347922955036,-0.0121911317155,-0.0114177481564,0.0174848951542,0.000622970545741,-0.000604204219059,0.000153248830798,0.99999961168,0.0,0.0,0.0,0.0,0.0,0.0
1609060348028198481,132,1609060348028198481,-0.0284787788705,-0.00968736814783,0.026200599304,0.000450776621352,0.000178986759372,0.000166487747171,0.999999868523,0.0,0.0,0.0,0.0,0.0,0.0
1609060348129088879,133,1609060348129088879,-0.022299743384,-0.014582496295,0.0131151725798,7.39681353577e-05,0.00045669258691,0.000210599808343,0.999999870804,0.0,0.0,0.0,0.0,0.0,0.0
1609060348232368946,134,1609060348232368946,-0.0170767710898,-0.0145206669123,0.0279770643382,0.000350863446054,-0.000117192048696,0.000199788905948,0.999999911623,0.0,0.0,0.0,0.0,0.0,0.0
1609060348335551739,135,1609060348335551739,-0.0218251421433,-0.0108710266915,0.0174844082148,0.00108137761065,-2.0814089186e-06,0.000105243203816,0.999999409771,0.0,0.0,0.0,0.0,0.0,0.0
1609060348438495874,136,1609060348438495874,-0.0151043734568,-0.0155652148368,0.035249174117,0.00129804593753,-0.000203809423231,0.000337023345612,0.999999079976,0.0,0.0,0.0,0.0,0.0,0.0
1609060348541847706,137,1609060348541847706,-0.0159070361313,-0.0120960128002,0.028354912661,0.000358058528476,9.82546884885e-05,0.000159738050309,0.999999918312,0.0,0.0,0.0,0.0,0.0,0.0
1609060348646416664,138,1609060348646416664,-0.0143892219621,-0.0124096719351,0.0306452701332,0.000863916570777,0.000258169235678,0.000154775271946,0.999999581521,0.0,0.0,0.0,0.0,0.0,0.0
1609060348715099812,139,1609060348715099812,-0.0212944741502,-0.013215521609,0.00964932687394,-0.000321211040011,0.000121164618423,0.000276958856519,0.999999902718,0.0,0.0,0.0,0.0,0.0,0.0
1609060348816679955,140,1609060348816679955,-0.0277423987148,-0.0118341913673,0.0234426341644,-5.67568846637e-05,2.68216493458e-05,0.000181096545495,0.999999981632,0.0,0.0,0.0,0.0,0.0,0.0
1609060348919656992,141,1609060348919656992,-0.0234638622812,-0.0103511144456,0.0276531685407,-0.000196220650021,0.000392821983691,0.000273486564662,0.999999866197,0.0,0.0,0.0,0.0,0.0,0.0
1609060349022714615,142,1609060349022714615,-0.020453714989,-0.0122045191641,0.00900362136406,0.00111694948573,-4.39348305301e-05,0.00012471047061,0.99999936747,0.0,0.0,0.0,0.0,0.0,0.0
1609060349125790596,143,1609060349125790596,-0.0146245769227,-0.0125919441853,0.0304038090384,-0.000134819657681,0.000651791636579,2.47503908654e-05,0.999999778189,0.0,0.0,0.0,0.0,0.0,0.0
1609060349229130507,144,1609060349229130507,-0.0280699170403,-0.0136877783091,0.0254672921088,0.00109098950933,-0.000363084651958,0.000244626684887,0.999999309034,0.0,0.0,0.0,0.0,0.0,0.0
1609060349332015991,145,1609060349332015991,-0.0256741132787,-0.0113152482895,0.0368011828075,-0.000646167539243,0.000686649607926,0.000188439549927,0.999999537735,0.0,0.0,0.0,0.0,0.0,0.0
1609060349436349869,146,1609060349436349869,-0.0177457227043,-0.0128913570558,0.0176080281492,7.94188075477e-05,0.000372409161894,0.000134006221828,0.999999918523,0.0,0.0,0.0,0.0,0.0,0.0
1609060349538389683,147,1609060349538389683,-0.0311705201503,-0.0127900028509,0.0245161456789,0.00015284066369,0.000128726757847,0.000205211481755,0.999999958979,0.0,0.0,0.0,0.0,0.0,0.0
1609060349641562223,148,1609060349641562223,-0.0276458750882,-0.0120414877961,0.00498939634152,0.000528471314422,3.93117574655e-05,0.000104911942376,0.999999854083,0.0,0.0,0.0,0.0,0.0,0.0
1609060349744760513,149,1609060349744760513,-0.0269984463759,-0.0100275839915,0.00834829147519,-0.000404229794291,-8.74542240332e-06,0.000178808700707,0.999999902275,0.0,0.0,0.0,0.0,0.0,0.0
1609060349815094471,150,1609060349815094471,-0.0157092860826,-0.0170803770563,0.00991515281485,-0.000241678900882,0.000162127680888,0.000146178239661,0.999999946969,0.0,0.0,0.0,0.0,0.0,0.0
1609060349916836977,151,1609060349916836977,-0.0122703882097,-0.0140792165721,-0.000303930582701,-0.000560165991787,3.21076914962e-05,0.00012335777875,0.999999834983,0.0,0.0,0.0,0.0,0.0,0.0
1609060350021676302,152,1609060350021676302,-0.0323875631922,-0.0100444728729,0.00918488048187,-0.000122033372312,-0.000117472382368,0.000191466641266,0.999999967324,0.0,0.0,0.0,0.0,0.0,0.0
1609060350123988867,153,1609060350123988867,-0.0234961273888,-0.015621057178,-0.000864431127845,-0.000536643324388,-0.000192466684703,0.000187296088124,0.999999819945,0.0,0.0,0.0,0.0,0.0,0.0
1609060350226182699,154,1609060350226182699,-0.0251563807573,-0.0111123233726,0.0195897958889,3.54357943047e-05,0.000408037187543,-4.12426204807e-05,0.999999915274,0.0,0.0,0.0,0.0,0.0,0.0
1609060350329211950,155,1609060350329211950,-0.0192016550371,-0.0122267901638,0.0168167993441,0.000261868950669,-6.63016116626e-05,0.000324203873836,0.99999991096,0.0,0.0,0.0,0.0,0.0,0.0
1609060350432522058,156,1609060350432522058,-0.0320478671758,-0.0118893946849,0.017751790505,-6.01382042457e-05,0.000104636077869,0.000131727524891,0.999999984041,0.0,0.0,0.0,0.0,0.0,0.0
1609060350535599709,157,1609060350535599709,-0.0288225646828,-0.0112995273745,0.0152694853946,0.00069240307791,-0.000189078118909,0.00018459461639,0.999999725376,0.0,0.0,0.0,0.0,0.0,0.0
1609060350638720512,158,1609060350638720512,-0.00947209705763,-0.0114124026528,0.00974346944516,-0.000619646699859,0.000353869562826,1.98864504071e-05,0.999999745209,0.0,0.0,0.0,0.0,0.0,0.0
1609060350741335869,159,1609060350741335869,-0.0215512044575,-0.014349268805,0.00893023520739,0.000424873593952,-0.000417054951884,0.000225040980466,0.999999797452,0.0,0.0,0.0,0.0,0.0,0.0
1609060350844267607,160,1609060350844267607,-0.0229409489585,-0.00909993834721,0.0161315446001,0.000553931028139,3.38517233928e-05,0.000113014554823,0.999999839621,0.0,0.0,0.0,0.0,0.0,0.0
1609060350914462090,161,1609060350914462090,-0.027664843401,-0.0125808272489,0.0258229577713,0.000268009628738,0.000126326141302,0.000190613987189,0.999999937939,0.0,0.0,0.0,0.0,0.0,0.0
1609060351016589403,162,1609060351016589403,-0.0206650836424,-0.0108950425818,0.0290199321144,0.00095601342733,0.000248529837273,0.000147900244299,0.999999501198,0.0,0.0,0.0,0.0,0.0,0.0
1609060351120517015,163,1609060351120517015,-0.01718101622,-0.0136660341186,0.0181661128336,0.000409616349493,5.99233427217e-05,0.00028750382942,0.999999872982,0.0,0.0,0.0,0.0,0.0,0.0
1609060351222880840,164,1609060351222880840,-0.0254172636469,-0.014446684822,0.0226685673315,0.000339249046364,0.000137274148503,0.000248474195894,0.999999902163,0.0,0.0,0.0,0.0,0.0,0.0
1609060351326103926,165,1609060351326103926,-0.0225491421133,-0.0152266136082,0.00148509083498,-0.000489292559231,-5.3457014553e-05,0.000168364599518,0.999999864694,0.0,0.0,0.0,0.0,0.0,0.0
1609060351429566383,166,1609060351429566383,-0.012914332055,-0.0156014465267,0.00485616869824,-0.000663538359494,0.000295454098572,6.38781584953e-05,0.999999734171,0.0,0.0,0.0,0.0,0.0,0.0
1609060351532799959,167,1609060351532799959,-0.0154898567093,-0.0149609127615,0.0115388548474,0.000116933080942,0.000432101064805,0.000174656049041,0.999999884555,0.0,0.0,0.0,0.0,0.0,0.0
1609060351635969639,168,1609060351635969639,-0.0265930071326,-0.0104862105605,0.0317103331329,0.00171660020233,-0.000180199058204,2.00938083028e-05,0.999998510203,0.0,0.0,0.0,0.0,0.0,0.0
1609060351740366459,169,1609060351740366459,-0.0197592005268,-0.0151624959845,0.0152731418211,0.000166182769676,0.000364660939002,8.22207543508e-05,0.999999916323,0.0,0.0,0.0,0.0,0.0,0.0
1609060351842081547,170,1609060351842081547,-0.0254293083909,-0.0159684352931,0.0354209429081,0.000664203481549,0.000204760101722,0.000125956945662,0.999999750521,0.0,0.0,0.0,0.0,0.0,0.0
1609060351945240259,171,1609060351945240259,-0.0189804128577,-0.0111040785181,0.0182165584509,0.000990884048652,-0.000364522967648,8.87016921722e-05,0.999999438702,0.0,0.0,0.0,0.0,0.0,0.0
1609060352015627384,172,1609060352015627384,-0.00949645658617,-0.015523515149,0.0308705458289,-0.000328249371381,0.000519471969001,0.000168822559931,0.99999979695,0.0,0.0,0.0,0.0,0.0,0.0
1609060352117158413,173,1609060352117158413,-0.0314638258525,-0.0140944586997,0.0251488149919,0.000824820696825,-2.04134253656e-05,0.000235041340652,0.999999632005,0.0,0.0,0.0,0.0,0.0,0.0
1609060352220208883,174,1609060352220208883,-0.0175558977586,-0.0102068305753,0.046404971057,0.00123658093651,6.25366963844e-05,3.05279923861e-05,0.999999233012,0.0,0.0,0.0,0.0,0.0,0.0
1609060352323684931,175,1609060352323684931,-0.0306708287026,-0.0131231020724,0.0289568984999,-0.000197161284115,9.39918389145e-05,0.000431255542606,0.999999883156,0.0,0.0,0.0,0.0,0.0,0.0
1609060352427028179,176,1609060352427028179,-0.0195379836486,-0.0125963087885,0.0217176346432,0.00162312861374,-7.638707144e-05,0.000198345148121,0.999998660138,0.0,0.0,0.0,0.0,0.0,0.0
1609060352530360460,177,1609060352530360460,-0.015748993091,-0.0128821398143,0.0245959827256,0.000923892092978,-0.000152729243036,0.00022972630648,0.999999535161,0.0,0.0,0.0,0.0,0.0,0.0
1609060352632581472,178,1609060352632581472,-0.0207360267056,-0.0122415549253,0.0226000668311,0.00112925700972,-7.48962931255e-05,0.000284519318006,0.999999319109,0.0,0.0,0.0,0.0,0.0,0.0
1609060352735806704,179,1609060352735806704,-0.0209375075404,-0.0114550696952,0.0217013049625,0.000555249411265,0.000233702415272,0.000118982728927,0.999999811462,0.0,0.0,0.0,0.0,0.0,0.0
1609060352838811636,180,1609060352838811636,-0.0183548467189,-0.0117540209441,0.021238650775,-2.70090987794e-05,4.28152119488e-05,0.000160926737456,0.99999998577,0.0,0.0,0.0,0.0,0.0,0.0
1609060352942089558,181,1609060352942089558,-0.0191529744274,-0.00841615810919,0.0222766580303,0.00111892106924,-0.000148460707231,0.000137721393376,0.999999353504,0.0,0.0,0.0,0.0,0.0,0.0
1609060353045073271,182,1609060353045073271,-0.0217168506478,-0.016514271343,0.0111901124063,2.44960961897e-05,-0.00038875925205,0.000243269152585,0.999999894543,0.0,0.0,0.0,0.0,0.0,0.0
1609060353115045547,183,1609060353115045547,-0.024434703494,-0.0112739454673,0.0242544647472,9.70615107779e-05,7.41472363351e-05,5.54222281795e-05,0.999999991005,0.0,0.0,0.0,0.0,0.0,0.0
1609060353216803551,184,1609060353216803551,-0.0149098589234,-0.0123432446043,0.0229348720513,0.000826336202412,4.98940592494e-05,0.000235467418231,0.999999629617,0.0,0.0,0.0,0.0,0.0,0.0
1609060353319978952,185,1609060353319978952,-0.0292264176439,-0.0107027476612,0.0311163368892,3.13552452513e-05,0.000256202564086,0.000133727553859,0.999999957747,0.0,0.0,0.0,0.0,0.0,0.0
1609060353423347950,186,1609060353423347950,-0.0170718810144,-0.013484633797,0.0296739459967,0.000212190610289,6.10028083795e-05,0.000186075241458,0.999999958315,0.0,0.0,0.0,0.0,0.0,0.0
1609060353526020527,187,1609060353526020527,-0.0214693255246,-0.0117150411018,0.0348331896035,0.000449968917645,0.000365201028605,0.000325236926375,0.999999779188,0.0,0.0,0.0,0.0,0.0,0.0
1609060353630946875,188,1609060353630946875,-0.0297034125354,-0.0106499858321,0.0244497992541,0.000901698204276,-1.6154854913e-05,0.000246441522338,0.999999562973,0.0,0.0,0.0,0.0,0.0,0.0
1609060353732655287,189,1609060353732655287,-0.0155310166072,-0.0156111338886,0.0264773574112,0.000310949369111,0.000236532566001,0.000208251443481,0.999999901997,0.0,0.0,0.0,0.0,0.0,0.0
1609060353836125374,190,1609060353836125374,-0.0192815592424,-0.0127448018032,0.0253439307626,0.000673087790921,-7.4509688322e-05,0.000146478765074,0.999999759972,0.0,0.0,0.0,0.0,0.0,0.0
1609060353938581944,191,1609060353938581944,-0.0217419702095,-0.0114267976381,0.0181101744738,0.000444258820284,-0.000136047756475,0.000166252544019,0.999999878242,0.0,0.0,0.0,0.0,0.0,0.0
1609060354041520357,192,1609060354041520357,-0.0237138817432,-0.0139923574216,0.0186525157751,0.000814810233835,0.000106828217556,0.000299198896817,0.999999617576,0.0,0.0,0.0,0.0,0.0,0.0
1609060354144905806,193,1609060354144905806,-0.0229796467127,-0.0123394248,0.0119504669921,0.000477303159037,-0.000246042841023,0.000228303080874,0.999999829761,0.0,0.0,0.0,0.0,0.0,0.0
1609060354216017723,194,1609060354216017723,-0.023094576838,-0.0107924693789,0.0108183689143,0.000192544042783,0.000424094530215,6.18690423483e-05,0.999999889621,0.0,0.0,0.0,0.0,0.0,0.0
1609060354317016125,195,1609060354317016125,-0.021385741225,-0.0128322970781,0.00586419837335,-0.000722235218365,-0.000129625719553,3.64701876519e-05,0.999999730121,0.0,0.0,0.0,0.0,0.0,0.0
1609060354420426607,196,1609060354420426607,-0.0161027236894,-0.0134350123486,0.00954974352915,6.24645053759e-05,4.96890670601e-06,0.000133972369059,0.999999989062,0.0,0.0,0.0,0.0,0.0,0.0
1609060354524086714,197,1609060354524086714,-0.0244413972264,-0.0119357349002,0.0293011035342,0.000785556300882,-2.76186968097e-05,0.000250496498173,0.999999659695,0.0,0.0,0.0,0.0,0.0,0.0
1609060354625733137,198,1609060354625733137,-0.0270456160941,-0.0164058878301,0.0233173078593,0.000486772254471,7.19654109585e-05,0.000265185113368,0.999999843775,0.0,0.0,0.0,0.0,0.0,0.0
1609060354728861094,199,1609060354728861094,-0.0257541552658,-0.0120590299991,0.0381058075409,0.000593316021077,0.000147508857066,0.000226707307477,0.99999978741,0.0,0.0,0.0,0.0,0.0,0.0
1609060354836940527,200,1609060354836940527,-0.0289977644062,-0.0128877467388,0.0304183212212,0.00100189453087,4.43688742109e-05,0.000220891901925,0.999999472722,0.0,0.0,0.0,0.0,0.0,0.0
1609060354940124512,201,1609060354940124512,-0.0393267871781,-0.012376074469,0.0344087210111,0.000175008200966,0.000680606076563,0.000202826514759,0.999999732504,0.0,0.0,0.0,0.0,0.0,0.0
1609060355043146372,202,1609060355043146372,-0.0279060661088,-0.0119507279946,0.0374380330209,0.000345758921069,5.17456633638e-05,0.000234540699795,0.999999911382,0.0,0.0,0.0,0.0,0.0,0.0
1609060355115391970,203,1609060355115391970,-0.0184908825438,-0.0157618797169,0.0281824093274,0.000253993149389,0.000319158618635,0.000168709624886,0.999999902581,0.0,0.0,0.0,0.0,0.0,0.0
1609060355215331793,204,1609060355215331793,-0.0306648745157,-0.0130956985209,0.0117517731954,0.000619856384511,3.6453018633e-05,0.000156213423284,0.999999795023,0.0,0.0,0.0,0.0,0.0,0.0
1609060355318719625,205,1609060355318719625,-0.0203882272702,-0.014231682999,0.0120158028191,-4.87004555245e-05,0.00016102196443,-1.92726140679e-06,0.999999985848,0.0,0.0,0.0,0.0,0.0,0.0
1609060355421725035,206,1609060355421725035,-0.0292203290831,-0.00850511452974,0.036672252439,0.000854710053396,0.000255712130476,0.000285345938115,0.99999956133,0.0,0.0,0.0,0.0,0.0,0.0
1609060355525081635,207,1609060355525081635,-0.0160490120148,-0.0128138774778,0.018332391762,0.00080025363273,-0.000300981010651,0.000233829880119,0.999999607164,0.0,0.0,0.0,0.0,0.0,0.0
1609060355628371477,208,1609060355628371477,-0.0256013226766,-0.0113632166012,0.0165797301191,0.00105050875302,0.00034348331434,0.000149876517412,0.999999377993,0.0,0.0,0.0,0.0,0.0,0.0
1609060355731025934,209,1609060355731025934,-0.0255380275376,-0.0136891252278,0.00687936218017,-0.000380714879969,-0.000272418483027,0.000222104735554,0.999999865757,0.0,0.0,0.0,0.0,0.0,0.0
1609060355838479280,210,1609060355838479280,-0.0139690496185,-0.0151075507574,0.0148634857074,-0.000523710001911,0.000406270004051,0.000159361753992,0.999999767638,0.0,0.0,0.0,0.0,0.0,0.0
1609060355941397905,211,1609060355941397905,-0.0250054698361,-0.0122449355734,0.0130192466792,0.00031995240629,-0.000107562795601,2.19809099697e-05,0.999999942789,0.0,0.0,0.0,0.0,0.0,0.0
1609060356044579506,212,1609060356044579506,-0.0280095278833,-0.0155228874911,0.0213224947162,0.000308986977154,0.00019856048532,0.000210581413571,0.999999910378,0.0,0.0,0.0,0.0,0.0,0.0
1609060356115432978,213,1609060356115432978,-0.0216470247106,-0.0141780483631,0.0295043439321,0.000624429336972,-8.85453832425e-05,8.98517081492e-05,0.999999797087,0.0,0.0,0.0,0.0,0.0,0.0
1609060356216597080,214,1609060356216597080,-0.0264513668737,-0.014243662766,0.0133973022785,0.000672940716228,2.02972676803e-05,0.000166180088313,0.999999759561,0.0,0.0,0.0,0.0,0.0,0.0
1609060356325316668,215,1609060356325316668,-0.0257230459834,-0.0125209939903,0.030618891342,0.000393928015251,0.000321232415496,0.000156277913873,0.999999858604,0.0,0.0,0.0,0.0,0.0,0.0
1609060356427469254,216,1609060356427469254,-0.0305398811936,-0.0117661051806,0.0139672859852,0.000441121078076,-0.000146747485919,9.60027115045e-05,0.99999988733,0.0,0.0,0.0,0.0,0.0,0.0
1609060356531353712,217,1609060356531353712,-0.0230768913523,-0.0145408682141,0.0231167359036,-0.000226019176193,0.000362194367009,0.000171625508541,0.999999894137,0.0,0.0,0.0,0.0,0.0,0.0
1609060356634649754,218,1609060356634649754,-0.0220012867922,-0.00856482321668,0.0407336291222,0.00109798742708,-5.37924812763e-05,9.69381399648e-05,0.999999391066,0.0,0.0,0.0,0.0,0.0,0.0
1609060356737829924,219,1609060356737829924,-0.034302458796,-0.0133864797999,0.0307442144669,-7.59917702862e-06,0.000818776847856,0.000149210988059,0.999999653641,0.0,0.0,0.0,0.0,0.0,0.0
1609060356840068817,220,1609060356840068817,-0.0236449394593,-0.0131719377359,0.0248103365132,0.000389363816317,-0.00026028757015,0.000368106093567,0.999999822572,0.0,0.0,0.0,0.0,0.0,0.0
1609060356943182468,221,1609060356943182468,-0.0270070976001,-0.00998822605579,0.00892138322218,0.000911865804609,5.01148425007e-05,0.000336799562181,0.999999526277,0.0,0.0,0.0,0.0,0.0,0.0
1609060357015082121,222,1609060357015082121,-0.0206681566407,-0.012205712663,0.0178505573576,0.000228052539942,0.000316708312108,0.000186485491356,0.999999906455,0.0,0.0,0.0,0.0,0.0,0.0
1609060357115396738,223,1609060357115396738,-0.0190946392843,-0.0119179472856,0.0033334773948,-0.000433390033411,0.000133119138401,0.000243095805498,0.999999867678,0.0,0.0,0.0,0.0,0.0,0.0
1609060357218575954,224,1609060357218575954,-0.0201532647504,-0.0124176229907,0.0129962108319,0.000652584896904,0.000340756345345,0.00025802826714,0.999999695719,0.0,0.0,0.0,0.0,0.0,0.0
1609060357321093559,225,1609060357321093559,-0.025684509111,-0.0105714309361,0.0126462109838,5.32979464281e-05,0.000217297966485,0.000194070028269,0.999999956139,0.0,0.0,0.0,0.0,0.0,0.0
1609060357424275637,226,1609060357424275637,-0.0344732582168,-0.0149652815264,0.0233473893369,-7.78348297686e-05,0.000276644767129,0.000326532772789,0.999999905393,0.0,0.0,0.0,0.0,0.0,0.0
1609060357527751923,227,1609060357527751923,-0.0224504489501,-0.01479126731,0.0220271114699,-0.000348911048466,0.000635418988915,0.000178499491333,0.999999721321,0.0,0.0,0.0,0.0,0.0,0.0
1609060357630503893,228,1609060357630503893,-0.0242665194401,-0.0112708965558,0.0150889232346,0.000632978836387,-0.00043565827162,0.000126140302126,0.999999696814,0.0,0.0,0.0,0.0,0.0,0.0
1609060357733611345,229,1609060357733611345,-0.0242257795191,-0.0133309087664,0.0155530440552,0.000833986034146,1.50093515689e-05,0.000266114903291,0.999999616712,0.0,0.0,0.0,0.0,0.0,0.0
1609060357836719990,230,1609060357836719990,-0.04038356779,-0.0118996089014,0.0305570537584,0.00111808626843,-0.000269758936773,0.000171142889381,0.999999323911,0.0,0.0,0.0,0.0,0.0,0.0
1609060357939853191,231,1609060357939853191,-0.0275348774827,-0.0144721967052,0.0267519794219,4.53032979204e-05,0.000367568867892,0.000255540145555,0.99999989877,0.0,0.0,0.0,0.0,0.0,0.0
1609060358043289900,232,1609060358043289900,-0.0275390194226,-0.011282373951,0.0251219426693,0.000647842192886,8.17492771967e-05,0.00021410252519,0.999999763889,0.0,0.0,0.0,0.0,0.0,0.0
1609060358115239859,233,1609060358115239859,-0.0248276567584,-0.00932780530254,-0.0022525507242,0.000243285057702,0.000230569598761,0.00026078640423,0.99999990982,0.0,0.0,0.0,0.0,0.0,0.0
1609060358215567112,234,1609060358215567112,-0.0307072208741,-0.0164082669316,0.0137987822735,0.00102154374771,-0.000119699950683,0.00018925527927,0.999999453151,0.0,0.0,0.0,0.0,0.0,0.0
1609060358318761110,235,1609060358318761110,-0.0416766914618,-0.0137517675859,0.0150070982829,-0.00098404233938,0.000204320116674,4.35659344855e-05,0.999999494008,0.0,0.0,0.0,0.0,0.0,0.0
1609060358421721220,236,1609060358421721220,-0.0237018308913,-0.0120970973603,0.00910105699539,0.000667271998834,2.73058080084e-05,0.000189400294478,0.999999759065,0.0,0.0,0.0,0.0,0.0,0.0
1609060358524895668,237,1609060358524895668,-0.03131847336,-0.0139211150733,-0.00276592393409,-0.00030504306737,-0.000147878752729,0.000173305424216,0.999999927523,0.0,0.0,0.0,0.0,0.0,0.0
1609060358627679110,238,1609060358627679110,-0.0290318562495,-0.0125578137034,0.0164273200802,-0.000198884399246,4.68310994494e-05,7.68865146076e-05,0.99999997617,0.0,0.0,0.0,0.0,0.0,0.0
1609060358730871916,239,1609060358730871916,-0.0249471217667,-0.0109944887842,0.00495376405612,0.000870691332366,-0.000256240080763,0.000133918962429,0.999999579151,0.0,0.0,0.0,0.0,0.0,0.0
1609060358833636284,240,1609060358833636284,-0.0287558785427,-0.0131079595005,0.000397556792508,-0.0019459278406,0.000397111764021,7.3916380667e-05,0.9999980251,0.0,0.0,0.0,0.0,0.0,0.0
1609060358937503815,241,1609060358937503815,-0.0294134461827,-0.0132085816009,0.0112746623087,0.000674808271921,0.000159142298308,0.00023527642844,0.999999731976,0.0,0.0,0.0,0.0,0.0,0.0
1609060359039757967,242,1609060359039757967,-0.0217827112063,-0.0148218752394,0.0164381989086,0.000260986039925,-3.17221121945e-06,1.50403246374e-05,0.999999965825,0.0,0.0,0.0,0.0,0.0,0.0
1609060359143086672,243,1609060359143086672,-0.027929228727,-0.00972388044525,0.0234659498358,0.00148753938586,-0.000237927242732,0.000264214514179,0.999998830403,0.0,0.0,0.0,0.0,0.0,0.0
1609060359214926243,244,1609060359214926243,-0.0235924631376,-0.0137179072678,0.0177972411014,6.92009766614e-05,-2.87098933946e-05,0.00027702274035,0.999999958822,0.0,0.0,0.0,0.0,0.0,0.0
1609060359315264702,245,1609060359315264702,-0.0288041812756,-0.0151252904233,0.00287086177192,0.000188986002259,0.000177472752911,8.61406311141e-05,0.999999962683,0.0,0.0,0.0,0.0,0.0,0.0
1609060359418601274,246,1609060359418601274,-0.0286387793419,-0.011458015003,0.0199887928001,0.00129419133097,1.62067967443e-05,0.000243470271086,0.999999132764,0.0,0.0,0.0,0.0,0.0,0.0
1609060359521814585,247,1609060359521814585,-0.0323123931608,-0.0139081447771,0.00807797718593,8.06220911208e-05,-5.9339555941e-05,0.000137533122043,0.999999985531,0.0,0.0,0.0,0.0,0.0,0.0
1609060359625068188,248,1609060359625068188,-0.0278705876345,-0.0137444034718,0.014043306655,2.54900417523e-05,0.000438156330492,0.000328387889743,0.999999849765,0.0,0.0,0.0,0.0,0.0,0.0
1609060359728087187,249,1609060359728087187,-0.0255516516565,-0.0123472027153,0.037054475337,0.00051799328822,-2.69739192036e-05,0.000201066659939,0.999999845263,0.0,0.0,0.0,0.0,0.0,0.0
1609060359831117868,250,1609060359831117868,-0.0272370238434,-0.0125422364181,0.0285245174786,0.000498766081515,0.000354435036325,0.000150644420981,0.999999801457,0.0,0.0,0.0,0.0,0.0,0.0
1609060359934280396,251,1609060359934280396,-0.0336072271912,-0.0123382595348,0.0201059322888,0.000800689803356,0.000216988413224,0.000336537810171,0.999999599277,0.0,0.0,0.0,0.0,0.0,0.0
1609060360038011551,252,1609060360038011551,-0.028443035244,-0.0109931364208,0.0145988741831,0.000360858887645,0.000216510716757,7.52505492756e-05,0.99999990862,0.0,0.0,0.0,0.0,0.0,0.0
1609060360140522003,253,1609060360140522003,-0.0317095116068,-0.0103045866349,0.00753562114987,0.000100747398055,0.000112863299448,0.000166773294336,0.999999974649,0.0,0.0,0.0,0.0,0.0,0.0
1609060360243298531,254,1609060360243298531,-0.0280707960866,-0.0101760481395,0.0130182639558,0.00123958544256,-0.000349765746421,0.000311292450737,0.999999122094,0.0,0.0,0.0,0.0,0.0,0.0
1609060360315064669,255,1609060360315064669,-0.0271317439972,-0.0118755982719,0.0224457253073,0.000357472596427,0.000256609500339,7.83583529492e-05,0.999999900112,0.0,0.0,0.0,0.0,0.0,0.0
1609060360415173769,256,1609060360415173769,-0.0287969583152,-0.012620039797,0.0167130384209,0.00042566868381,-0.000156384703344,0.000288503517214,0.999999855558,0.0,0.0,0.0,0.0,0.0,0.0
1609060360518275023,257,1609060360518275023,-0.0199303890087,-0.0116291892667,0.0136606196188,0.000789821498422,-9.03570406089e-05,0.00024121343153,0.999999654916,0.0,0.0,0.0,0.0,0.0,0.0
1609060360621187210,258,1609060360621187210,-0.0268830613298,-0.0129136978349,0.0315981019942,0.000197040175347,0.000265813314732,6.49983453877e-05,0.999999943147,0.0,0.0,0.0,0.0,0.0,0.0
1609060360724548817,259,1609060360724548817,-0.015757473756,-0.0135139976861,0.0224260931254,0.0002346607441,0.000216650687927,0.000240511663571,0.999999920075,0.0,0.0,0.0,0.0,0.0,0.0
1609060360827209234,260,1609060360827209234,-0.0166804774634,-0.0114262403492,0.0341994643213,0.0004923442149,0.000309451243695,0.000161326350253,0.999999817905,0.0,0.0,0.0,0.0,0.0,0.0
1609060360930124521,261,1609060360930124521,-0.0331276712101,-0.0130556418437,0.00567247415497,-0.00017835672885,-0.000153181425954,6.61181821117e-05,0.999999970176,0.0,0.0,0.0,0.0,0.0,0.0
1609060361033068657,262,1609060361033068657,-0.0226058224012,-0.0117032542502,0.0134527024479,0.000746714521411,-4.34181402281e-05,0.000171392587993,0.999999705578,0.0,0.0,0.0,0.0,0.0,0.0
1609060361136675358,263,1609060361136675358,-0.0206010074274,-0.0140034282845,0.0284489419696,0.000852041158941,0.000433348617408,0.000203143998306,0.999999522483,0.0,0.0,0.0,0.0,0.0,0.0
1609060361240135193,264,1609060361240135193,-0.033783435732,-0.0101589067377,0.0350210466122,0.000864675504425,-2.57021021501e-06,0.000192911533228,0.999999607557,0.0,0.0,0.0,0.0,0.0,0.0
1609060361343166351,265,1609060361343166351,-0.0235179187058,-0.0137210349962,0.0158498707591,-0.00031847381814,-8.78953435777e-05,0.000306114240436,0.999999898571,0.0,0.0,0.0,0.0,0.0,0.0
1609060361415021181,266,1609060361415021181,-0.021301517249,-0.0129732996488,0.0153995233818,3.12474881121e-05,0.000451901880223,0.000209590671306,0.99999987544,0.0,0.0,0.0,0.0,0.0,0.0
1609060361515235424,267,1609060361515235424,-0.0159423046066,-0.015590126141,0.0163713258151,0.000134560528882,-0.000142790861961,0.000155721944762,0.999999968627,0.0,0.0,0.0,0.0,0.0,0.0
1609060361618448496,268,1609060361618448496,-0.0125689692411,-0.0137738341219,0.0103747670932,0.000232748091177,-6.08696611505e-05,0.000148764446188,0.999999959996,0.0,0.0,0.0,0.0,0.0,0.0
1609060361721664190,269,1609060361721664190,-0.0192530138202,-0.0125408290565,0.0230618661247,0.000765059870667,-0.000136439780827,4.26635487347e-05,0.999999697123,0.0,0.0,0.0,0.0,0.0,0.0
1609060361824350595,270,1609060361824350595,-0.0165347411484,-0.0135476006624,0.0131240887574,0.000115653241911,0.000212118549827,0.000214063244396,0.999999947903,0.0,0.0,0.0,0.0,0.0,0.0
1609060361927257299,271,1609060361927257299,-0.0170426747822,-0.0129513833097,0.0180331174722,0.000608018649165,1.16164726539e-05,0.000225260153315,0.999999789718,0.0,0.0,0.0,0.0,0.0,0.0
1609060362030679703,272,1609060362030679703,-0.0154223088553,-0.0110024182579,0.0209752809861,0.000379295173216,0.000186063786476,0.000149777564386,0.999999899541,0.0,0.0,0.0,0.0,0.0,0.0
1609060362133772850,273,1609060362133772850,-0.0163884025144,-0.0145271009088,0.0249225522218,0.000673213595939,-0.000126456386192,-3.14964797285e-05,0.9999997649,0.0,0.0,0.0,0.0,0.0,0.0
1609060362237188578,274,1609060362237188578,-0.0257487564328,-0.0122290474502,0.0239386810073,-0.000114252804873,0.000492135365063,0.00017852886379,0.999999856438,0.0,0.0,0.0,0.0,0.0,0.0
1609060362340141535,275,1609060362340141535,-0.0224645432505,-0.0107459239708,0.033534400255,0.000386268395332,0.000254573151669,8.32804938225e-05,0.999999889526,0.0,0.0,0.0,0.0,0.0,0.0
1609060362443078041,276,1609060362443078041,-0.0167103416021,-0.0165880968633,0.0254940733407,-0.000129905273423,-2.75926923743e-05,-2.57040289711e-05,0.999999990851,0.0,0.0,0.0,0.0,0.0,0.0
1609060362514982939,277,1609060362514982939,-0.0224772130661,-0.0110013423474,0.0279903818507,0.000227857187496,0.00083413888486,0.000235305873821,0.999999598462,0.0,0.0,0.0,0.0,0.0,0.0
1609060362615333796,278,1609060362615333796,-0.0200580873797,-0.0130665282095,0.0286454329377,0.000556610974379,-4.48312998669e-05,0.000120768507063,0.999999836794,0.0,0.0,0.0,0.0,0.0,0.0
1609060362718219757,279,1609060362718219757,-0.0157629438896,-0.0146881049214,0.0125071731022,-0.000201972667988,0.000149880859959,8.49303599574e-05,0.999999964764,0.0,0.0,0.0,0.0,0.0,0.0
1609060362821295023,280,1609060362821295023,-0.0326372772289,-0.0114010780143,0.0185451534685,0.00119074987156,0.000132170873236,0.000310721619998,0.999999234048,0.0,0.0,0.0,0.0,0.0,0.0
1609060362925500393,281,1609060362925500393,-0.0286705026728,-0.0136801194021,0.0336131441772,0.0015229475236,-3.89672693194e-05,0.000229846249884,0.99999881314,0.0,0.0,0.0,0.0,0.0,0.0
1609060363027829885,282,1609060363027829885,-0.0267368815895,-0.0121359126008,0.0242422222663,0.000714223523939,-0.000426974428324,0.00018678782517,0.999999636344,0.0,0.0,0.0,0.0,0.0,0.0
1609060363130582333,283,1609060363130582333,-0.0317432612433,-0.00884108683027,0.0361429745471,0.00124347105782,-2.87628917662e-05,0.000213932343056,0.999999203592,0.0,0.0,0.0,0.0,0.0,0.0
1609060363233806133,284,1609060363233806133,-0.0239317517288,-0.00995572654686,0.0249708861606,0.000567811606878,0.000436524692943,0.000232686467225,0.999999716446,0.0,0.0,0.0,0.0,0.0,0.0
1609060363337544918,285,1609060363337544918,-0.0163576888788,-0.0130009274498,0.0264457044781,0.000692239158803,-7.47626285214e-05,0.000124751766252,0.999999749826,0.0,0.0,0.0,0.0,0.0,0.0
1609060363439965963,286,1609060363439965963,-0.0189058557794,-0.0128799598703,0.0158165501052,0.000630853429375,-1.44889808557e-05,0.000308869086844,0.999999753207,0.0,0.0,0.0,0.0,0.0,0.0
1609060363543024302,287,1609060363543024302,-0.0260623811188,-0.0107855905336,0.0178968972107,0.00109999821825,-6.94712048392e-05,0.00018751480769,0.999999375007,0.0,0.0,0.0,0.0,0.0,0.0
1609060363614911318,288,1609060363614911318,-0.0215576514472,-0.0126874563117,0.0126450473532,-2.15321033923e-05,0.000161125069127,0.000234918590176,0.999999959194,0.0,0.0,0.0,0.0,0.0,0.0
1609060363715271711,289,1609060363715271711,-0.022048644414,-0.0116659083121,0.0119397083639,0.000454705577663,0.000136707860926,0.000192977555917,0.999999868656,0.0,0.0,0.0,0.0,0.0,0.0
1609060363817803860,290,1609060363817803860,-0.0114714289771,-0.0145691682526,0.00447726374169,8.50096890325e-05,9.63873600567e-05,2.42985856705e-05,0.999999991446,0.0,0.0,0.0,0.0,0.0,0.0
1609060363921384573,291,1609060363921384573,-0.0172855631648,-0.0136075572797,-0.00150554446259,0.00100257531492,4.78737087815e-05,0.000320801311148,0.999999444818,0.0,0.0,0.0,0.0,0.0,0.0
1609060364024245977,292,1609060364024245977,-0.0211829908335,-0.0161952010382,0.0111201221195,7.08181091639e-05,-7.07901108019e-05,6.30049603842e-05,0.999999993002,0.0,0.0,0.0,0.0,0.0,0.0
1609060364127458572,293,1609060364127458572,-0.0175449942125,-0.0165512026069,0.0126503601845,7.27992179551e-06,0.00014410359809,0.000183264116747,0.999999972797,0.0,0.0,0.0,0.0,0.0,0.0
1609060364230533600,294,1609060364230533600,-0.0178073904533,-0.0130642193788,0.00966311143186,-6.18879323419e-06,-0.000170716418571,7.06495053138e-05,0.999999982913,0.0,0.0,0.0,0.0,0.0,0.0
1609060364333843708,295,1609060364333843708,-0.0129932437375,-0.00962225152851,0.00322233922732,0.000251475883998,0.000598650243144,0.000245029082526,0.999999759169,0.0,0.0,0.0,0.0,0.0,0.0
1609060364436775923,296,1609060364436775923,-0.0198629171257,-0.0134464099812,-0.00546187561725,0.00041040953663,-0.000259813663473,1.23066619755e-05,0.999999881954,0.0,0.0,0.0,0.0,0.0,0.0
1609060364540126562,297,1609060364540126562,-0.011559220216,-0.0138775002489,0.0181504789987,-9.41419684769e-05,4.45025060328e-05,0.000206378702654,0.999999973282,0.0,0.0,0.0,0.0,0.0,0.0
1609060364642995358,298,1609060364642995358,-0.0308291329328,-0.0113397759282,0.00717090518153,-0.00029143431255,0.000376873086958,5.25635660691e-05,0.999999885134,0.0,0.0,0.0,0.0,0.0,0.0
1609060364715337038,299,1609060364715337038,-0.0104439384418,-0.0144150978148,-0.000259130874119,-0.00025293346372,0.000476361590541,0.000139822162586,0.999999844777,0.0,0.0,0.0,0.0,0.0,0.0
1609060364815478563,300,1609060364815478563,-0.0303550158576,-0.0136906303852,0.0110022475156,0.000306632372071,0.000166974305495,8.78381047998e-05,0.99999993519,0.0,0.0,0.0,0.0,0.0,0.0
1609060364918657303,301,1609060364918657303,-0.0296587005895,-0.0147414151255,0.00433293803361,-0.000847955936328,8.54060146083e-07,6.57183991304e-05,0.999999638325,0.0,0.0,0.0,0.0,0.0,0.0
1609060365021801710,302,1609060365021801710,-0.0230467214408,-0.0141037622203,-0.00123526884091,-2.42271793364e-05,3.69489609918e-05,-0.000136781778242,0.999999989669,0.0,0.0,0.0,0.0,0.0,0.0
1609060365124869347,303,1609060365124869347,-0.0353911280932,-0.0133775296465,0.0147161366545,-1.69370096972e-05,-2.89332282996e-05,1.26983352092e-05,0.999999999357,0.0,0.0,0.0,0.0,0.0,0.0
1609060365227753162,304,1609060365227753162,-0.0292721377224,-0.0147807220983,0.0242976797964,0.00116700306008,0.000483475321475,0.000206969369332,0.999999180759,0.0,0.0,0.0,0.0,0.0,0.0
1609060365330964327,305,1609060365330964327,-0.0348770628588,-0.0169286903061,0.00243507346285,-0.000353263187141,2.9436561885e-05,0.000104497989324,0.999999931709,0.0,0.0,0.0,0.0,0.0,0.0
1609060365434213877,306,1609060365434213877,-0.033328208192,-0.0128118773384,0.00401479222118,-0.000503481573393,0.00029786641077,0.000211993363734,0.99999980642,0.0,0.0,0.0,0.0,0.0,0.0
1609060365537036180,307,1609060365537036180,-0.0460900375721,-0.0156910737732,0.0133829560605,0.000162681110712,-0.000230231329841,1.50639496963e-05,0.99999996015,0.0,0.0,0.0,0.0,0.0,0.0
1609060365640725136,308,1609060365640725136,-0.0386945673005,-0.0144666988018,0.0348780754949,0.001082312511,0.00013634233764,0.000289626381246,0.999999363063,0.0,0.0,0.0,0.0,0.0,0.0
1609060365743959904,309,1609060365743959904,-0.0313705774616,-0.0147670861146,0.00276881230083,0.00075396270932,8.75329900292e-05,0.000368471493058,0.999999644053,0.0,0.0,0.0,0.0,0.0,0.0
1609060365815124512,310,1609060365815124512,-0.00861055111833,-0.0196428722666,-0.005336542988,0.000932707683381,-0.000231707659125,-0.000253920343369,0.999999505946,0.0,0.0,0.0,0.0,0.0,0.0
1609060365915880203,311,1609060365915880203,-0.0198361888576,-0.020452435364,0.0170367219223,-0.000438167751046,0.000688936052108,-7.79318893322e-05,0.999999663651,0.0,0.0,0.0,0.0,0.0,0.0
1609060366019198895,312,1609060366019198895,-0.0433556289785,-0.0152252690335,0.0133803151848,-0.000133380186835,0.00046981636413,0.00013329828649,0.999999871856,0.0,0.0,0.0,0.0,0.0,0.0
1609060366121746063,313,1609060366121746063,-0.0419086508163,-0.0230172084806,0.0152124492366,0.000920621643232,0.000148668678318,0.000305961005445,0.99999951837,0.0,0.0,0.0,0.0,0.0,0.0
1609060366224895239,314,1609060366224895239,-0.0314127902542,-0.0152840478912,0.0429037355771,-0.0010903098272,0.000317288126513,-9.71766972492e-05,0.999999350554,0.0,0.0,0.0,0.0,0.0,0.0
1609060366328088045,315,1609060366328088045,-0.0322674685466,-0.0161557279646,0.0134248446755,9.34128918287e-05,-0.000219121092684,8.46269968719e-05,0.999999968049,0.0,0.0,0.0,0.0,0.0,0.0
1609060366431038618,316,1609060366431038618,-0.0571274667337,-0.0198249878181,0.0188380233557,-0.000673206117446,0.000627637499509,-1.58395020933e-05,0.999999576306,0.0,0.0,0.0,0.0,0.0,0.0
1609060366534298658,317,1609060366534298658,-0.0588593231705,-0.0171507278221,0.0268145646133,-0.00067218684538,0.000659692281119,-0.000141949103727,0.99999954641,0.0,0.0,0.0,0.0,0.0,0.0
1609060366637575150,318,1609060366637575150,-0.0574280258402,-0.0193730837993,0.0329062306135,0.00200600239156,-0.000340714595755,0.000421814926341,0.999997840967,0.0,0.0,0.0,0.0,0.0,0.0
1609060366740396023,319,1609060366740396023,-0.0364724102206,-0.0176187321445,0.0153732067708,0.000172874359854,-8.08545637551e-05,-0.000325858321847,0.999999928696,0.0,0.0,0.0,0.0,0.0,0.0
1609060366843372822,320,1609060366843372822,-0.0561862590445,-0.019888932262,-0.00118756871206,0.00034477747289,-6.87181680576e-06,7.598960162e-05,0.999999937653,0.0,0.0,0.0,0.0,0.0,0.0
1609060366915112734,321,1609060366915112734,-0.0431894722134,-0.0165562519543,0.0275605534899,-0.000958568445702,-0.000230510654383,0.000212027336989,0.999999491527,0.0,0.0,0.0,0.0,0.0,0.0
1609060367015393972,322,1609060367015393972,-0.0182318766461,-0.02163450377,0.00690498362801,0.000589109645315,-3.14901184163e-05,3.17971613134e-05,0.999999825473,0.0,0.0,0.0,0.0,0.0,0.0
1609060367118438005,323,1609060367118438005,-0.0384741222669,-0.0154407372127,0.0207307628477,0.00109163411644,-5.72557217507e-05,0.000210906406789,0.999999380287,0.0,0.0,0.0,0.0,0.0,0.0
1609060367221570730,324,1609060367221570730,0.00126055790258,-0.0128719515344,0.018344628435,0.00122993925807,0.000587327904057,0.000301219069519,0.99999902578,0.0,0.0,0.0,0.0,0.0,0.0
1609060367324802876,325,1609060367324802876,-0.0306623230633,-0.0196506586674,0.00894106429884,0.00166534273575,-0.000652476668188,-3.79613390681e-05,0.999998399732,0.0,0.0,0.0,0.0,0.0,0.0
1609060367427812815,326,1609060367427812815,-0.0417072814383,-0.0190154866338,0.00684192574751,-0.000485628845263,-0.000228807124222,3.64753676475e-05,0.99999985524,0.0,0.0,0.0,0.0,0.0,0.0
1609060367530798674,327,1609060367530798674,-0.0318291178007,-0.0170882091388,0.0259080164275,2.02385018105e-05,-7.36143042519e-05,0.000244938652215,0.999999967088,0.0,0.0,0.0,0.0,0.0,0.0
1609060367634043455,328,1609060367634043455,-0.0172631322501,-0.0138106449284,0.0148832556108,0.000443946649769,-0.000333490156652,0.000462290827608,0.999999738991,0.0,0.0,0.0,0.0,0.0,0.0
1609060367737336874,329,1609060367737336874,-0.00598422790223,-0.0155930964593,0.0139113693904,0.000116041810573,-4.92455438815e-05,0.00033452238453,0.999999936101,0.0,0.0,0.0,0.0,0.0,0.0
1609060367840351343,330,1609060367840351343,0.00127197961601,-0.0227416619958,0.00364385149464,-0.00145422084139,0.000987666856827,0.000200013385115,0.999998434874,0.0,0.0,0.0,0.0,0.0,0.0
1609060367943515539,331,1609060367943515539,0.00678577777968,-0.0147152728508,0.0159538692166,0.00300957297697,-0.000344331205595,0.000189561931502,0.999995393975,0.0,0.0,0.0,0.0,0.0,0.0
1609060368015356064,332,1609060368015356064,-0.0302354903441,-0.0242495627397,0.0181705642794,3.51914248548e-05,-6.06448090885e-05,-0.000461822582287,0.999999890901,0.0,0.0,0.0,0.0,0.0,0.0
1609060368115671635,333,1609060368115671635,-0.0323541135327,-0.0373892734358,0.024563071409,-9.90910150798e-05,1.4426662708e-06,-0.00403100442268,0.999991870558,0.0,0.0,0.0,0.0,0.0,0.0
1609060368218896627,334,1609060368218896627,-0.0381568462094,-0.0325127573114,0.0239331268537,0.00108812091926,-5.34152005532e-05,-0.00744496868228,0.999971692389,0.0,0.0,0.0,0.0,0.0,0.0
1609060368322076797,335,1609060368322076797,-0.0158152334169,-0.0378040386652,0.0169172221344,0.000163476869859,-0.000544788767358,-0.0104842614624,0.999944876851,0.0,0.0,0.0,0.0,0.0,0.0
1609060368425182819,336,1609060368425182819,-0.00219347632054,-0.0239318827419,0.0258084717001,0.000709027293008,8.33017081212e-05,-0.010704680422,0.999942448422,0.0,0.0,0.0,0.0,0.0,0.0
1609060368528955221,337,1609060368528955221,-0.0313382068976,-0.027305246915,0.033047414459,0.000460439134199,-0.000262298435737,-0.0100829138865,0.999949025722,0.0,0.0,0.0,0.0,0.0,0.0
1609060368631411791,338,1609060368631411791,-0.0262374328018,-0.0336832464267,0.0351026671521,0.00205868962607,0.000450834233825,-0.00928480517747,0.999954674441,0.0,0.0,0.0,0.0,0.0,0.0
1609060368735107899,339,1609060368735107899,-0.023009617214,-0.0566436687273,0.0339955851936,0.000388050463435,-0.00100983063447,-0.0151150761412,0.999885175473,0.0,0.0,0.0,0.0,0.0,0.0
1609060368838072538,340,1609060368838072538,-0.0359063353474,-0.092536364527,0.0213230723667,-0.000598808900598,-0.000261457786,-0.0219283239736,0.999759331877,0.0,0.0,0.0,0.0,0.0,0.0
1609060368941105127,341,1609060368941105127,-0.0115996045107,-0.137302717949,0.0340985674414,0.000196209115763,-0.00016168345053,-0.028752857014,0.999586518803,0.0,0.0,0.0,0.0,0.0,0.0
1609060369044032574,342,1609060369044032574,-0.00870104607561,-0.192493094721,-0.000272896021545,0.00120340382537,-0.000652242468941,-0.0340542731887,0.999419047685,0.0,0.0,0.0,0.0,0.0,0.0
1609060369115650415,343,1609060369115650415,-0.00896717027723,-0.268485507912,-0.00602506041978,0.00283143618547,-0.000687534316742,-0.0370995267743,0.999307327791,0.0,0.0,0.0,0.0,0.0,0.0
1609060369215809822,344,1609060369215809822,-0.0154953784832,-0.373672507639,0.00861132120312,-0.00337736001639,0.000934241444276,-0.038784829326,0.999241441117,0.0,0.0,0.0,0.0,0.0,0.0
1609060369318585396,345,1609060369318585396,0.000171152932999,-0.493804235536,-0.0162739829662,0.00124061248642,0.00026516154378,-0.0398553227827,0.999204655621,0.0,0.0,0.0,0.0,0.0,0.0
1609060369421600580,346,1609060369421600580,-0.0172249176559,-0.630753108078,0.00187273346338,-4.85634762504e-05,0.000833627079742,-0.0404712442143,0.99918035464,0.0,0.0,0.0,0.0,0.0,0.0
1609060369524624586,347,1609060369524624586,-0.0390964146224,-0.781256170903,-0.007553035,0.00309395038698,-0.00096509760584,-0.0400296190307,0.999193237395,0.0,0.0,0.0,0.0,0.0,0.0
1609060369628520727,348,1609060369628520727,-0.0524005220341,-0.947523340995,0.0220823335348,0.00593199990148,-0.00115853078889,-0.0400881846431,0.999177865365,0.0,0.0,0.0,0.0,0.0,0.0
1609060369730593204,349,1609060369730593204,-0.0739617838649,-1.10589488176,0.0335067811521,0.009642479673,-0.00143183271068,-0.0399119803302,0.999155646667,0.0,0.0,0.0,0.0,0.0,0.0
1609060369833792448,350,1609060369833792448,-0.100036724731,-1.26311025738,0.0396517041571,0.0168591157814,-0.00110514805628,-0.0395706082293,0.999073929109,0.0,0.0,0.0,0.0,0.0,0.0
1609060369936947584,351,1609060369936947584,-0.130412890416,-1.41280077099,0.0387205747267,0.0265414790628,-0.00155715876671,-0.0411498009117,0.998799188541,0.0,0.0,0.0,0.0,0.0,0.0
1609060370040403366,352,1609060370040403366,-0.158423738091,-1.54732913156,0.0241418962917,0.0392309579529,-0.00294453018514,-0.0410608738829,0.998381823911,0.0,0.0,0.0,0.0,0.0,0.0
1609060370143641949,353,1609060370143641949,-0.195158474124,-1.67261927193,0.0283365759214,0.045851636246,-0.00437755586142,-0.0402590253314,0.998127083761,0.0,0.0,0.0,0.0,0.0,0.0
1609060370215131521,354,1609060370215131521,-0.260285153685,-1.7864425421,0.0392475228267,0.0400952783869,-0.00608851934332,-0.0391221716732,0.998411114855,0.0,0.0,0.0,0.0,0.0,0.0
1609060370315406084,355,1609060370315406084,-0.290909821105,-1.90921333272,0.0734734775702,0.0194064528823,-0.00100643221702,-0.0372211626995,0.999118091983,0.0,0.0,0.0,0.0,0.0,0.0
1609060370418417215,356,1609060370418417215,-0.301911635728,-2.02707523714,0.0953531350589,-0.00630784152872,0.000698227260878,-0.0352749953434,0.99935749275,0.0,0.0,0.0,0.0,0.0,0.0
1609060370521344185,357,1609060370521344185,-0.341937796897,-2.13372415129,0.116209733917,-0.00959379245132,0.00344829483171,-0.0313071858856,0.999457817279,0.0,0.0,0.0,0.0,0.0,0.0
1609060370624498844,358,1609060370624498844,-0.377348286482,-2.25329489311,0.0848750479839,-0.013232497768,0.00296543064498,-0.0273248068411,0.999534622789,0.0,0.0,0.0,0.0,0.0,0.0
1609060370727606058,359,1609060370727606058,-0.417026101508,-2.38006588849,0.085766835208,-0.0153534607033,0.00244085124642,-0.0234976373795,0.999603008462,0.0,0.0,0.0,0.0,0.0,0.0
1609060370830685139,360,1609060370830685139,-0.441003131223,-2.50340129995,0.037805055172,-0.00907089608592,0.000218266022592,-0.0215047261853,0.999727571869,0.0,0.0,0.0,0.0,0.0,0.0
1609060370934021950,361,1609060370934021950,-0.47243614237,-2.61857378822,0.0375475614555,-0.00975896682457,0.00100308315337,-0.020541726994,0.999740863345,0.0,0.0,0.0,0.0,0.0,0.0
1609060371037244558,362,1609060371037244558,-0.517525174742,-2.70677956704,0.025353424604,-0.00427574830163,-0.00370881232172,-0.0183787723888,0.999815074607,0.0,0.0,0.0,0.0,0.0,0.0
1609060371139818907,363,1609060371139818907,-0.519360272319,-2.80581105836,0.0757672620096,0.00345641075898,-0.0065128052215,-0.0195874722213,0.999780959772,0.0,0.0,0.0,0.0,0.0,0.0
1609060371243047476,364,1609060371243047476,-0.523043081709,-2.88244610512,0.0887059810137,-0.00287456144043,-0.0137859048478,-0.0163686990576,0.999766848527,0.0,0.0,0.0,0.0,0.0,0.0
1609060371314850330,365,1609060371314850330,-0.591664846745,-2.94070090174,0.0199533785418,0.00502015057405,-0.0289465644325,-0.0167720063881,0.999427633346,0.0,0.0,0.0,0.0,0.0,0.0
1609060371414961815,366,1609060371414961815,-0.590417471116,-3.01035790766,0.0373170621624,-0.000856612906356,-0.0316643848352,-0.0159296606774,0.99937124176,0.0,0.0,0.0,0.0,0.0,0.0
1609060371517986536,367,1609060371517986536,-0.636297906593,-3.06297586044,-0.00554230750399,-0.00337497322849,-0.0430410229207,-0.0152382337943,0.998951388272,0.0,0.0,0.0,0.0,0.0,0.0
1609060371621018171,368,1609060371621018171,-0.64505330075,-3.12576746385,0.0438945266688,-0.00409349988225,-0.0389999744684,-0.0170166891268,0.999085921,0.0,0.0,0.0,0.0,0.0,0.0
