%time,field.header.seq,field.header.stamp,field.pose.pose.position.x,field.pose.pose.position.y,field.pose.pose.position.z,field.pose.pose.orientation.x,field.pose.pose.orientation.y,field.pose.pose.orientation.z,field.pose.pose.orientation.w,field.twist.twist.linear.x,field.twist.twist.linear.y,field.twist.twist.linear.z,field.twist.twist.angular.x,field.twist.twist.angular.y,field.twist.twist.angular.z
1609059018272431135,51,1609059018272431135,-0.0198548498308,-8.58113588483e-05,-0.000734879661731,-0.000105316416731,-4.84096707824e-05,2.37466694286e-05,0.999999993001,0.0,0.0,0.0,0.0,0.0,0.0
1609059018367440701,52,1609059018367440701,-0.0178409818491,0.00268088617281,-0.00171948878952,-1.37381302085e-05,-0.000110012937626,1.91741362234e-05,0.99999999367,0.0,0.0,0.0,0.0,0.0,0.0
1609059018478589058,53,1609059018478589058,-0.0184777785414,-0.00326988158442,-0.00267582736156,0.000116496653445,7.88235225809e-05,0.00015824929062,0.999999977586,0.0,0.0,0.0,0.0,0.0,0.0
1609059018572626829,54,1609059018572626829,-0.0198869397026,0.00277336859129,-0.00179622388921,0.000212957381163,-0.000598772794189,8.99296492364e-05,0.999999794016,0.0,0.0,0.0,0.0,0.0,0.0
1609059018667671204,55,1609059018667671204,-0.0184840161573,-0.00487919828347,-0.00273156593471,4.72277372597e-06,0.000160095026138,6.72818448112e-05,0.99999998491,0.0,0.0,0.0,0.0,0.0,0.0
1609059018778500557,56,1609059018778500557,-0.0150848338901,-0.00348156392061,-0.00147300093707,-0.000129802100491,-0.000103166222037,0.000117034237789,0.999999979406,0.0,0.0,0.0,0.0,0.0,0.0
1609059018872721195,57,1609059018872721195,-0.00802519650491,-0.00377180336553,-0.000759078098931,-0.000144797664675,0.00016482036638,5.10026126466e-05,0.999999974633,0.0,0.0,0.0,0.0,0.0,0.0
1609059018967651606,58,1609059018967651606,-0.023964769324,0.0017358281458,-0.00148770654154,-3.40040784529e-06,0.000284050553762,0.000165318003598,0.999999945987,0.0,0.0,0.0,0.0,0.0,0.0
1609059019078708410,59,1609059019078708410,-0.0165907718014,-0.00786179362732,-0.00255043082426,2.87564589061e-05,-0.000357010669196,0.000105743517313,0.999999930267,0.0,0.0,0.0,0.0,0.0,0.0
1609059019172344685,60,1609059019172344685,-0.012877798082,-0.00602910200551,-0.00296965170414,2.93800920327e-05,-1.09901015522e-05,0.000210616538509,0.999999977328,0.0,0.0,0.0,0.0,0.0,0.0
1609059019267207861,61,1609059019267207861,-0.0179014674775,0.00401635273601,-0.0044619401865,1.95208417524e-05,-0.000248641536458,6.94290717044e-05,0.999999966488,0.0,0.0,0.0,0.0,0.0,0.0
1609059019378281355,62,1609059019378281355,-0.0216672018078,-0.00355605883881,-0.00202948894611,-1.62554806409e-05,-0.000580388483141,5.03369527209e-05,0.999999830176,0.0,0.0,0.0,0.0,0.0,0.0
1609059019472374201,63,1609059019472374201,-0.0186903406557,-0.00518425480085,-0.00105904268189,0.000110611789581,0.000181315431257,6.88277169307e-05,0.999999975076,0.0,0.0,0.0,0.0,0.0,0.0
1609059019567658663,64,1609059019567658663,-0.0166666748912,-0.00331587768887,-0.00105743508857,-0.000239384665707,-0.000197695634159,0.000140865500544,0.999999941884,0.0,0.0,0.0,0.0,0.0,0.0
1609059019678522348,65,1609059019678522348,-0.0179377430915,0.000672253466649,-0.00181525901906,9.67000068056e-05,4.0922051734e-05,2.40291181491e-05,0.999999994199,0.0,0.0,0.0,0.0,0.0,0.0
1609059019772648573,66,1609059019772648573,-0.0210090537426,0.000193792541512,-0.0019043432115,0.000156003404293,0.000272080407251,0.000171996657761,0.999999936026,0.0,0.0,0.0,0.0,0.0,0.0
1609059019867471457,67,1609059019867471457,-0.0135125624297,0.00327851073326,-0.00105500235758,-0.000154755861981,-1.56078487289e-05,0.000111397583583,0.999999981699,0.0,0.0,0.0,0.0,0.0,0.0
1609059019980206013,68,1609059019980206013,-0.0232598683603,0.00243267687874,-0.00261130005865,7.49457570851e-05,-0.00010237040967,0.000196453994205,0.999999972655,0.0,0.0,0.0,0.0,0.0,0.0
1609059020080105782,69,1609059020080105782,-0.0247825935006,-0.00500597010133,-0.00460645015365,9.57121642766e-05,-0.000570358437154,0.000160684800665,0.999999819855,0.0,0.0,0.0,0.0,0.0,0.0
1609059020183548212,70,1609059020183548212,-0.0204395228655,0.0128379478641,0.000432323882206,-0.000205910262094,8.28607375942e-05,0.000150891461819,0.999999963983,0.0,0.0,0.0,0.0,0.0,0.0
1609059020287601233,71,1609059020287601233,-0.0219062176537,0.00477365287125,-0.00210601449082,8.64382781372e-05,1.82158956461e-05,1.36527125432e-05,0.999999996005,0.0,0.0,0.0,0.0,0.0,0.0
1609059020389884949,72,1609059020389884949,-0.011461401021,-0.00031838058554,9.34403343313e-06,1.041185435e-05,-6.8614747155e-05,9.46751773498e-05,0.99999999311,0.0,0.0,0.0,0.0,0.0,0.0
1609059020492949009,73,1609059020492949009,-0.0205981333488,0.00556239680791,-0.00248447237759,-2.74485252863e-05,-9.54289534496e-05,4.65957506057e-05,0.999999993984,0.0,0.0,0.0,0.0,0.0,0.0
1609059020595948458,74,1609059020595948458,-0.020040048157,-0.000300277892215,-0.000958891276782,0.000148503451269,6.19800893258e-05,8.25510147953e-05,0.999999983645,0.0,0.0,0.0,0.0,0.0,0.0
1609059020667799473,75,1609059020667799473,-0.0161948078746,0.00597759641676,-0.00191860655026,0.00010813853832,0.000188585870541,2.95187599482e-05,0.999999975935,0.0,0.0,0.0,0.0,0.0,0.0
1609059020768152475,76,1609059020768152475,-0.0219419308784,0.0058693591912,-0.000724054125185,0.000201370806041,-2.39220624428e-05,0.000181038269571,0.999999963051,0.0,0.0,0.0,0.0,0.0,0.0
1609059020873144388,77,1609059020873144388,-0.0238358450467,0.00206651750449,-0.00284199099518,-0.000152889323241,-0.000377599406143,0.000306002266398,0.999999870203,0.0,0.0,0.0,0.0,0.0,0.0
1609059020974766493,78,1609059020974766493,-0.0268433531236,0.00619342715396,-0.00188666580554,0.000185263189927,-6.48612379262e-05,6.1217072003e-05,0.999999978862,0.0,0.0,0.0,0.0,0.0,0.0
1609059021077505827,79,1609059021077505827,-0.0116996045588,-0.0015463678153,-0.00031707007793,-0.000104119342042,0.000248932905976,0.000100206142137,0.999999958575,0.0,0.0,0.0,0.0,0.0,0.0
1609059021180338383,80,1609059021180338383,-0.0228151100067,0.00617148499071,-0.00223452158439,0.000190666852632,-0.000119848299786,3.1941592128e-05,0.999999974131,0.0,0.0,0.0,0.0,0.0,0.0
1609059021283048153,81,1609059021283048153,-0.0162707219349,0.00384406420217,-0.00249276543329,0.000185666183945,-0.000345722724225,0.000154557062773,0.999999911058,0.0,0.0,0.0,0.0,0.0,0.0
1609059021386394978,82,1609059021386394978,-0.019716656863,0.00233063075967,-0.00334171447791,0.000175452552392,-0.000361177731614,8.01728364479e-05,0.99999991617,0.0,0.0,0.0,0.0,0.0,0.0
1609059021489202261,83,1609059021489202261,-0.0220351232901,0.00171291422925,-0.00140819653019,7.42893561555e-05,-0.000354565791208,2.95447584404e-05,0.999999933946,0.0,0.0,0.0,0.0,0.0,0.0
1609059021592097282,84,1609059021592097282,-0.0247097234534,0.00337994307493,-0.00456244918876,0.00011973215011,-0.00036507359647,0.000152518992924,0.999999914562,0.0,0.0,0.0,0.0,0.0,0.0
1609059021695342302,85,1609059021695342302,-0.0186775356013,0.00329059353377,-0.00135247263293,0.000218118872173,0.000196819755325,7.64680022146e-06,0.999999956814,0.0,0.0,0.0,0.0,0.0,0.0
1609059021766953230,86,1609059021766953230,-0.0207395370859,0.00866571757103,-0.00071376920006,4.99271310058e-05,-3.32343888508e-05,5.79106306571e-05,0.999999996525,0.0,0.0,0.0,0.0,0.0,0.0
1609059021867946148,87,1609059021867946148,-0.0168679081491,0.00140437074573,-0.0012428182742,-0.000121137983083,-2.42242700853e-05,0.000142945231142,0.999999982153,0.0,0.0,0.0,0.0,0.0,0.0
1609059021970662117,88,1609059021970662117,-0.0160135047021,0.00831789681361,-0.0014616560432,-3.40496795156e-05,0.000223430224008,-7.82549156067e-05,0.999999971398,0.0,0.0,0.0,0.0,0.0,0.0
1609059022074503899,89,1609059022074503899,-0.0163767588245,-0.00224129503209,-0.00223785747503,8.52767837657e-06,3.24514008344e-05,0.000244456924189,0.999999969558,0.0,0.0,0.0,0.0,0.0,0.0
1609059022178193331,90,1609059022178193331,-0.0134184011904,0.00204530234822,-0.00371372264891,5.13235644229e-05,-0.000263598764094,7.69833933121e-05,0.999999960978,0.0,0.0,0.0,0.0,0.0,0.0
1609059022280582905,91,1609059022280582905,-0.0150186688598,-0.00102129182804,-0.000272465271842,-5.48387972768e-05,-9.80505993425e-06,9.21174308089e-05,0.999999994205,0.0,0.0,0.0,0.0,0.0,0.0
1609059022383079052,92,1609059022383079052,-0.0234409174553,0.00723136332778,-0.00163049113132,-0.000157098611631,-0.000238739775422,0.00013904971096,0.999999949494,0.0,0.0,0.0,0.0,0.0,0.0
1609059022486084938,93,1609059022486084938,-0.0241963273578,-0.00600161752505,-0.00449551082967,0.000222080126381,-7.96540132846e-05,0.000168681484371,0.999999957941,0.0,0.0,0.0,0.0,0.0,0.0
1609059022589176893,94,1609059022589176893,-0.024209891482,0.00496131780706,-0.000588329318824,0.00016342493753,-6.68612174852e-05,8.14896340979e-05,0.999999981091,0.0,0.0,0.0,0.0,0.0,0.0
1609059022692739010,95,1609059022692739010,-0.0161921100474,0.00144865670294,-0.00293882680795,1.9013286917e-05,1.67030572944e-05,0.000179103359667,0.999999983641,0.0,0.0,0.0,0.0,0.0,0.0
1609059022796793461,96,1609059022796793461,-0.0223125471761,-0.00135172522808,-0.00355877995316,0.000206060822436,-0.00016668009654,0.0001650854521,0.999999951252,0.0,0.0,0.0,0.0,0.0,0.0
1609059022867232084,97,1609059022867232084,-0.016088887188,0.00175276432626,-0.00183550013784,0.000151709621084,-3.67002728771e-05,6.2019315705e-05,0.999999985895,0.0,0.0,0.0,0.0,0.0,0.0
1609059022967660904,98,1609059022967660904,-0.0290851497488,-0.00274802371154,-0.000823521783685,-3.23259166707e-05,9.11859193502e-07,0.000129606415017,0.999999991078,0.0,0.0,0.0,0.0,0.0,0.0
1609059023070525646,99,1609059023070525646,-0.0147823469265,0.00804277128423,-0.00356037830881,8.79969948275e-05,0.000141108477112,-1.53429483854e-05,0.999999986055,0.0,0.0,0.0,0.0,0.0,0.0
1609059023173918247,100,1609059023173918247,-0.0195226149855,-0.00360586004376,-0.000575513781234,-0.000184960947869,-0.00014571777974,0.000125186056764,0.999999964442,0.0,0.0,0.0,0.0,0.0,0.0
1609059023277442932,101,1609059023277442932,-0.0194747449735,-0.00448575272238,-0.0016285588825,4.81847572186e-05,-4.8135255539e-05,7.7854613913e-05,0.99999999465,0.0,0.0,0.0,0.0,0.0,0.0
1609059023380221605,102,1609059023380221605,-0.0143031681369,0.0039248989234,-0.00285784171907,6.09499821208e-05,-2.17970842175e-05,0.000122982396258,0.999999990343,0.0,0.0,0.0,0.0,0.0,0.0
1609059023483368158,103,1609059023483368158,-0.0209226728836,0.0105711875997,-0.00192962947564,0.00013866661609,0.000131668960232,-1.05881341282e-05,0.999999981661,0.0,0.0,0.0,0.0,0.0,0.0
1609059023586247444,104,1609059023586247444,-0.0204178309352,0.00115416623126,-0.00098543201692,0.00010634862627,-0.00039072602566,5.98024983439e-05,0.999999916223,0.0,0.0,0.0,0.0,0.0,0.0
1609059023689791679,105,1609059023689791679,-0.0168426883993,0.00327833826758,-0.00156430434619,-4.38594523792e-05,0.000382095150939,0.000101397239549,0.999999920899,0.0,0.0,0.0,0.0,0.0,0.0
1609059023792383432,106,1609059023792383432,-0.0184123037323,0.000324009646564,-0.00187993204795,0.000240743586663,-0.000313584459768,0.000203200089741,0.999999901209,0.0,0.0,0.0,0.0,0.0,0.0
1609059023895503759,107,1609059023895503759,-0.0109693255245,-0.000174840697268,-0.00229519000635,-3.48878125059e-05,2.03766130197e-05,7.23088759886e-05,0.99999999657,0.0,0.0,0.0,0.0,0.0,0.0
1609059023967433929,108,1609059023967433929,-0.0223940418193,0.00411383681073,-0.00325305302638,-1.63233502105e-05,-0.000173168047866,9.80165894971e-05,0.99999998007,0.0,0.0,0.0,0.0,0.0,0.0
1609059024067342758,109,1609059024067342758,-0.0173822563054,0.00838076794925,-0.000154850407864,-2.46907239146e-05,-0.000293497937676,9.32828079885e-05,0.999999952274,0.0,0.0,0.0,0.0,0.0,0.0
1609059024172347546,110,1609059024172347546,-0.0199768943872,0.00159466439977,-0.00331658249934,9.82775286267e-05,-9.76636503078e-05,0.000178877868617,0.999999974403,0.0,0.0,0.0,0.0,0.0,0.0
1609059024273520231,111,1609059024273520231,-0.0258984788588,0.00322681931707,-0.000954382971596,-8.26974709774e-07,-9.11622633112e-05,-1.44248668672e-05,0.99999999574,0.0,0.0,0.0,0.0,0.0,0.0
1609059024378080606,112,1609059024378080606,-0.0173937870953,0.00682049602306,-0.000772803417554,9.74532191506e-05,0.000309439640026,6.66914327805e-05,0.999999945151,0.0,0.0,0.0,0.0,0.0,0.0
1609059024479892015,113,1609059024479892015,-0.0238593852019,-9.83027761687e-05,-0.00190528079442,0.000175664392103,-0.000354115974074,0.000111710568299,0.999999915632,0.0,0.0,0.0,0.0,0.0,0.0
1609059024582989216,114,1609059024582989216,-0.0208685094751,-0.000623482221092,-0.0017054540281,7.15156424567e-05,-0.000275994788466,3.72603530654e-05,0.999999958662,0.0,0.0,0.0,0.0,0.0,0.0
1609059024686078072,115,1609059024686078072,-0.0243459211616,0.0032041120487,-0.00171111820037,-8.12832025012e-05,0.000103429400484,0.000137007048614,0.999999981962,0.0,0.0,0.0,0.0,0.0,0.0
1609059024789220572,116,1609059024789220572,-0.0214199671948,0.00231834760121,-0.000809230355772,4.89015747389e-05,0.000188271500133,-2.25099329626e-05,0.999999980828,0.0,0.0,0.0,0.0,0.0,0.0
1609059024892245531,117,1609059024892245531,-0.0196075096071,-0.00151649349619,-0.00364561938895,-2.68285177518e-05,-0.000283685367368,0.000175594578328,0.999999943985,0.0,0.0,0.0,0.0,0.0,0.0
1609059024995248556,118,1609059024995248556,-0.0236294973415,-0.00545836447195,-0.00376249185269,-6.18736166218e-05,-6.987950333e-05,0.000156109920937,0.999999983459,0.0,0.0,0.0,0.0,0.0,0.0
1609059025067295790,119,1609059025067295790,-0.025351637773,0.00567228073479,-0.000535180090113,3.10939190403e-05,-3.18293446649e-05,0.00021418603185,0.999999976072,0.0,0.0,0.0,0.0,0.0,0.0
1609059025167143106,120,1609059025167143106,-0.0272325830143,0.00085270219079,-0.0027910119717,0.000277889055574,-0.000135005310752,7.51784059076e-05,0.99999994945,0.0,0.0,0.0,0.0,0.0,0.0
1609059025271132469,121,1609059025271132469,-0.021020638537,0.00902317897117,0.000174033446762,-2.71721978864e-05,0.000193363124751,7.36745634173e-05,0.999999978222,0.0,0.0,0.0,0.0,0.0,0.0
1609059025375380754,122,1609059025375380754,-0.0177307030453,0.00412906763563,-0.00169678764292,-5.85853297005e-05,0.000197283496798,7.62959116163e-05,0.999999975913,0.0,0.0,0.0,0.0,0.0,0.0
1609059025477054119,123,1609059025477054119,-0.0242059030908,0.00324374013528,-0.000997867779891,0.000246960494588,-0.000475004835516,0.000164086549886,0.999999843228,0.0,0.0,0.0,0.0,0.0,0.0
1609059025581265688,124,1609059025581265688,-0.014714515318,-0.000712948357081,-0.000304888683816,-3.89854614239e-05,0.000292239822196,0.000156939503135,0.999999944223,0.0,0.0,0.0,0.0,0.0,0.0
1609059025684482574,125,1609059025684482574,-0.0221146077273,0.00242101688495,-0.00298083879259,0.000286591560874,-0.000236514814885,2.97375387527e-05,0.999999930521,0.0,0.0,0.0,0.0,0.0,0.0
1609059025786085606,126,1609059025786085606,-0.0118572919432,6.91249031588e-05,0.00144564706759,-6.34799898496e-05,0.000254801472079,0.000161068323863,0.999999952552,0.0,0.0,0.0,0.0,0.0,0.0
1609059025889156342,127,1609059025889156342,-0.0267881051816,0.0047383987171,-0.00355677457118,0.000204370924573,-1.97131006942e-05,1.67972331537e-05,0.999999978781,0.0,0.0,0.0,0.0,0.0,0.0
1609059025992651701,128,1609059025992651701,-0.0145779606589,0.00460162950009,-0.00174068730015,-1.28340859526e-05,-0.000130201979294,2.28903390403e-05,0.999999991179,0.0,0.0,0.0,0.0,0.0,0.0
1609059026095217466,129,1609059026095217466,-0.0183854855715,-4.9382281661e-05,-0.00241857239181,0.000181362940396,-0.00032868214031,9.36323817685e-05,0.999999925154,0.0,0.0,0.0,0.0,0.0,0.0
1609059026166726112,130,1609059026166726112,-0.0154443014122,0.00256643845,-0.00312447194635,-6.10103185149e-05,-8.87267752927e-05,0.000132930664539,0.999999985367,0.0,0.0,0.0,0.0,0.0,0.0
1609059026266840458,131,1609059026266840458,-0.0209006751603,0.00575985156133,-0.00399514286795,-3.14272446857e-05,5.50979609222e-05,4.44433535187e-05,0.999999997001,0.0,0.0,0.0,0.0,0.0,0.0
1609059026370183706,132,1609059026370183706,-0.0281130654339,0.00676244241299,-0.0014460697589,7.58792422277e-05,-0.000333127912093,0.000189371894561,0.999999923703,0.0,0.0,0.0,0.0,0.0,0.0
1609059026473718405,133,1609059026473718405,-0.023403316731,-0.00287129095097,-0.0049464288186,1.72826866429e-05,0.000111952433029,0.000140995052673,0.999999983644,0.0,0.0,0.0,0.0,0.0,0.0
1609059026577076674,134,1609059026577076674,-0.0212329309098,-0.00336355969923,-0.00177028632114,5.31912065214e-05,-0.000184346171239,9.76132875873e-05,0.999999976829,0.0,0.0,0.0,0.0,0.0,0.0
1609059026679737806,135,1609059026679737806,-0.0186452295901,0.00123007000231,-0.000905340992218,0.00015829492491,-3.27168693455e-05,3.74626376337e-05,0.999999986234,0.0,0.0,0.0,0.0,0.0,0.0
1609059026783007383,136,1609059026783007383,-0.0218766598001,0.0103896294399,-0.00205994882207,0.00014662568597,0.000110161286104,8.45703190544e-05,0.999999979607,0.0,0.0,0.0,0.0,0.0,0.0
1609059026886376381,137,1609059026886376381,-0.0204752346721,0.00183378119726,-0.00214987640721,2.92836971196e-05,0.00013212469748,0.000144412600414,0.999999980415,0.0,0.0,0.0,0.0,0.0,0.0
1609059026989351034,138,1609059026989351034,-0.0183991860514,0.00246751184041,-0.00140663031736,0.000115303605358,1.20692004466e-05,9.43109497689e-05,0.999999988832,0.0,0.0,0.0,0.0,0.0,0.0
1609059027092364311,139,1609059027092364311,-0.0214308946918,0.0028652367623,-0.000570491128075,-3.18867814458e-05,-7.25490974223e-05,9.81345656259e-05,0.999999992045,0.0,0.0,0.0,0.0,0.0,0.0
1609059027196972132,140,1609059027196972132,-0.0199559520298,0.0132601291258,-0.00288357665014,4.40798158839e-05,-0.000107286852251,4.68672488468e-05,0.999999992175,0.0,0.0,0.0,0.0,0.0,0.0
1609059027267192364,141,1609059027267192364,-0.0241995227262,0.00667701702969,-0.00181333854173,-0.000117655652488,0.000122165459804,0.000135000059448,0.999999976504,0.0,0.0,0.0,0.0,0.0,0.0
1609059027367329121,142,1609059027367329121,-0.0267117271515,0.00171126349017,-0.00249117580712,0.000254914623863,-2.9398634935e-05,0.000202612619831,0.999999946551,0.0,0.0,0.0,0.0,0.0,0.0
1609059027470470428,143,1609059027470470428,-0.0232798106291,0.00309144844037,-0.00229773108448,-2.60586039214e-05,-0.000148851204125,2.46028322533e-05,0.99999998828,0.0,0.0,0.0,0.0,0.0,0.0
1609059027573250055,144,1609059027573250055,-0.0161652782769,1.6451343357e-05,-0.00302831206282,0.000106460630517,1.34937640762e-05,0.000104040807285,0.99999998883,0.0,0.0,0.0,0.0,0.0,0.0
1609059027677865744,145,1609059027677865744,-0.0210377053499,0.00633381935476,-0.000685127014553,5.079432297e-05,0.000141515215108,3.4452695937e-05,0.999999988103,0.0,0.0,0.0,0.0,0.0,0.0
1609059027779898405,146,1609059027779898405,-0.0124106850434,0.00191877418187,-0.00126245288582,2.59514433819e-06,0.000220166124802,5.386733339e-05,0.999999974309,0.0,0.0,0.0,0.0,0.0,0.0
1609059027883015871,147,1609059027883015871,-0.0220410371618,0.00555123147095,-0.00421269521816,-7.91983776261e-05,0.000171215992027,9.43224930601e-05,0.999999977758,0.0,0.0,0.0,0.0,0.0,0.0
1609059027986250162,148,1609059027986250162,-0.0254049182256,0.010930819766,-0.0022072700578,3.22191207028e-05,-0.000106551020387,3.80221954711e-05,0.999999993082,0.0,0.0,0.0,0.0,0.0,0.0
1609059028089236975,149,1609059028089236975,-0.0162302251523,0.0133395988312,0.00104789348292,0.000142939508622,-1.56010819754e-05,4.79892278266e-05,0.999999988511,0.0,0.0,0.0,0.0,0.0,0.0
1609059028192186356,150,1609059028192186356,-0.0219627700665,0.00687149708482,-0.00388835706763,-8.27764901883e-05,-0.000165126314901,7.87740448683e-05,0.999999979838,0.0,0.0,0.0,0.0,0.0,0.0
1609059028295219183,151,1609059028295219183,-0.0230520271115,-0.0019362099968,-0.00240234226134,0.000125842342324,-0.000191407829947,0.000121959046184,0.999999966326,0.0,0.0,0.0,0.0,0.0,0.0
1609059028366970062,152,1609059028366970062,-0.0184508988908,0.00235209142644,-0.0033659683292,1.95855584385e-05,0.000396301123505,5.83188663603e-05,0.99999991958,0.0,0.0,0.0,0.0,0.0,0.0
1609059028467363119,153,1609059028467363119,-0.0149868453333,0.00404438141831,-0.00287890354974,1.87870914537e-05,0.000184738246957,8.05656149049e-05,0.999999979514,0.0,0.0,0.0,0.0,0.0,0.0
1609059028570141792,154,1609059028570141792,-0.0177182057288,0.0113731140717,-0.00255304603026,8.51418123029e-05,0.000109351998926,2.42180873897e-05,0.999999990103,0.0,0.0,0.0,0.0,0.0,0.0
1609059028673265934,155,1609059028673265934,-0.02489367442,0.000232637629123,-0.000763483942108,7.02354574505e-05,-0.000266891013869,-3.14638297577e-05,0.999999961423,0.0,0.0,0.0,0.0,0.0,0.0
1609059028777006865,156,1609059028777006865,-0.0225867952681,0.00584533775406,-0.00437910119379,-1.42074662891e-05,-0.00012122221881,0.000121034961182,0.999999985227,0.0,0.0,0.0,0.0,0.0,0.0
1609059028880223989,157,1609059028880223989,-0.0218212944491,0.00963888963359,-0.00121037456681,8.53538986837e-06,-0.000153231665744,6.51437417211e-05,0.999999986102,0.0,0.0,0.0,0.0,0.0,0.0
1609059028982651949,158,1609059028982651949,-0.0273454580922,0.00575801408743,-0.00305713680956,-0.000113197666703,7.2814599088e-06,0.000125494446306,0.999999985692,0.0,0.0,0.0,0.0,0.0,0.0
1609059029085549355,159,1609059029085549355,-0.0189474963853,0.00145370905746,-0.00217884419469,-9.10095113821e-05,-0.000248691857444,0.000119861010935,0.999999957752,0.0,0.0,0.0,0.0,0.0,0.0
1609059029188636065,160,1609059029188636065,-0.0243772126334,0.0168894412839,-0.00305690468521,-2.64314957462e-05,-0.0002973298322,2.52671840563e-06,0.999999955445,0.0,0.0,0.0,0.0,0.0,0.0
1609059029291811466,161,1609059029291811466,-0.0189715052539,0.00664809432619,-0.00370291435699,0.000243623282235,-0.000209959561612,0.000103942724207,0.99999994288,0.0,0.0,0.0,0.0,0.0,0.0
1609059029394959211,162,1609059029394959211,-0.0166764282049,0.0047144718717,-0.00184915395705,-2.49583987183e-05,0.000109907762873,6.59746543064e-05,0.999999991472,0.0,0.0,0.0,0.0,0.0,0.0
1609059029466882229,163,1609059029466882229,-0.0172227715386,0.00791130411214,-0.00272077552849,-0.00010064577329,2.78387335235e-05,0.000200603644644,0.999999974427,0.0,0.0,0.0,0.0,0.0,0.0
1609059029568681717,164,1609059029568681717,-0.0215802224191,0.00295480985109,-0.00100870815014,0.000474621804944,-0.000156574773353,0.000116920206292,0.999999868274,0.0,0.0,0.0,0.0,0.0,0.0
1609059029671488047,165,1609059029671488047,-0.0233031575409,0.010446340768,-0.00160357141216,-0.00016629295793,-0.000455686070484,0.000122583551932,0.999999874835,0.0,0.0,0.0,0.0,0.0,0.0
1609059029780179501,166,1609059029780179501,-0.0294635085308,0.0107713331444,-0.00349591089142,-8.34278481834e-05,-5.10411368486e-05,9.81764752797e-05,0.999999990398,0.0,0.0,0.0,0.0,0.0,0.0
1609059029883426905,167,1609059029883426905,-0.0160571923319,0.00866794755075,-0.000165481948668,-9.51432398677e-05,0.000349814336386,0.000131731948354,0.999999925612,0.0,0.0,0.0,0.0,0.0,0.0
1609059029986491203,168,1609059029986491203,-0.0182276148101,-0.00773622047192,-0.00316279500858,0.000136071368261,-4.96095942108e-05,0.000121265262941,0.999999982159,0.0,0.0,0.0,0.0,0.0,0.0
1609059030090518951,169,1609059030090518951,-0.0167357417151,0.0016209811842,-0.00395169778611,0.000169307562999,-0.000206338504722,8.61189623154e-05,0.999999960671,0.0,0.0,0.0,0.0,0.0,0.0
1609059030192771673,170,1609059030192771673,-0.0199222812116,0.00944409438169,-0.00042900360557,1.85373794927e-05,0.000271902474163,0.000125889183984,0.999999954939,0.0,0.0,0.0,0.0,0.0,0.0
1609059030295773268,171,1609059030295773268,-0.0236477042009,0.00378472753085,-0.00257784177253,1.2832043395e-05,-9.76293723095e-05,0.000177655154877,0.999999979371,0.0,0.0,0.0,0.0,0.0,0.0
1609059030369461775,172,1609059030369461775,-0.025716902628,0.00404913614184,-0.00207460411476,-5.07566858653e-05,0.000247337692517,0.000186099105926,0.999999950807,0.0,0.0,0.0,0.0,0.0,0.0
1609059030472465515,173,1609059030472465515,-0.0180225055376,0.0110546055413,-0.00201561017398,9.74196970815e-05,-0.000236324225249,3.86643632554e-05,0.999999966583,0.0,0.0,0.0,0.0,0.0,0.0
1609059030575567722,174,1609059030575567722,-0.0239190813548,0.0026764669813,-0.00089502987484,-0.000141852204592,-1.57370352668e-05,0.000121349309242,0.999999982452,0.0,0.0,0.0,0.0,0.0,0.0
1609059030679651260,175,1609059030679651260,-0.019782458742,0.00902814753578,-0.00432563160563,3.73589024942e-05,-0.000204933787431,2.75338975355e-05,0.999999977924,0.0,0.0,0.0,0.0,0.0,0.0
1609059030781719685,176,1609059030781719685,-0.0187852753801,0.00103710158229,-0.00169355962362,-2.47813958571e-05,1.83607573917e-06,0.000183046269471,0.999999982938,0.0,0.0,0.0,0.0,0.0,0.0
1609059030884956121,177,1609059030884956121,-0.0248140628346,0.00682758614431,-0.00289999399956,-4.74025778473e-05,-0.00016523796018,0.000114089769358,0.999999978716,0.0,0.0,0.0,0.0,0.0,0.0
1609059030988535404,178,1609059030988535404,-0.0192023580746,0.00205184552673,-0.00241818746648,5.11478193157e-05,9.30009727142e-05,0.000103899295677,0.99999998897,0.0,0.0,0.0,0.0,0.0,0.0
1609059031090541601,179,1609059031090541601,-0.0262849392134,0.00513585600003,-0.00210444910699,-0.000153591506779,0.000110068714384,0.000147228295363,0.999999971309,0.0,0.0,0.0,0.0,0.0,0.0
1609059031193632126,180,1609059031193632126,-0.0161350586943,0.0101219243439,-0.000595560843131,0.000181683730456,0.00020889116915,7.03937992491e-05,0.9999999592,0.0,0.0,0.0,0.0,0.0,0.0
1609059031297037363,181,1609059031297037363,-0.0147953520483,0.00296826610886,-0.00179990026344,7.31777761489e-05,-0.000128091703897,0.000183041823379,0.999999972367,0.0,0.0,0.0,0.0,0.0,0.0
1609059031367552519,182,1609059031367552519,-0.0276176815446,0.00993831192312,-0.0032463168986,0.000217750841256,-0.000193073038321,0.000187717072886,0.999999940035,0.0,0.0,0.0,0.0,0.0,0.0
1609059031468872786,183,1609059031468872786,-0.0193729454097,0.00220373102428,-0.00113808796416,-6.73246875698e-05,-3.39618583699e-05,0.000225262312572,0.999999971785,0.0,0.0,0.0,0.0,0.0,0.0
1609059031573636293,184,1609059031573636293,-0.0252443288542,0.00636364821637,-0.00348178359758,0.000107260966624,-0.000195246720466,0.000149556931194,0.999999964003,0.0,0.0,0.0,0.0,0.0,0.0
1609059031675127029,185,1609059031675127029,-0.0114519524488,0.00512091710125,0.00164784718748,-0.000218202395728,0.000143782184408,4.70760061323e-05,0.999999964749,0.0,0.0,0.0,0.0,0.0,0.0
1609059031779003382,186,1609059031779003382,-0.0308253899276,0.00812092786609,-0.00514214742168,-2.18420444143e-05,-0.000353064463918,0.000134476664561,0.999999928392,0.0,0.0,0.0,0.0,0.0,0.0
1609059031881477833,187,1609059031881477833,-0.0205328002613,0.00531450130036,-0.00253302040622,5.37321559026e-05,-0.000296412331724,6.50925897949e-05,0.999999952508,0.0,0.0,0.0,0.0,0.0,0.0
1609059031984583378,188,1609059031984583378,-0.0222302502532,0.00779851751628,-0.00351365047075,0.0001492686725,-3.95079923581e-05,0.000111240892793,0.999999981892,0.0,0.0,0.0,0.0,0.0,0.0
1609059032089373827,189,1609059032089373827,-0.023527332663,0.00653420484458,-0.00307617251102,0.000144697557503,9.66755622327e-06,8.03921672266e-05,0.999999986253,0.0,0.0,0.0,0.0,0.0,0.0
1609059032190745115,190,1609059032190745115,-0.0275029897291,-0.000428881335742,-0.00292574675787,0.000190327267119,4.83673276486e-06,0.000176976064746,0.999999966216,0.0,0.0,0.0,0.0,0.0,0.0
1609059032295058012,191,1609059032295058012,-0.0164850942793,0.00619268339065,-0.000691214178055,-0.000231820126229,0.000308483521495,-2.29330832138e-06,0.999999925546,0.0,0.0,0.0,0.0,0.0,0.0
1609059032397250414,192,1609059032397250414,-0.0213076200985,0.0125456098924,-0.00200677662513,-3.83926658208e-05,7.37530444342e-05,6.23794581895e-05,0.999999994598,0.0,0.0,0.0,0.0,0.0,0.0
1609059032467259407,193,1609059032467259407,-0.0270374932643,0.00917383761249,-0.000978892419623,-4.0504015618e-05,-0.000151063872355,0.000136612573974,0.999999978438,0.0,0.0,0.0,0.0,0.0,0.0
1609059032568936825,194,1609059032568936825,-0.0261012297715,0.0142733803728,-0.00308313836313,5.68879728491e-06,-0.000160403933181,9.90543838911e-05,0.999999982213,0.0,0.0,0.0,0.0,0.0,0.0
1609059032672092676,195,1609059032672092676,-0.0220691807359,0.00524507897598,-0.00386157651318,-6.91729213998e-05,0.000225142379935,0.000143355303347,0.999999961988,0.0,0.0,0.0,0.0,0.0,0.0
1609059032775384665,196,1609059032775384665,-0.0242965556052,0.00763444495182,-0.00160279199756,-2.40509785611e-05,0.000199191276808,0.000113864446962,0.99999997339,0.0,0.0,0.0,0.0,0.0,0.0
1609059032879106998,197,1609059032879106998,-0.0189672648278,0.00480308723337,-0.00110904718129,-7.44413039189e-05,0.000114739512292,8.23786595001e-05,0.999999987254,0.0,0.0,0.0,0.0,0.0,0.0
1609059032981785774,198,1609059032981785774,-0.0236796036054,1.40485014548e-05,-0.00265975485021,0.000311761057834,-0.000107505310082,0.000191714624729,0.999999927247,0.0,0.0,0.0,0.0,0.0,0.0
1609059033084571838,199,1609059033084571838,-0.0207046855025,0.00143982510429,0.000228565425333,-0.000347283939239,0.000233786260238,0.000118723118626,0.999999905321,0.0,0.0,0.0,0.0,0.0,0.0
1609059033187373400,200,1609059033187373400,-0.0240637576028,0.00504093585463,-0.00362788621818,0.000283966701817,-0.00024423840704,4.81339734497e-05,0.999999928697,0.0,0.0,0.0,0.0,0.0,0.0
1609059033290332317,201,1609059033290332317,-0.0227406491489,0.00697077711881,-0.00310269912941,2.56572266982e-05,-0.000159628218182,0.000141546153423,0.999999976913,0.0,0.0,0.0,0.0,0.0,0.0
1609059033393647909,202,1609059033393647909,-0.0240361833806,0.00680029152202,-0.000381599225742,-0.000124389346211,0.000233871007928,0.000190486806328,0.999999946773,0.0,0.0,0.0,0.0,0.0,0.0
1609059033496685743,203,1609059033496685743,-0.0217557460002,0.00049395800027,-0.00261584158736,7.91923777236e-05,-0.000232322417167,0.000170146815177,0.999999955402,0.0,0.0,0.0,0.0,0.0,0.0
1609059033566900969,204,1609059033566900969,-0.0217240713178,0.00943634562733,-0.00133146520672,0.00010774983766,-0.000130781627429,0.000148156169461,0.999999974668,0.0,0.0,0.0,0.0,0.0,0.0
1609059033668631315,205,1609059033668631315,-0.0169598259272,6.93829765494e-05,-0.00165773830813,8.49858917545e-05,1.16332253505e-05,0.000113471793836,0.999999989883,0.0,0.0,0.0,0.0,0.0,0.0
1609059033771908998,206,1609059033771908998,-0.0181696732824,0.00237770091516,-0.00192990835888,0.000120565257029,8.79302689078e-05,7.89904237331e-05,0.999999985746,0.0,0.0,0.0,0.0,0.0,0.0
1609059033875321150,207,1609059033875321150,-0.026676601561,0.00762863529401,-0.00430020454585,0.000103480552311,-0.000251227420045,0.00013842049663,0.999999953508,0.0,0.0,0.0,0.0,0.0,0.0
1609059033978591442,208,1609059033978591442,-0.0124330531883,0.00535577942178,-0.00209822383607,-9.21582813617e-05,2.57025351549e-05,0.000116243591097,0.999999988667,0.0,0.0,0.0,0.0,0.0,0.0
1609059034081394911,209,1609059034081394911,-0.0285841301632,0.00386841014553,-0.0032279749394,0.000126522170656,-0.000208781395585,0.000237944343664,0.999999941892,0.0,0.0,0.0,0.0,0.0,0.0
1609059034184546232,210,1609059034184546232,-0.0225840229035,0.00702710495916,-0.000681920518092,-9.96168153425e-05,0.000135533240793,8.8030030607e-05,0.999999981979,0.0,0.0,0.0,0.0,0.0,0.0
1609059034287946463,211,1609059034287946463,-0.01939398133,0.00740406328827,-0.00136036956611,-9.43353331298e-05,-0.000189974644274,-1.79395389162e-05,0.999999977344,0.0,0.0,0.0,0.0,0.0,0.0
1609059034390798807,212,1609059034390798807,-0.0264019300971,0.00463338723333,-0.00145345119232,-4.98411580803e-06,4.82251054675e-05,0.000116194339292,0.999999992074,0.0,0.0,0.0,0.0,0.0,0.0
1609059034493906498,213,1609059034493906498,-0.0244604819159,0.00733672625552,-0.0028208663929,6.72723131919e-05,1.7094208688e-05,0.000110791608701,0.999999991454,0.0,0.0,0.0,0.0,0.0,0.0
1609059034597388029,214,1609059034597388029,-0.017112739573,0.00879128507138,-0.00299083965259,6.85079446803e-05,-0.000200640960914,0.000163572998573,0.999999964147,0.0,0.0,0.0,0.0,0.0,0.0
1609059034668192387,215,1609059034668192387,-0.0251495957996,0.0110894704317,-0.00180180292385,-8.25586782561e-05,0.000133092227348,0.000161128175418,0.999999974754,0.0,0.0,0.0,0.0,0.0,0.0
1609059034768651247,216,1609059034768651247,-0.0231469268601,0.00686144061364,-0.00264017951409,8.89576818131e-05,-1.87981087201e-05,9.50513780979e-05,0.999999991349,0.0,0.0,0.0,0.0,0.0,0.0
1609059034871648788,217,1609059034871648788,-0.0215610136065,0.0103888480139,-0.00164300580842,0.000111056645374,1.17034980048e-05,0.000104164194817,0.99999998834,0.0,0.0,0.0,0.0,0.0,0.0
1609059034974968672,218,1609059034974968672,-0.0219418127947,0.0114369778149,-0.00216226133747,-1.1080150803e-05,0.000176249933177,0.000191032301778,0.99999996616,0.0,0.0,0.0,0.0,0.0,0.0
1609059035078006029,219,1609059035078006029,-0.0182139733741,0.00416508858122,-0.0023058766691,0.000274118591646,-0.000108091013211,0.000279123971125,0.999999917633,0.0,0.0,0.0,0.0,0.0,0.0
1609059035181508541,220,1609059035181508541,-0.013604853843,0.00281948266109,-0.00309385421718,0.000258586595287,-0.000104787372881,0.000125129399456,0.999999953248,0.0,0.0,0.0,0.0,0.0,0.0
1609059035284885645,221,1609059035284885645,-0.024545948066,0.00991949698211,-0.00301481690341,3.22446261295e-05,-0.000197812329027,0.000101133800392,0.999999974801,0.0,0.0,0.0,0.0,0.0,0.0
1609059035387870073,222,1609059035387870073,-0.0294606450785,0.00668213872651,-0.0023461032035,6.35086654961e-05,5.54924725669e-05,0.000244319565007,0.999999966598,0.0,0.0,0.0,0.0,0.0,0.0
1609059035490463734,223,1609059035490463734,-0.0157757193032,0.00453395547688,-0.0015354467718,2.31468647718e-05,0.000195394059786,0.000114876993896,0.999999974044,0.0,0.0,0.0,0.0,0.0,0.0
1609059035593838453,224,1609059035593838453,-0.017830362587,0.0127308012178,-0.00160373747528,-0.000298412689975,0.000268432426197,0.000104803829945,0.999999913955,0.0,0.0,0.0,0.0,0.0,0.0
1609059035697205782,225,1609059035697205782,-0.0180226020929,0.00209385012514,-0.0037071481458,-1.54561113174e-05,-7.7501795374e-05,0.000124338024856,0.999999989147,0.0,0.0,0.0,0.0,0.0,0.0
1609059035767210960,226,1609059035767210960,-0.0246901313673,0.0107000435079,-0.004208616048,0.000122740666211,0.000275686927491,9.758379598e-05,0.999999949704,0.0,0.0,0.0,0.0,0.0,0.0
1609059035869139671,227,1609059035869139671,-0.0235477008972,0.0102419089966,-0.00118345940754,-2.81203796628e-05,-0.000166748246084,0.000173365493056,0.999999970674,0.0,0.0,0.0,0.0,0.0,0.0
1609059035972873211,228,1609059035972873211,-0.0238694385448,0.0121131805936,-0.00345192146897,6.07499438871e-05,-0.000220040083022,0.000143885298256,0.999999963594,0.0,0.0,0.0,0.0,0.0,0.0
1609059036075500011,229,1609059036075500011,-0.0259220690689,0.0145615248591,-0.00301559082522,-5.66776641058e-05,0.000301257493693,0.000150001223106,0.999999941766,0.0,0.0,0.0,0.0,0.0,0.0
1609059036178774118,230,1609059036178774118,-0.0265055926815,0.00876321817247,-0.00104450329504,-1.1234160253e-05,-0.000238027267256,0.000126743009491,0.999999963577,0.0,0.0,0.0,0.0,0.0,0.0
1609059036281961918,231,1609059036281961918,-0.0262772282666,0.0122470473655,-0.00414871462214,1.29895123606e-05,0.000177509869611,0.000125645923824,0.999999976267,0.0,0.0,0.0,0.0,0.0,0.0
1609059036384078264,232,1609059036384078264,-0.0227493737817,0.000822853882644,-0.00211574371279,0.00010410555743,-0.000200666945855,0.000222378510284,0.999999949721,0.0,0.0,0.0,0.0,0.0,0.0
1609059036488783598,233,1609059036488783598,-0.0225595291591,0.00905458792448,-0.00280557613583,-4.87513570791e-05,-5.12306171771e-05,6.6658963939e-05,0.999999995278,0.0,0.0,0.0,0.0,0.0,0.0
1609059036591870546,234,1609059036591870546,-0.0148496750846,-0.000102907918765,-0.0026438273607,5.27919265378e-05,6.57780658028e-05,0.000176049605487,0.999999980946,0.0,0.0,0.0,0.0,0.0,0.0
1609059036694231033,235,1609059036694231033,-0.021524574204,0.00630607022122,-0.00331167897562,6.11294288936e-05,0.000240713045926,0.000174293462141,0.999999953971,0.0,0.0,0.0,0.0,0.0,0.0
1609059036796529055,236,1609059036796529055,-0.0210030945082,0.00985836029763,-0.00193604493412,2.49552398601e-05,-0.000241797371137,0.000148628341686,0.99999995941,0.0,0.0,0.0,0.0,0.0,0.0
1609059036867114305,237,1609059036867114305,-0.0220309845804,0.00942460403102,-0.00327038391763,-4.07521156266e-05,0.000303099582524,0.000208976409993,0.999999931399,0.0,0.0,0.0,0.0,0.0,0.0
1609059036968831539,238,1609059036968831539,-0.0191971934114,0.0107517396203,-0.000957094401883,8.81277343556e-05,-2.43884208843e-06,0.000100080144,0.999999991106,0.0,0.0,0.0,0.0,0.0,0.0
1609059037072415829,239,1609059037072415829,-0.0212001412818,0.00305277678771,-0.0042383568874,0.000175932392699,-0.000182722627323,0.000142994289217,0.999999957606,0.0,0.0,0.0,0.0,0.0,0.0
1609059037174883366,240,1609059037174883366,-0.0269909676968,0.00566198407972,-0.00298162855638,7.90960410219e-05,-0.000229728514723,0.00021888300688,0.999999946529,0.0,0.0,0.0,0.0,0.0,0.0
1609059037278379917,241,1609059037278379917,-0.0209464842626,0.010309393792,-0.00362557681679,0.000155568400376,9.88022763867e-05,0.000158652170007,0.999999970433,0.0,0.0,0.0,0.0,0.0,0.0
1609059037383863688,242,1609059037383863688,-0.0228020136066,0.0047767444081,-0.00279326863308,-8.89551421179e-05,-0.000157489866869,0.000127820017264,0.999999975473,0.0,0.0,0.0,0.0,0.0,0.0
1609059037484624147,243,1609059037484624147,-0.0162841117005,0.0116229182244,-0.000538169612448,2.34056134184e-06,1.11833043733e-05,0.000154395841644,0.999999988016,0.0,0.0,0.0,0.0,0.0,0.0
1609059037587566853,244,1609059037587566853,-0.0250203702474,0.00608891283868,-0.00234690296587,0.00010850626145,-0.000213990028627,0.000190580506727,0.999999953057,0.0,0.0,0.0,0.0,0.0,0.0
1609059037691877365,245,1609059037691877365,-0.0240097560397,0.00532199926646,-0.00231826817716,4.31499949275e-05,-4.31201864246e-05,0.000176229967547,0.999999982611,0.0,0.0,0.0,0.0,0.0,0.0
1609059037793764114,246,1609059037793764114,-0.0193837363935,0.00584213969968,-0.00233800129584,-1.01057948506e-05,6.65776698518e-05,0.000232241674663,0.999999970765,0.0,0.0,0.0,0.0,0.0,0.0
1609059037897848606,247,1609059037897848606,-0.0162594107792,0.00818293933039,-0.00108148725314,-9.40207824791e-05,6.26574617401e-06,0.000307135678196,0.999999948394,0.0,0.0,0.0,0.0,0.0,0.0
1609059037967562914,248,1609059037967562914,-0.0171382590473,0.00935861552378,-0.00210348760016,5.90567812937e-05,-5.88715130876e-05,0.000126113290623,0.999999988571,0.0,0.0,0.0,0.0,0.0,0.0
1609059038069661379,249,1609059038069661379,-0.0199334844424,0.0115395241598,-0.00150345150615,0.000134222482369,8.49021787203e-05,1.96017181562e-05,0.999999987196,0.0,0.0,0.0,0.0,0.0,0.0
1609059038173689127,250,1609059038173689127,-0.025602451253,0.00734977813598,-0.00459795613706,-5.44344226408e-05,-1.70530347956e-05,4.27038361809e-05,0.999999997461,0.0,0.0,0.0,0.0,0.0,0.0
1609059038275166035,251,1609059038275166035,-0.0226189835904,0.0101567610553,-0.000747712612317,-1.48281221545e-05,3.92067073395e-05,0.000209452385155,0.999999977186,0.0,0.0,0.0,0.0,0.0,0.0
1609059038378317356,252,1609059038378317356,-0.0238576458573,0.0106597805198,-0.00377974426045,-0.000158506246337,0.00017705551482,0.000137390522481,0.999999962325,0.0,0.0,0.0,0.0,0.0,0.0
1609059038482088566,253,1609059038482088566,-0.019816088932,0.00454258479752,-0.00240219250301,-5.24973209334e-05,-0.000113770185949,9.92883069381e-05,0.999999987221,0.0,0.0,0.0,0.0,0.0,0.0
1609059038584953547,254,1609059038584953547,-0.0152694575613,0.00544589759127,-0.00061401631491,0.000101476347034,0.000377699774587,0.000164556958404,0.999999909983,0.0,0.0,0.0,0.0,0.0,0.0
1609059038687957525,255,1609059038687957525,-0.0303618298536,0.00535926976833,-0.0023768854944,5.09734553765e-05,-0.000240628350477,6.48010716599e-05,0.99999996765,0.0,0.0,0.0,0.0,0.0,0.0
1609059038790471792,256,1609059038790471792,-0.0206995194665,-0.000823097848904,-0.00333914584002,0.000156843921287,-0.00011591414609,0.000191896233703,0.99999996257,0.0,0.0,0.0,0.0,0.0,0.0
1609059038894347906,257,1609059038894347906,-0.0299172374065,0.00908617654496,-0.00226903152065,4.85004601927e-05,-1.16336841793e-05,0.000172289212055,0.999999983914,0.0,0.0,0.0,0.0,0.0,0.0
1609059038996345282,258,1609059038996345282,-0.0262440760235,0.00526745802241,-0.00363805402581,-2.1710464763e-05,-0.000352460796986,0.000150270073363,0.999999926359,0.0,0.0,0.0,0.0,0.0,0.0
1609059039066996574,259,1609059039066996574,-0.020400931477,0.007247689339,-0.00166772722752,8.23927788786e-05,8.53963384805e-06,0.000270787012855,0.999999959906,0.0,0.0,0.0,0.0,0.0,0.0
1609059039168853045,260,1609059039168853045,-0.0186134772375,0.00527806144912,-0.00150372554691,0.00010151759218,0.000104125295636,0.000104000670999,0.999999984018,0.0,0.0,0.0,0.0,0.0,0.0
1609059039272571325,261,1609059039272571325,-0.0199889723959,0.0039518922946,-0.00263941149984,0.000115695062071,-0.000225529585882,0.000186569494127,0.999999950471,0.0,0.0,0.0,0.0,0.0,0.0
1609059039376215935,262,1609059039376215935,-0.0200903837324,0.00997572718169,-0.00103554398169,0.000120656714664,0.000285647855108,7.2663844258e-05,0.999999949284,0.0,0.0,0.0,0.0,0.0,0.0
1609059039480799198,263,1609059039480799198,-0.0165431299085,0.0102148630317,0.000172311993681,0.000120253942048,0.000216320546364,0.00012834945634,0.999999961135,0.0,0.0,0.0,0.0,0.0,0.0
1609059039567144871,264,1609059039567144871,-0.0246816628125,0.0151258240321,-0.00315294887225,-0.0001990714716,-0.000510375550065,0.000177906246575,0.999999834118,0.0,0.0,0.0,0.0,0.0,0.0
1609059039668750525,265,1609059039668750525,-0.0196621720191,0.00889621619431,-0.000325977488867,6.82441105205e-05,0.000319095216959,0.000159700567028,0.999999934008,0.0,0.0,0.0,0.0,0.0,0.0
1609059039771687508,266,1609059039771687508,-0.0201024712309,0.0114749667271,-0.00219821489713,-0.000191086769855,0.000137582770169,0.000264290981763,0.999999937354,0.0,0.0,0.0,0.0,0.0,0.0
1609059039875123739,267,1609059039875123739,-0.0175235258543,0.00816051585173,-0.00192342441684,-6.04296721313e-05,0.000149449329487,4.40718216241e-05,0.999999986035,0.0,0.0,0.0,0.0,0.0,0.0
1609059039978095055,268,1609059039978095055,-0.0204794342228,0.0145896873451,-0.00193307548613,-4.74670200078e-06,-0.000172059138493,8.4889424453e-05,0.999999981583,0.0,0.0,0.0,0.0,0.0,0.0
1609059040085588217,269,1609059040085588217,-0.0230166130372,0.0116667941343,-9.88151245916e-06,-4.38967112768e-05,6.9483612283e-06,0.000168293874884,0.999999984851,0.0,0.0,0.0,0.0,0.0,0.0
1609059040189886570,270,1609059040189886570,-0.0233672473144,0.0134783255498,-0.00140945300846,-2.48291351228e-05,-3.55292103053e-05,0.000154308742965,0.999999987155,0.0,0.0,0.0,0.0,0.0,0.0
1609059040291685343,271,1609059040291685343,-0.0203989900779,0.0158969928329,-0.00290248351934,4.54805719763e-05,-4.03616866934e-05,2.33467960635e-05,0.999999997879,0.0,0.0,0.0,0.0,0.0,0.0
1609059040394795895,272,1609059040394795895,-0.0255692139881,0.0131966666534,-0.00320992266961,-2.04450231119e-06,-6.58051718756e-05,0.000128000944568,0.999999989641,0.0,0.0,0.0,0.0,0.0,0.0
1609059040466839075,273,1609059040466839075,-0.0223635265441,0.0122837340756,-0.00155961979381,5.88542182541e-05,-0.000197117449678,0.000164989669321,0.99999996523,0.0,0.0,0.0,0.0,0.0,0.0
1609059040567986488,274,1609059040567986488,-0.0176281500691,0.0080421334642,-0.00282427399931,-2.64574671521e-05,0.000128086789471,0.000107879934069,0.999999985628,0.0,0.0,0.0,0.0,0.0,0.0
1609059040671050549,275,1609059040671050549,-0.0248988211448,0.0152831825892,-0.00249448043768,9.13654295523e-05,-0.000381010197382,0.000191803799621,0.999999904847,0.0,0.0,0.0,0.0,0.0,0.0
1609059040773321629,276,1609059040773321629,-0.0317857630722,0.0142326660489,-0.00365298003259,0.000129693962453,-0.000191385297655,0.000132049760833,0.999999964557,0.0,0.0,0.0,0.0,0.0,0.0
1609059040877532005,277,1609059040877532005,-0.0226116445639,0.00959018506411,-0.00280178700312,0.000132205066438,-0.000186813677473,9.11971754775e-05,0.999999969653,0.0,0.0,0.0,0.0,0.0,0.0
1609059040980399132,278,1609059040980399132,-0.0186478963634,0.00632034455106,-0.00165319316301,0.000137739472887,-3.81356657047e-05,0.000257475213375,0.99999995664,0.0,0.0,0.0,0.0,0.0,0.0
1609059041083065033,279,1609059041083065033,-0.0172392177585,0.00753876173158,-0.00319510547087,-0.000200637502604,-0.000200780435753,0.00012377408771,0.999999952056,0.0,0.0,0.0,0.0,0.0,0.0
1609059041186012506,280,1609059041186012506,-0.0193789813568,0.00473454590323,-0.00373505359347,0.000242664083776,-0.000233229923516,7.80220104437e-05,0.999999940315,0.0,0.0,0.0,0.0,0.0,0.0
1609059041289031029,281,1609059041289031029,-0.0224819950937,0.0148854527645,-0.00203326341544,-9.70618848775e-05,-0.000227949277214,9.45851634301e-05,0.999999964836,0.0,0.0,0.0,0.0,0.0,0.0
1609059041392050266,282,1609059041392050266,-0.0170059731269,0.00960679156207,-0.0050299939354,0.000143578244249,-0.000289202078595,0.00017330051551,0.999999932857,0.0,0.0,0.0,0.0,0.0,0.0
1609059041495124340,283,1609059041495124340,-0.0186038481813,0.00743990752258,0.00114160943154,-0.000134562507763,-8.12335686884e-05,0.000123550250666,0.999999980015,0.0,0.0,0.0,0.0,0.0,0.0
1609059041566852570,284,1609059041566852570,-0.0236985711526,0.0149123321402,-0.00345488619977,1.23523638988e-05,-7.958321898e-05,6.6871922194e-05,0.999999994521,0.0,0.0,0.0,0.0,0.0,0.0
1609059041666974545,285,1609059041666974545,-0.0237583277612,0.00709609556532,-0.0057424261368,0.000272046185288,-0.000520481383741,6.45807552074e-05,0.99999982546,0.0,0.0,0.0,0.0,0.0,0.0
1609059041770575047,286,1609059041770575047,-0.018490063823,0.00576597561257,-0.00178244821911,0.000106516706904,-7.05241452137e-05,0.000111810257125,0.999999985589,0.0,0.0,0.0,0.0,0.0,0.0
1609059041873438597,287,1609059041873438597,-0.0259392802643,0.0129128744455,-0.00450106968736,3.03862228533e-05,9.87624072178e-05,0.000156318947906,0.999999982444,0.0,0.0,0.0,0.0,0.0,0.0
1609059041976293087,288,1609059041976293087,-0.0194643500773,0.00707449864356,-0.00238061886231,-0.000167569454994,2.40911292404e-05,0.000162557625757,0.999999972458,0.0,0.0,0.0,0.0,0.0,0.0
1609059042079243898,289,1609059042079243898,-0.0282683586707,0.00549093145512,-0.00380873478061,0.000252979948734,-0.000153963616507,0.000181574497994,0.999999939663,0.0,0.0,0.0,0.0,0.0,0.0
1609059042182323933,290,1609059042182323933,-0.0192867563112,0.00381757816795,-0.000855924604047,-2.85899022799e-06,0.000231377343129,0.000163364571209,0.999999959884,0.0,0.0,0.0,0.0,0.0,0.0
1609059042285309076,291,1609059042285309076,-0.0200500785749,0.0128708184998,-0.00467536121428,0.000125894875966,-6.60951950651e-05,0.000197558041436,0.999999970376,0.0,0.0,0.0,0.0,0.0,0.0
1609059042389225721,292,1609059042389225721,-0.0183911347297,0.0119187253231,-0.00422550184673,-1.21961362972e-06,3.10754025302e-06,0.000131246130465,0.999999991382,0.0,0.0,0.0,0.0,0.0,0.0
1609059042492012739,293,1609059042492012739,-0.0217249660767,0.00881281495455,-0.000259414658667,0.000193494705526,-0.000402152344684,7.30472122393e-05,0.999999897749,0.0,0.0,0.0,0.0,0.0,0.0
1609059042594581366,294,1609059042594581366,-0.0230038465794,0.0121712690941,-0.00260482205632,-4.38881062344e-05,0.000163146678292,0.000141291389846,0.999999975747,0.0,0.0,0.0,0.0,0.0,0.0
1609059042666645527,295,1609059042666645527,-0.0223768716445,0.0123120785584,-0.0034865828556,0.000169128957271,-0.000351408465806,0.000150821240276,0.99999991258,0.0,0.0,0.0,0.0,0.0,0.0
1609059042768176794,296,1609059042768176794,-0.0165160422702,0.0130124650583,-0.00225102658149,9.01501313617e-05,0.000153600200957,0.000117372412488,0.999999977252,0.0,0.0,0.0,0.0,0.0,0.0
1609059042870127916,297,1609059042870127916,-0.0256674903172,0.0122188893074,-0.00631249397973,7.60113362009e-05,-0.000514273251804,0.000217339758534,0.999999841254,0.0,0.0,0.0,0.0,0.0,0.0
1609059042973109007,298,1609059042973109007,-0.0204530374892,0.00791982771211,-0.00116347791299,8.98308935055e-05,-2.37377222996e-05,1.31898060798e-05,0.999999995596,0.0,0.0,0.0,0.0,0.0,0.0
1609059043076388836,299,1609059043076388836,-0.022710665707,0.0152870376187,-0.00248766354551,0.000158040382938,-0.000177910494517,0.000130521863703,0.999999963168,0.0,0.0,0.0,0.0,0.0,0.0
1609059043181415081,300,1609059043181415081,-0.0202760589223,0.0141490095497,-0.00409546957865,6.13311448851e-05,-0.000161081974995,7.65284986748e-05,0.999999982217,0.0,0.0,0.0,0.0,0.0,0.0
1609059043282460928,301,1609059043282460928,-0.0263646217083,0.00976228316393,-0.00331446942501,7.10141481904e-05,-4.55305976322e-05,0.000106328372664,0.999999990789,0.0,0.0,0.0,0.0,0.0,0.0
1609059043385930061,302,1609059043385930061,-0.0170335448676,0.0104407282789,-0.00117667644939,-0.000142037433895,-8.96924556351e-05,9.1494962468e-05,0.999999981705,0.0,0.0,0.0,0.0,0.0,0.0
1609059043488548040,303,1609059043488548040,-0.0170207927519,0.0118726242712,-0.0030451626689,0.000166014113668,0.000112453583463,0.000207882515754,0.999999958289,0.0,0.0,0.0,0.0,0.0,0.0
1609059043591886044,304,1609059043591886044,-0.025525587263,0.0114428390091,-0.00212719725248,9.25604578516e-05,-0.000201234837932,0.00016283857526,0.99999996221,0.0,0.0,0.0,0.0,0.0,0.0
1609059043695200205,305,1609059043695200205,-0.0195444640102,0.0109225637164,-0.00224341083725,-1.00622553088e-05,9.22780054488e-05,0.000119781085426,0.999999988518,0.0,0.0,0.0,0.0,0.0,0.0
1609059043766734600,306,1609059043766734600,-0.025991984535,0.0126907335457,-0.00166661082679,3.13715155405e-05,0.000112430840925,8.36605189783e-05,0.999999989688,0.0,0.0,0.0,0.0,0.0,0.0
1609059043867028475,307,1609059043867028475,-0.0203568917891,0.0134548218779,-0.00237811561189,5.42653020983e-06,-0.000120024861695,0.000196031201439,0.999999973568,0.0,0.0,0.0,0.0,0.0,0.0
1609059043971364260,308,1609059043971364260,-0.0219810105758,0.00853766938963,-0.00199327709573,6.01204368034e-05,-0.000161433528006,0.000146346811351,0.999999974454,0.0,0.0,0.0,0.0,0.0,0.0
1609059044073214054,309,1609059044073214054,-0.0256518956302,0.014604627885,-0.00344132991366,-0.000131803747486,-0.000124921729618,0.000171522752899,0.999999968801,0.0,0.0,0.0,0.0,0.0,0.0
1609059044176630497,310,1609059044176630497,-0.0200624278084,0.0121303956038,-0.00378415942607,4.36211924668e-05,-0.000155715995571,0.000116037685494,0.999999980192,0.0,0.0,0.0,0.0,0.0,0.0
1609059044281150818,311,1609059044281150818,-0.0238935389343,0.0152397957601,-0.00315714557017,0.000121362128776,0.000158002402766,0.000286367642747,0.99999993915,0.0,0.0,0.0,0.0,0.0,0.0
1609059044383008003,312,1609059044383008003,-0.025700326373,0.0179135706004,-0.00220988253562,0.000221910534471,-0.000312188090522,0.000151608192609,0.999999915155,0.0,0.0,0.0,0.0,0.0,0.0
1609059044485633135,313,1609059044485633135,-0.0194235943053,0.00627786530817,-0.00233962918896,-0.000101405977856,-4.13916126242e-05,0.000262552427337,0.999999959535,0.0,0.0,0.0,0.0,0.0,0.0
1609059044588596106,314,1609059044588596106,-0.0203726203494,0.0129869689463,-0.00421595808533,9.51032687151e-05,-6.03410884467e-05,0.0001787032726,0.99999997769,0.0,0.0,0.0,0.0,0.0,0.0
1609059044691612482,315,1609059044691612482,-0.0171985442962,0.0138679211413,-0.00190700661946,4.98738209317e-05,7.26162094095e-05,0.000218529804164,0.999999972242,0.0,0.0,0.0,0.0,0.0,0.0
1609059044794835329,316,1609059044794835329,-0.019081623483,0.0180230984364,-0.00143440566454,0.000385660944688,0.000129879621659,9.37648828091e-06,0.999999917154,0.0,0.0,0.0,0.0,0.0,0.0
1609059044866739273,317,1609059044866739273,-0.0305967531059,0.0146991547479,-0.00233527881441,2.27006680794e-05,0.000344237632065,0.000247459187919,0.999999909874,0.0,0.0,0.0,0.0,0.0,0.0
1609059044966937304,318,1609059044966937304,-0.0230299365572,0.00622900002744,-0.00152515269159,9.9679966954e-05,0.000234079402429,0.00025688069245,0.999999934641,0.0,0.0,0.0,0.0,0.0,0.0
1609059045070520163,319,1609059045070520163,-0.0232920968785,0.00838787386564,-0.00238996112043,-4.5289506727e-05,-0.000273436316875,0.000206493986899,0.999999940271,0.0,0.0,0.0,0.0,0.0,0.0
1609059045173593521,320,1609059045173593521,-0.0220121419274,0.000696011537989,-0.00283226980705,0.000243139707499,0.000206107377818,0.000312688071799,0.999999900314,0.0,0.0,0.0,0.0,0.0,0.0
1609059045276827335,321,1609059045276827335,-0.0285498616885,0.0173504648154,-0.0037971759352,0.00018332114231,8.9191346566e-05,0.000121558086258,0.999999971831,0.0,0.0,0.0,0.0,0.0,0.0
1609059045379862547,322,1609059045379862547,-0.0229663674864,0.00620095319326,-0.00360055887313,3.26027925541e-05,0.000512493989635,7.36211203973e-05,0.999999865433,0.0,0.0,0.0,0.0,0.0,0.0
1609059045482702971,323,1609059045482702971,-0.0196422029306,0.00549884352548,-0.00434646358764,9.21769413493e-05,-0.000381403822125,0.000106433040913,0.999999917353,0.0,0.0,0.0,0.0,0.0,0.0
1609059045585567951,324,1609059045585567951,-0.0219836876952,0.0157486295488,-0.00353139602367,-0.000289115738141,-0.000134385723183,0.000167137022341,0.999999935209,0.0,0.0,0.0,0.0,0.0,0.0
1609059045688874722,325,1609059045688874722,-0.0259477268885,0.0173277800539,-0.00249367942957,0.000127459691906,-6.87600485191e-05,0.000245270735839,0.999999959434,0.0,0.0,0.0,0.0,0.0,0.0
1609059045792053938,326,1609059045792053938,-0.0251626097848,0.0101685332868,-0.00334506002755,7.3625084571e-05,2.50951404202e-06,7.92962798191e-05,0.999999994142,0.0,0.0,0.0,0.0,0.0,0.0
1609059045896445513,327,1609059045896445513,-0.0284430628498,0.0127627637228,-0.00359781773323,-0.000120667456298,0.0001836990854,0.000275338303761,0.999999937941,0.0,0.0,0.0,0.0,0.0,0.0
1609059045968484879,328,1609059045968484879,-0.0223463934366,0.00989820672412,-0.00293546522142,-0.000116805086759,3.68416500333e-05,0.00020624330437,0.999999971231,0.0,0.0,0.0,0.0,0.0,0.0
1609059046069432974,329,1609059046069432974,-0.0229930729242,0.00432032291902,-0.00295384799428,-0.00014665407053,-3.93147611492e-05,0.000140570852571,0.999999978593,0.0,0.0,0.0,0.0,0.0,0.0
1609059046171445370,330,1609059046171445370,-0.0179779680484,0.0205284796128,-0.00208006477544,4.77087309159e-05,-0.000141362768013,3.44951823439e-05,0.999999988275,0.0,0.0,0.0,0.0,0.0,0.0
1609059046274494171,331,1609059046274494171,-0.0247176643529,0.0159271346396,-0.00508513770799,-0.000191670838477,-0.000353826133118,6.75920523254e-05,0.99999991675,0.0,0.0,0.0,0.0,0.0,0.0
1609059046375938654,332,1609059046375938654,-0.0209138171583,0.0135530948271,-0.00269472573123,-6.38319570748e-05,0.000136780833215,0.000203083945676,0.999999967987,0.0,0.0,0.0,0.0,0.0,0.0
1609059046480397224,333,1609059046480397224,-0.0244640646618,0.00870265019229,-0.0037733771657,0.000159854519271,-0.00026659149699,8.05406568865e-05,0.999999948444,0.0,0.0,0.0,0.0,0.0,0.0
1609059046584461451,334,1609059046584461451,-0.0245918259451,0.0129053760025,-0.00358901333361,8.08384854069e-05,5.86099497355e-05,0.00015703705408,0.999999982685,0.0,0.0,0.0,0.0,0.0,0.0
1609059046686884880,335,1609059046686884880,-0.0245431674599,0.00894943820977,-0.00265924459849,-7.43606993549e-05,1.16544647229e-05,6.41738085869e-05,0.999999995108,0.0,0.0,0.0,0.0,0.0,0.0
1609059046790023804,336,1609059046790023804,-0.0170491543345,0.0113586830384,-0.00404735958242,0.000391501380506,-0.000164589706573,0.000130455662554,0.999999901309,0.0,0.0,0.0,0.0,0.0,0.0
1609059046892498493,337,1609059046892498493,-0.019616531631,0.0142072311656,-0.00192319739766,-0.000130792665905,8.32520133618e-05,0.000122135601024,0.999999980523,0.0,0.0,0.0,0.0,0.0,0.0
1609059046995127916,338,1609059046995127916,-0.0314307328803,0.0106834556909,-0.00424188313506,9.77402593024e-05,-0.000249926269133,0.000144176744933,0.999999953598,0.0,0.0,0.0,0.0,0.0,0.0
1609059047067004681,339,1609059047067004681,-0.0209973415762,0.015108747574,-0.00218714749847,3.86947140839e-05,-9.68316044637e-05,0.000294607443929,0.999999951166,0.0,0.0,0.0,0.0,0.0,0.0
1609059047167858839,340,1609059047167858839,-0.0229750673815,0.0136792051822,-0.00186274139234,-0.000212574284092,9.1691977899e-05,6.72497506586e-05,0.999999970941,0.0,0.0,0.0,0.0,0.0,0.0
1609059047271019220,341,1609059047271019220,-0.0225645269439,0.016016068022,-0.00406108783686,-0.000113864510279,5.90612218638e-05,0.000157739339577,0.999999979332,0.0,0.0,0.0,0.0,0.0,0.0
1609059047374055386,342,1609059047374055386,-0.0288617218065,0.0102441740249,-0.00383010157968,4.98578503402e-05,5.62060042415e-05,0.000211156325607,0.999999974884,0.0,0.0,0.0,0.0,0.0,0.0
1609059047477234364,343,1609059047477234364,-0.0217219881144,0.0116033503241,-0.00128667359469,3.87237988833e-05,-7.75158114127e-05,9.44768223945e-05,0.999999991783,0.0,0.0,0.0,0.0,0.0,0.0
1609059047580589533,344,1609059047580589533,-0.0197277290692,0.00738833850414,-0.00198475016688,1.65806307035e-05,-8.40732859514e-05,-5.58415293696e-05,0.999999994769,0.0,0.0,0.0,0.0,0.0,0.0
1609059047683607340,345,1609059047683607340,-0.0209188222088,0.0156128610399,-0.00472881757252,8.52886452728e-06,-9.33662660891e-05,0.000170916305121,0.999999980999,0.0,0.0,0.0,0.0,0.0,0.0
1609059047786373615,346,1609059047786373615,-0.018369849519,0.00931311577208,-0.00184475934078,-0.000243884348612,1.91239635977e-05,4.0727559034e-05,0.999999969248,0.0,0.0,0.0,0.0,0.0,0.0
1609059047889617682,347,1609059047889617682,-0.0345964965858,0.00967127481374,-0.00181761749998,1.12083459849e-05,-0.000474614917815,0.000201340502243,0.999999867038,0.0,0.0,0.0,0.0,0.0,0.0
1609059047992578030,348,1609059047992578030,-0.0203879517347,0.00668349448662,-0.00325030543806,-2.10504364551e-05,-0.000220956939521,0.000138353341644,0.999999965796,0.0,0.0,0.0,0.0,0.0,0.0
1609059048096188307,349,1609059048096188307,-0.0296245112941,0.0106793129492,-0.00222348423701,0.000121615775343,0.000155466204262,2.28149939239e-05,0.99999998026,0.0,0.0,0.0,0.0,0.0,0.0
1609059048167322397,350,1609059048167322397,-0.0194459304456,0.00181672872131,-0.00510829572267,0.000136124337863,-0.000307874253419,6.46806733535e-05,0.99999994125,0.0,0.0,0.0,0.0,0.0,0.0
1609059048267796755,351,1609059048267796755,-0.0297941137747,0.0100528923445,-0.00172247377361,8.04067306847e-05,-0.000149549508278,5.23072772827e-05,0.999999984217,0.0,0.0,0.0,0.0,0.0,0.0
1609059048370614290,352,1609059048370614290,-0.0242041950092,0.0102341214989,-0.00245874319984,-9.76959350852e-06,-5.52157377456e-05,0.000116292708504,0.999999991666,0.0,0.0,0.0,0.0,0.0,0.0
1609059048473930597,353,1609059048473930597,-0.0235171276901,0.00417755623934,-0.00478086566239,0.000158103677543,6.35825488029e-05,0.000168527958026,0.999999971279,0.0,0.0,0.0,0.0,0.0,0.0
1609059048577192068,354,1609059048577192068,-0.0229012964238,0.0147710363044,-0.00390294750506,4.41050676177e-05,-0.0003056584925,9.76345649356e-05,0.999999947547,0.0,0.0,0.0,0.0,0.0,0.0
1609059048680349827,355,1609059048680349827,-0.0179853766474,0.00912450268379,-0.00629933969436,2.71768871995e-05,0.000213054411175,7.76805963887e-06,0.999999976904,0.0,0.0,0.0,0.0,0.0,0.0
1609059048783399820,356,1609059048783399820,-0.0278676255698,0.0132472212167,-0.00187438299786,-0.00010156860469,3.52286805515e-05,0.00020874155288,0.999999972435,0.0,0.0,0.0,0.0,0.0,0.0
1609059048886304617,357,1609059048886304617,-0.0214624849911,0.000774883939189,-0.00342511444647,0.000176924623326,-0.000209637634525,0.000138171632243,0.999999952829,0.0,0.0,0.0,0.0,0.0,0.0
1609059048989261866,358,1609059048989261866,-0.0187001299245,0.0155628107389,-0.00286991051635,5.48815638274e-05,-5.09681691738e-05,0.000195313355427,0.999999978121,0.0,0.0,0.0,0.0,0.0,0.0
1609059049092590094,359,1609059049092590094,-0.0334444520119,0.0143570434373,-0.00280190916145,0.000146440543762,-0.000247579337791,0.000155061780941,0.999999946608,0.0,0.0,0.0,0.0,0.0,0.0
1609059049196131706,360,1609059049196131706,-0.0226658777639,0.00707870231244,-0.00201902295333,-0.000147995730933,0.000394564803264,0.000160577110062,0.999999898315,0.0,0.0,0.0,0.0,0.0,0.0
1609059049267572165,361,1609059049267572165,-0.0267177082141,0.0115453292038,-0.00458019210734,0.000158002978979,-5.26209819448e-05,5.27331674501e-05,0.999999984742,0.0,0.0,0.0,0.0,0.0,0.0
1609059049367838383,362,1609059049367838383,-0.0205596807714,0.00630847766787,-0.00128116703198,-4.1574612512e-05,0.000231768474298,0.000139338152679,0.99999996257,0.0,0.0,0.0,0.0,0.0,0.0
1609059049470913410,363,1609059049470913410,-0.0155334926898,0.0111880175296,-0.00356710670283,0.000196848034184,-0.000248293273436,0.000205055838078,0.999999928777,0.0,0.0,0.0,0.0,0.0,0.0
1609059049574147940,364,1609059049574147940,-0.0277807026552,0.014845603417,-0.00393505582291,6.51965824602e-05,-0.000277035085497,9.48123906787e-05,0.999999955006,0.0,0.0,0.0,0.0,0.0,0.0
1609059049677437067,365,1609059049677437067,-0.0177033252836,0.00773859381796,-0.00294225285658,-0.000220007441934,8.65798537882e-05,9.65933152922e-05,0.999999967385,0.0,0.0,0.0,0.0,0.0,0.0
