%time,field.header.seq,field.header.stamp,field.pose.pose.position.x,field.pose.pose.position.y,field.pose.pose.position.z,field.pose.pose.orientation.x,field.pose.pose.orientation.y,field.pose.pose.orientation.z,field.pose.pose.orientation.w,field.twist.twist.linear.x,field.twist.twist.linear.y,field.twist.twist.linear.z,field.twist.twist.angular.x,field.twist.twist.angular.y,field.twist.twist.angular.z
1609059018376059771,52,1609059018376059771,0.00529371311343,-0.000326111051779,0.0123284268575,0.00127011355953,0.000242742592695,0.000458347672066,0.999999058902,0.0,0.0,0.0,0.0,0.0,0.0
1609059018470155001,53,1609059018470155001,0.0137559951145,-0.00414580631413,0.0136423797544,-3.5011186357e-05,-0.000816412505614,0.000406508035349,0.999999583498,0.0,0.0,0.0,0.0,0.0,0.0
1609059018563442230,54,1609059018563442230,0.00959641862135,-0.00374873491056,0.0312592520523,0.00169672868111,-0.000183794679662,0.00040849059359,0.999998460232,0.0,0.0,0.0,0.0,0.0,0.0
1609059018675866604,55,1609059018675866604,0.0127693418248,-0.0053254273107,0.0181780351796,0.000936787742263,5.88474973982e-05,0.000567575741084,0.999999398412,0.0,0.0,0.0,0.0,0.0,0.0
1609059018769527674,56,1609059018769527674,0.0151333068787,0.000472829021821,0.0371688138365,0.000997792607088,0.000111892417309,0.000480549013804,0.999999380481,0.0,0.0,0.0,0.0,0.0,0.0
1609059018863277435,57,1609059018863277435,0.0169878171755,-0.00326043473414,0.0252020768308,0.00234754016631,-0.000527379828313,0.000556587200854,0.999996950564,0.0,0.0,0.0,0.0,0.0,0.0
1609059018976047516,58,1609059018976047516,0.00531462825761,-0.00689458173463,0.0173435424646,0.000648418122457,9.12008851877e-05,0.00075195959136,0.999999502896,0.0,0.0,0.0,0.0,0.0,0.0
1609059019069690466,59,1609059019069690466,0.00340617238522,-0.005411988859,0.0103997339047,0.00119502429759,-0.000334825118614,0.000742386873437,0.999998954335,0.0,0.0,0.0,0.0,0.0,0.0
1609059019163682938,60,1609059019163682938,0.0183827143811,-0.00103084559796,0.00450765579188,0.000527002463252,1.89920304077e-05,0.000317599818074,0.999999810519,0.0,0.0,0.0,0.0,0.0,0.0
1609059019276508808,61,1609059019276508808,0.00426734091869,-0.0070860560331,-0.000397398886023,0.000360533855917,0.000188095666764,0.000488565043298,0.99999979797,0.0,0.0,0.0,0.0,0.0,0.0
1609059019370197058,62,1609059019370197058,0.0106993885884,-0.00489026288465,0.00960797336153,0.000284512158969,0.000555343422817,0.000412879738438,0.999999720088,0.0,0.0,0.0,0.0,0.0,0.0
1609059019464544773,63,1609059019464544773,0.00513211394364,-0.00221901543278,-0.00234618464508,0.000492259042626,-0.000240680926384,0.00036385440867,0.999999783682,0.0,0.0,0.0,0.0,0.0,0.0
1609059019576227188,64,1609059019576227188,0.0307271548063,-0.00502672298707,0.00445336556373,0.000960766378275,-8.50371354647e-05,0.000291530308656,0.999999492353,0.0,0.0,0.0,0.0,0.0,0.0
1609059019669985771,65,1609059019669985771,0.0214276990045,-0.00103930261659,0.0126618039443,0.000475541660823,0.000259192466156,0.000359477440725,0.999999788728,0.0,0.0,0.0,0.0,0.0,0.0
1609059019763746738,66,1609059019763746738,0.0197591584028,-0.00378938554713,0.00211781867355,0.000601214077228,0.000470769170073,0.000341142003041,0.99999965027,0.0,0.0,0.0,0.0,0.0,0.0
1609059019876584053,67,1609059019876584053,0.00211569880877,-0.0032740659677,0.0108647527185,0.000879351064472,6.54838316973e-05,0.000375856951267,0.999999540592,0.0,0.0,0.0,0.0,0.0,0.0
1609059019970793962,68,1609059019970793962,0.0287908214126,-0.00855229659435,0.00469300297557,0.00013163684936,0.000141798497616,0.000568780928047,0.999999819527,0.0,0.0,0.0,0.0,0.0,0.0
1609059020063151598,69,1609059020063151598,0.00505754317482,-0.00306577211416,0.013595584032,0.000732487610598,-0.000105391765379,0.00040592911495,0.999999643788,0.0,0.0,0.0,0.0,0.0,0.0
1609059020175605059,70,1609059020175605059,0.0210992870409,-0.00208193869556,0.024679992248,0.00144360707271,-0.000115415628409,0.000396981142956,0.999998872541,0.0,0.0,0.0,0.0,0.0,0.0
1609059020271201611,71,1609059020271201611,0.0134772884839,-0.00585417431466,0.0177361422791,0.000549682057037,-0.000219524819668,0.000634023076145,0.999999623836,0.0,0.0,0.0,0.0,0.0,0.0
1609059020363198996,72,1609059020363198996,0.0193310849465,-0.00682832545824,0.0184447462105,0.000561690210547,-1.50159245096e-05,0.000278555672551,0.999999803343,0.0,0.0,0.0,0.0,0.0,0.0
1609059020475422144,73,1609059020475422144,0.0158736428025,-0.00624934001147,0.0183251496428,0.000912590306411,0.000133181383321,0.000455189750656,0.999999471122,0.0,0.0,0.0,0.0,0.0,0.0
1609059020568934202,74,1609059020568934202,0.0123635856766,-0.00290444540372,0.0173916129872,0.00144044536658,0.000358728122422,0.000474328891755,0.999998785721,0.0,0.0,0.0,0.0,0.0,0.0
1609059020662836313,75,1609059020662836313,0.0198090267892,-0.00274421953302,0.0149275801338,0.000493936151622,-0.000449506582727,0.000381559293424,0.999999704192,0.0,0.0,0.0,0.0,0.0,0.0
1609059020775794029,76,1609059020775794029,0.0139087150322,-0.00438553434892,-0.00380845274677,0.000265559995369,-1.96176076076e-05,0.000336986749672,0.999999907766,0.0,0.0,0.0,0.0,0.0,0.0
1609059020869131804,77,1609059020869131804,0.00318410796035,-0.00763168638379,0.0101324038976,0.00098836082651,-0.000610512259871,0.000707628736174,0.999999074839,0.0,0.0,0.0,0.0,0.0,0.0
1609059020963299513,78,1609059020963299513,0.0163013267455,-0.0039326587593,0.0148027713338,0.000715023471697,0.000356382562191,0.000405172938587,0.999999598784,0.0,0.0,0.0,0.0,0.0,0.0
1609059021075724125,79,1609059021075724125,0.0301901277279,-0.00345043541811,0.00765596477713,0.000692770150224,-0.000529349436539,0.000416549180732,0.999999533173,0.0,0.0,0.0,0.0,0.0,0.0
1609059021169265509,80,1609059021169265509,0.0162371847864,-0.00610943706456,0.00858256259249,0.000608934543978,-3.01964987257e-05,0.00043093305949,0.999999721292,0.0,0.0,0.0,0.0,0.0,0.0
1609059021263058424,81,1609059021263058424,0.0213601530787,-0.0048960480333,0.00534867508471,0.000825401061407,-0.000197989287493,0.000414047875952,0.999999554039,0.0,0.0,0.0,0.0,0.0,0.0
1609059021377330542,82,1609059021377330542,0.0213359537625,-0.00637848248062,0.00124224294895,0.000317034206466,0.000126892880241,0.000373965573936,0.999999871769,0.0,0.0,0.0,0.0,0.0,0.0
1609059021469303370,83,1609059021469303370,0.019743955877,-0.00530507749401,0.00334914401067,0.00139195976983,-0.000220620216258,0.000426891412449,0.999998915769,0.0,0.0,0.0,0.0,0.0,0.0
1609059021563233376,84,1609059021563233376,0.0211378905811,-0.00399445189295,0.0024327607204,0.000322212731428,7.91064472737e-05,0.000354773099746,0.999999882029,0.0,0.0,0.0,0.0,0.0,0.0
1609059021677363634,85,1609059021677363634,0.0232377967157,-0.00394026259063,0.0245639885985,0.00218761601805,0.000109640895016,0.000545636989,0.999997452294,0.0,0.0,0.0,0.0,0.0,0.0
1609059021770960808,86,1609059021770960808,0.00862471376061,-0.00211970983289,0.0268853682809,0.00160022558806,-0.000279713349313,0.00054666807037,0.999998531095,0.0,0.0,0.0,0.0,0.0,0.0
1609059021863767385,87,1609059021863767385,0.0262824803823,-0.00626321645583,0.0121655330334,0.000743812399673,-5.59587952898e-05,0.000454097152532,0.999999618704,0.0,0.0,0.0,0.0,0.0,0.0
1609059021976868868,88,1609059021976868868,0.00773455522872,-0.000766105512417,0.00466679295869,0.00131417597251,-0.000290098957298,0.000253121979197,0.999999062356,0.0,0.0,0.0,0.0,0.0,0.0
1609059022070006371,89,1609059022070006371,0.0143572835846,-0.00461198892159,0.0252613330917,0.001178709312,-9.6177527057e-05,0.000461431250644,0.999999194237,0.0,0.0,0.0,0.0,0.0,0.0
1609059022163687468,90,1609059022163687468,0.0250524212107,-0.00288831932033,0.0140012485617,0.0013396708082,0.000296835833277,0.000288938860919,0.999999016842,0.0,0.0,0.0,0.0,0.0,0.0
1609059022277487993,91,1609059022277487993,0.0243211189371,-0.0100089677583,0.012476287864,-0.0012524195428,-0.000411839520899,0.0006387064656,0.999998926943,0.0,0.0,0.0,0.0,0.0,0.0
1609059022369941711,92,1609059022369941711,0.0214352285708,-0.00523091176424,0.0236189851613,0.00104048232006,0.000218453746483,0.000428111598595,0.999999343197,0.0,0.0,0.0,0.0,0.0,0.0
1609059022464381933,93,1609059022464381933,0.00750982986021,0.0014565289511,0.00971890196169,0.00112752192392,5.28122994295e-05,0.000371907641799,0.999999293795,0.0,0.0,0.0,0.0,0.0,0.0
1609059022576112747,94,1609059022576112747,0.0206030236067,-0.0050535478815,0.0222057261614,0.000947409993897,0.000314269702599,0.000480924346605,0.99999938618,0.0,0.0,0.0,0.0,0.0,0.0
1609059022670164585,95,1609059022670164585,0.0166477201082,-0.00538394822543,0.00321322513962,-8.43474910112e-05,5.74411797898e-05,0.000288317538106,0.999999953229,0.0,0.0,0.0,0.0,0.0,0.0
1609059022764658689,96,1609059022764658689,0.0362295462896,-0.00758476812109,0.015540699905,0.0010736495655,1.57341323273e-05,0.000311572622733,0.999999374976,0.0,0.0,0.0,0.0,0.0,0.0
1609059022876180410,97,1609059022876180410,0.00223802862537,-0.00307964150615,0.0263960283637,0.00063860039845,0.000374010216669,0.000585760812269,0.999999554595,0.0,0.0,0.0,0.0,0.0,0.0
1609059022970010996,98,1609059022970010996,0.0171447641198,-0.00654786874654,0.0304786417968,0.000873272493755,3.86185888989e-05,0.000532103883825,0.999999476384,0.0,0.0,0.0,0.0,0.0,0.0
1609059023064255714,99,1609059023064255714,0.0226378952052,-0.00254843210285,0.00526818647891,0.000881432190575,-0.000181765479148,0.000361579567295,0.999999529649,0.0,0.0,0.0,0.0,0.0,0.0
1609059023177577496,100,1609059023177577496,0.0167332505093,-0.00395326590879,0.00371456543871,0.000504385724362,-4.76220445491e-05,0.000397867552823,0.999999792514,0.0,0.0,0.0,0.0,0.0,0.0
1609059023269390821,101,1609059023269390821,0.00713031000457,-0.00185820467469,0.0206682668622,0.00133080215589,0.000100256075444,0.000494495209338,0.999998987194,0.0,0.0,0.0,0.0,0.0,0.0
1609059023363115549,102,1609059023363115549,0.0265626209829,-0.00772410666858,0.0154582796665,0.00152206237048,-0.000273822670941,0.000457963284607,0.999998699308,0.0,0.0,0.0,0.0,0.0,0.0
1609059023476006031,103,1609059023476006031,0.0179414789066,-0.00653793314365,0.0101571653675,0.000832847828956,7.10240907045e-05,0.000513919526347,0.999999518603,0.0,0.0,0.0,0.0,0.0,0.0
1609059023569083214,104,1609059023569083214,0.0174058933525,-0.00263139183454,0.00017112745281,0.00109943567336,-6.97472436208e-05,0.000352699992796,0.999999330989,0.0,0.0,0.0,0.0,0.0,0.0
1609059023663031101,105,1609059023663031101,0.00915280006182,-0.00390705522585,0.0279194236055,0.00162724024408,-0.000163889563098,0.000494148457273,0.999998540522,0.0,0.0,0.0,0.0,0.0,0.0
1609059023775770664,106,1609059023775770664,0.0208280562239,-0.00397446587616,0.0275342675184,0.000795382555215,0.000604092849428,0.000314771277204,0.999999451678,0.0,0.0,0.0,0.0,0.0,0.0
1609059023871071577,107,1609059023871071577,0.0092136056302,-0.00266520948097,0.0339373941979,0.00118868583965,-8.61817769762e-05,0.000556914465114,0.999999134722,0.0,0.0,0.0,0.0,0.0,0.0
1609059023963778257,108,1609059023963778257,0.0239712407933,-0.003851519517,0.0206843708022,0.00158150705545,-0.000372202779767,0.000607758718064,0.999998495464,0.0,0.0,0.0,0.0,0.0,0.0
1609059024077281952,109,1609059024077281952,0.0195577004714,-0.00428337108849,0.0219298866837,0.000578498693057,-3.43615608652e-05,0.000415178684219,0.999999745892,0.0,0.0,0.0,0.0,0.0,0.0
1609059024172202110,110,1609059024172202110,0.0104209536007,-0.00472529428727,-0.0142761924538,0.000631311657438,0.000144579994504,0.000557003858518,0.999999635144,0.0,0.0,0.0,0.0,0.0,0.0
1609059024263643503,111,1609059024263643503,0.0286923800495,-0.005311340675,0.0152176543024,0.00072578281345,3.38791067243e-05,0.000308896176926,0.999999688337,0.0,0.0,0.0,0.0,0.0,0.0
1609059024376021147,112,1609059024376021147,0.0112106479623,-0.00212357081204,0.0169349663198,0.00167941983134,0.000303869485972,0.000388820078476,0.999998468014,0.0,0.0,0.0,0.0,0.0,0.0
1609059024470491648,113,1609059024470491648,0.00679236538106,-0.00557882724983,0.00818815318876,0.00079181182306,9.56769194936e-05,0.000547685299631,0.99999953196,0.0,0.0,0.0,0.0,0.0,0.0
1609059024563383818,114,1609059024563383818,0.019303947925,-0.00730333769762,0.0237748951165,0.00133800609747,-0.000123853830367,0.000550373522498,0.999998945744,0.0,0.0,0.0,0.0,0.0,0.0
1609059024676020622,115,1609059024676020622,0.0128784704203,0.000873201058912,0.0130403766451,0.00175394929152,9.28250512545e-05,0.000175559771477,0.999998442111,0.0,0.0,0.0,0.0,0.0,0.0
1609059024769625902,116,1609059024769625902,0.0180730546567,-0.00707935038892,-0.00309713715652,0.000918426502104,-0.00046284423029,0.000393839235068,0.999999393579,0.0,0.0,0.0,0.0,0.0,0.0
1609059024864308119,117,1609059024864308119,0.0113274615334,-0.0023340959834,0.0149289077521,0.00186289862207,-0.00018536197101,0.000353001128102,0.999998185318,0.0,0.0,0.0,0.0,0.0,0.0
1609059024976373672,118,1609059024976373672,0.0181650450421,-0.00652074237581,0.0288516164443,0.00113991352406,-0.000123253855502,0.000452067228949,0.99999924052,0.0,0.0,0.0,0.0,0.0,0.0
1609059025070106268,119,1609059025070106268,0.0205370117469,-0.0051525002237,0.0231150378983,0.00176683325231,0.000144903526621,0.000340717388968,0.999998370606,0.0,0.0,0.0,0.0,0.0,0.0
1609059025163400412,120,1609059025163400412,0.016848981827,-0.0112517793378,0.0133534722188,0.000864493886773,0.000107659369092,0.000647762965354,0.999999410731,0.0,0.0,0.0,0.0,0.0,0.0
1609059025275803804,121,1609059025275803804,0.0145866043572,-0.00772065142806,0.0128419569184,0.000635584831789,-0.000297473178866,0.000499574991,0.999999628983,0.0,0.0,0.0,0.0,0.0,0.0
1609059025369525909,122,1609059025369525909,0.00137427865377,-0.00722114655525,0.0230021372072,0.000987337585976,-7.34177481305e-05,0.000572743612124,0.999999345869,0.0,0.0,0.0,0.0,0.0,0.0
1609059025463170052,123,1609059025463170052,0.0191775748514,-0.00578684170678,-0.000977812586054,0.000819248731902,-0.000532059879572,0.000396847267908,0.999999444128,0.0,0.0,0.0,0.0,0.0,0.0
1609059025576282740,124,1609059025576282740,0.0182076969259,-0.00326322406277,0.0138486706658,0.00143883993084,-0.000214262816542,0.000214979830978,0.999998918807,0.0,0.0,0.0,0.0,0.0,0.0
1609059025669425249,125,1609059025669425249,0.0157866582889,-0.0101648006849,0.0164197587477,0.000804605828984,-4.85958922563e-05,0.000555835306185,0.999999520647,0.0,0.0,0.0,0.0,0.0,0.0
1609059025763164520,126,1609059025763164520,0.0129943225726,-0.00356085266673,0.0211005525624,0.00115140131811,0.000146520444661,0.00059561715157,0.999999149023,0.0,0.0,0.0,0.0,0.0,0.0
1609059025876231432,127,1609059025876231432,0.0163240184641,-0.0064142705245,0.0316888526416,0.00112163289962,0.000230417242208,0.000406101628326,0.999999261964,0.0,0.0,0.0,0.0,0.0,0.0
1609059025969610691,128,1609059025969610691,0.0166834658104,-0.0103883849618,0.0211180552275,0.00155969364156,-0.000654023195343,0.000619195217507,0.999998378102,0.0,0.0,0.0,0.0,0.0,0.0
1609059026063242435,129,1609059026063242435,0.00731694645912,-0.00346531664523,0.025164643787,0.000750362863289,0.000254608538697,0.000406903172953,0.99999960328,0.0,0.0,0.0,0.0,0.0,0.0
1609059026176325560,130,1609059026176325560,0.0239738419825,-0.00732967411507,0.0144928905407,0.000310253167689,-0.000107983608578,0.000412493120904,0.999999860966,0.0,0.0,0.0,0.0,0.0,0.0
1609059026269484282,131,1609059026269484282,0.0204769944589,-0.0109205658657,0.00396214243297,0.000703480030078,-1.46938817731e-05,0.000595245892911,0.999999575291,0.0,0.0,0.0,0.0,0.0,0.0
1609059026362995863,132,1609059026362995863,0.015420328831,-0.00968787480503,0.0146588210088,-0.00118847200813,0.000322022198289,0.000604958096618,0.99999905893,0.0,0.0,0.0,0.0,0.0,0.0
1609059026476529837,133,1609059026476529837,0.0121001199743,-0.00477289940685,0.0140818782431,0.000651439261656,-2.19714759515e-06,0.000439605261152,0.999999691184,0.0,0.0,0.0,0.0,0.0,0.0
1609059026569752693,134,1609059026569752693,0.00961343365165,-0.00505585659822,0.019463942816,0.000942686847462,8.82217470041e-05,0.000454293060871,0.999999448588,0.0,0.0,0.0,0.0,0.0,0.0
1609059026662801266,135,1609059026662801266,0.00624351838413,-0.00678891732463,0.0116506406008,0.00165588107879,-6.84455396167e-06,0.000326096327277,0.999998575835,0.0,0.0,0.0,0.0,0.0,0.0
1609059026775205612,136,1609059026775205612,0.017952901768,-0.00799081350029,0.00404368054611,0.0018479913177,-0.000224224721883,0.000494978190898,0.999998144822,0.0,0.0,0.0,0.0,0.0,0.0
1609059026868979454,137,1609059026868979454,0.0244806314352,-0.00794151453327,0.00849740249309,0.00086769254395,0.000142597817689,0.000332471902949,0.999999558119,0.0,0.0,0.0,0.0,0.0,0.0
1609059026962833405,138,1609059026962833405,0.00957883080551,-0.00470812838959,0.0119326482421,0.000335143918173,-5.93700729976e-05,0.000395725006012,0.999999863778,0.0,0.0,0.0,0.0,0.0,0.0
1609059027075711966,139,1609059027075711966,0.0236111852745,-0.00434720544404,0.0248688270829,0.0016470433958,7.62297064671e-05,0.000383879301065,0.999998567036,0.0,0.0,0.0,0.0,0.0,0.0
1609059027169646740,140,1609059027169646740,0.0222094734583,-0.00025380684077,0.014514864363,0.0025293886463,-0.000107577514348,5.77275818201e-05,0.999996793639,0.0,0.0,0.0,0.0,0.0,0.0
1609059027263215542,141,1609059027263215542,0.0152270567496,-0.0039581632586,0.0201629875217,0.00130056116515,8.85878706261e-05,0.000383287740845,0.999999076891,0.0,0.0,0.0,0.0,0.0,0.0
1609059027375963449,142,1609059027375963449,0.01393554977,-0.00297305499893,0.00890684350261,0.00152287555552,-0.00052138393331,0.000320889807492,0.999998653018,0.0,0.0,0.0,0.0,0.0,0.0
1609059027469601870,143,1609059027469601870,0.0150960013864,-0.00441146747504,0.0197722688319,0.0018416754915,-0.000241621818035,0.000304909513345,0.999998228439,0.0,0.0,0.0,0.0,0.0,0.0
1609059027564105034,144,1609059027564105034,0.0111504176855,-0.00684572721939,0.00985826162275,5.31259873858e-05,0.000238607796069,0.00044312979371,0.99999987194,0.0,0.0,0.0,0.0,0.0,0.0
1609059027675740480,145,1609059027675740480,-0.00230048036361,-0.00526982823012,0.00533001963893,0.000916424682073,-3.35911170244e-05,0.000371492070977,0.999999510515,0.0,0.0,0.0,0.0,0.0,0.0
1609059027769112587,146,1609059027769112587,0.0138376326242,-0.00772050566629,0.0311618244383,0.00191889565622,-0.000250122650901,0.000490040911195,0.999998007567,0.0,0.0,0.0,0.0,0.0,0.0
1609059027862653494,147,1609059027862653494,0.0144584946448,-0.00439072544451,0.0370012761072,0.00140349652133,0.000424181150033,0.000371925269827,0.999998855969,0.0,0.0,0.0,0.0,0.0,0.0
1609059027975464821,148,1609059027975464821,0.0230119301753,-0.00741983879618,0.00936266905862,0.000714725389536,-0.000537716311299,0.000387639193558,0.999999524882,0.0,0.0,0.0,0.0,0.0,0.0
1609059028069079399,149,1609059028069079399,0.00570730612459,-0.00755879574923,0.0162852744951,0.000570804342881,2.06871488873e-05,0.000759267767998,0.999999548633,0.0,0.0,0.0,0.0,0.0,0.0
1609059028162775278,150,1609059028162775278,0.0232760830777,-0.0064086669708,0.0343542633851,0.00160637754311,0.000218441509683,0.000324930827741,0.999998633126,0.0,0.0,0.0,0.0,0.0,0.0
1609059028275365591,151,1609059028275365591,0.0242688017456,-0.00554919645472,0.0123261459865,0.00106157009232,-0.000257241828346,0.000418993132531,0.99999931567,0.0,0.0,0.0,0.0,0.0,0.0
1609059028369514942,152,1609059028369514942,0.024119387625,-0.00602035294565,0.0234478255989,0.000366883890336,-0.000220420995798,0.000463573672139,0.999999800955,0.0,0.0,0.0,0.0,0.0,0.0
1609059028462725163,153,1609059028462725163,0.0151950347636,-0.00540248540738,0.00129495548134,0.000817273265559,0.000230785466487,0.000244526234569,0.999999609504,0.0,0.0,0.0,0.0,0.0,0.0
1609059028575431585,154,1609059028575431585,0.0140895649527,-0.00733968630103,0.0242201048654,0.00108231077968,-0.000408282663179,0.000556631851684,0.999999176034,0.0,0.0,0.0,0.0,0.0,0.0
1609059028668975592,155,1609059028668975592,0.0159733074532,-0.00459865570187,0.0335611763588,0.00156941017362,-0.000137925851723,0.000431096086217,0.999998666041,0.0,0.0,0.0,0.0,0.0,0.0
1609059028763022423,156,1609059028763022423,0.0113296524612,-0.00539157325348,0.0325768209006,0.00150727198653,-0.000189330029755,0.000370947355133,0.999998777341,0.0,0.0,0.0,0.0,0.0,0.0
1609059028875527620,157,1609059028875527620,0.0344027399371,-0.0104679938785,0.0135005413566,0.00158731215197,1.28806799593e-05,0.000569222937984,0.999998578129,0.0,0.0,0.0,0.0,0.0,0.0
1609059028969097614,158,1609059028969097614,0.0130057684983,-0.00310242503371,0.0313884962286,0.00190742257124,-0.00027671004875,0.000396621422704,0.999998063929,0.0,0.0,0.0,0.0,0.0,0.0
1609059029063267708,159,1609059029063267708,0.0132500488393,-0.00551625044021,0.00235993765456,0.000814628983648,-0.000691905080446,0.000483078818147,0.999999312141,0.0,0.0,0.0,0.0,0.0,0.0
1609059029175579071,160,1609059029175579071,0.0254620501808,-0.00222472212996,0.00734023564587,0.00115870808993,-5.69131379687e-06,0.000392688561289,0.999999251579,0.0,0.0,0.0,0.0,0.0,0.0
1609059029268812418,161,1609059029268812418,0.0260522450293,-0.0062226947748,-0.000854267922299,0.0013843145922,-0.000809176639786,0.000423787308704,0.999998624654,0.0,0.0,0.0,0.0,0.0,0.0
1609059029363767385,162,1609059029363767385,0.0216746626456,-0.0076698288071,0.00775977452305,0.00120865100495,-0.000232272690993,0.000397710283081,0.999999163519,0.0,0.0,0.0,0.0,0.0,0.0
1609059029475060701,163,1609059029475060701,0.0151131417335,-0.00823474409161,0.0223671885307,0.000619362621191,0.000157579820179,0.000387679222014,0.999999720631,0.0,0.0,0.0,0.0,0.0,0.0
1609059029573662758,164,1609059029573662758,0.0216504188025,-0.0101624977417,0.0269291465989,0.000721295885745,-0.000314602710241,0.000432610255862,0.999999596803,0.0,0.0,0.0,0.0,0.0,0.0
1609059029668548584,165,1609059029668548584,0.0118003777721,-0.00884993944008,0.029410406184,0.000974792596105,0.000487022888149,0.000401885463669,0.999999325538,0.0,0.0,0.0,0.0,0.0,0.0
1609059029762518406,166,1609059029762518406,0.0167691096958,-0.00673327367736,0.0144083951329,0.00116054612297,-0.000149043188925,0.000544082988397,0.999999167446,0.0,0.0,0.0,0.0,0.0,0.0
1609059029875321627,167,1609059029875321627,0.0201424266053,-0.00334927108857,0.00208169378206,0.000874318954976,-0.000545352926033,0.000419375436752,0.99999938114,0.0,0.0,0.0,0.0,0.0,0.0
1609059029967659235,168,1609059029967659235,0.0131494733117,-0.00507145326629,0.0244480132499,0.00125113980349,7.41274539573e-05,0.000414936532691,0.99999912849,0.0,0.0,0.0,0.0,0.0,0.0
1609059030064330816,169,1609059030064330816,0.0171765982006,-0.00564159833219,0.0265188215473,0.00134732019283,-0.000538776076358,0.000362992419263,0.999998881342,0.0,0.0,0.0,0.0,0.0,0.0
1609059030174149275,170,1609059030174149275,0.00644435133204,-0.009677162319,0.0164540556324,1.52321191519e-05,8.10686982132e-05,0.000716723172605,0.999999739752,0.0,0.0,0.0,0.0,0.0,0.0
1609059030268989563,171,1609059030268989563,0.0172950016234,-0.00388175170959,-0.0078836595793,0.00121154328919,-0.000346582953354,0.000350749389532,0.999999144508,0.0,0.0,0.0,0.0,0.0,0.0
1609059030363350630,172,1609059030363350630,0.0107842745367,-0.00449340059264,0.0277409884014,0.000585397392695,3.92899345518e-05,0.000418475270993,0.999999740322,0.0,0.0,0.0,0.0,0.0,0.0
1609059030478246212,173,1609059030478246212,0.0111992820092,-0.00631931243018,0.027072806586,0.0012379697621,0.000191693438527,0.000373887183853,0.999999145446,0.0,0.0,0.0,0.0,0.0,0.0
1609059030570984602,174,1609059030570984602,0.00383257768434,-0.00570589335596,0.0300103711811,0.00143284176371,4.32806856849e-05,0.000325743647735,0.99999891949,0.0,0.0,0.0,0.0,0.0,0.0
1609059030664427519,175,1609059030664427519,0.00962074434629,-0.00535473929965,0.0251993628527,0.000968844780882,-0.000176520861562,0.000321116733679,0.999999463532,0.0,0.0,0.0,0.0,0.0,0.0
1609059030763058662,176,1609059030763058662,0.0179540039149,-0.00463497369938,0.0228117709108,0.00121245401613,-0.000581568524368,0.000423210281472,0.999999006313,0.0,0.0,0.0,0.0,0.0,0.0
1609059030874946594,177,1609059030874946594,0.0254922808503,-0.0104402621457,0.0268821902453,0.000750208739006,0.000106902918893,0.000572314203872,0.999999549107,0.0,0.0,0.0,0.0,0.0,0.0
1609059030968878031,178,1609059030968878031,0.0158761315313,-0.00598214081494,0.00939599455466,0.000676724468952,0.000175701614261,0.000380862565675,0.999999683058,0.0,0.0,0.0,0.0,0.0,0.0
1609059031062709570,179,1609059031062709570,-0.000547949744213,-0.00314330239028,0.030740276697,0.000527841270914,0.000162439533317,0.000515502960488,0.999999714627,0.0,0.0,0.0,0.0,0.0,0.0
1609059031175304174,180,1609059031175304174,0.022722339933,-0.00622302367847,0.0264577768987,0.000417484260602,0.00055579356645,0.000374719527324,0.999999688193,0.0,0.0,0.0,0.0,0.0,0.0
1609059031269499063,181,1609059031269499063,0.0104000272729,-0.0032125618737,0.00549459451578,0.000539431620263,-0.000543853269904,0.000401424208913,0.999999626048,0.0,0.0,0.0,0.0,0.0,0.0
1609059031363431454,182,1609059031363431454,0.00831276832138,-0.00236745069598,0.0231263727355,0.00240883704612,0.000165451326871,0.000359519738235,0.999997020433,0.0,0.0,0.0,0.0,0.0,0.0
1609059031476412296,183,1609059031476412296,0.0144048300905,-0.00162159218115,0.0294764965052,0.00224914917863,-0.000496437186361,0.000387045793088,0.999997272533,0.0,0.0,0.0,0.0,0.0,0.0
1609059031569804430,184,1609059031569804430,0.0121963447784,-0.000692167228308,0.015322977257,0.00024315092916,0.000102167380864,0.000149928886693,0.99999995398,0.0,0.0,0.0,0.0,0.0,0.0
1609059031665451765,185,1609059031665451765,0.0076183772782,-0.00833033249902,0.00938616246406,0.000832231161386,0.00026350499147,0.000601856047072,0.999999437863,0.0,0.0,0.0,0.0,0.0,0.0
1609059031775134325,186,1609059031775134325,0.0107048878587,-0.00317351489155,0.0429352741127,8.37963963107e-05,0.00024905519676,0.000295419989637,0.999999921838,0.0,0.0,0.0,0.0,0.0,0.0
1609059031868749380,187,1609059031868749380,0.0108710757468,-0.00337165937987,0.0413231443732,0.000695416140622,0.000354973885349,0.000374631172221,0.99999962502,0.0,0.0,0.0,0.0,0.0,0.0
1609059031962396383,188,1609059031962396383,0.0152006381748,-0.00348011181606,0.0118535487082,0.000349632892099,-1.45482196597e-05,0.000287609224623,0.999999897413,0.0,0.0,0.0,0.0,0.0,0.0
1609059032075551987,189,1609059032075551987,0.00189331531966,-0.00407720620126,0.00711231517156,0.00172110540837,0.000180135849715,0.000331124442065,0.999998447851,0.0,0.0,0.0,0.0,0.0,0.0
1609059032169110537,190,1609059032169110537,0.00316534857532,-0.00814651206466,-0.00635665361109,0.00132943823766,-0.000651192037667,0.000475488212028,0.999998791226,0.0,0.0,0.0,0.0,0.0,0.0
1609059032262880087,191,1609059032262880087,0.00707474699955,1.92780095505e-05,-0.0067567844924,0.000858156812909,0.00013658795609,0.000306786975191,0.999999575396,0.0,0.0,0.0,0.0,0.0,0.0
1609059032376113176,192,1609059032376113176,0.0198783989519,-0.000297095387018,0.0253973591843,0.00112069706749,-0.000120280862827,0.000293572492868,0.999999321692,0.0,0.0,0.0,0.0,0.0,0.0
1609059032472570181,193,1609059032472570181,0.0248631076082,-0.00489457024603,0.00638533721156,0.00134833535742,-0.00013067787774,0.000431294386817,0.999998989449,0.0,0.0,0.0,0.0,0.0,0.0
1609059032572697401,194,1609059032572697401,0.0109574199258,-0.00203208861716,0.0222583005051,0.00114801755242,7.25187665479e-05,0.000509726065805,0.999999208488,0.0,0.0,0.0,0.0,0.0,0.0
1609059032675565481,195,1609059032675565481,0.0150540476149,-0.00270193273224,0.0207555284568,0.00146016630144,-6.68761113865e-05,0.000496903808599,0.999998808263,0.0,0.0,0.0,0.0,0.0,0.0
1609059032779923439,196,1609059032779923439,0.0207276703809,-0.00373256902132,0.0316165791198,0.000499812884066,-6.06872932156e-05,0.000618765844631,0.999999681816,0.0,0.0,0.0,0.0,0.0,0.0
1609059032882216454,197,1609059032882216454,0.0198942649554,-0.0101602613192,0.0150883607551,0.000742752776536,0.000243600624765,0.000669923053864,0.99999947009,0.0,0.0,0.0,0.0,0.0,0.0
1609059032985305071,198,1609059032985305071,0.0119890398145,-0.00798926640109,0.0188687311223,0.000584019726634,0.000437869076555,0.000441652367888,0.999999636067,0.0,0.0,0.0,0.0,0.0,0.0
1609059033088547468,199,1609059033088547468,-0.000403168818699,-0.00088898281169,0.00484388614482,0.00239404267366,-0.000620131696986,0.000433609976042,0.999996847984,0.0,0.0,0.0,0.0,0.0,0.0
1609059033191843987,200,1609059033191843987,0.00354916886557,-0.000432970764041,0.0306054424001,0.00253118641091,-0.000268344658403,0.00018466825673,0.999996743487,0.0,0.0,0.0,0.0,0.0,0.0
1609059033264766216,201,1609059033264766216,0.0230435198052,0.000537269056254,0.030446775939,0.00137435690812,-0.000111403855162,0.000414253829672,0.999998963562,0.0,0.0,0.0,0.0,0.0,0.0
1609059033365689039,202,1609059033365689039,0.0150322713642,-0.00696306452227,0.0168932533981,0.00133949139845,-8.30833486848e-05,0.000561891217925,0.999998941568,0.0,0.0,0.0,0.0,0.0,0.0
1609059033466568470,203,1609059033466568470,0.0213143230672,-0.00136670710241,0.0303200335912,0.000478851671915,0.000166811663468,0.000362707820363,0.999999805659,0.0,0.0,0.0,0.0,0.0,0.0
1609059033569381237,204,1609059033569381237,-0.00137512011799,-0.00557159176752,0.0314112197542,-0.000195584091486,-0.000295186427617,0.000366000029807,0.999999870328,0.0,0.0,0.0,0.0,0.0,0.0
1609059033672753334,205,1609059033672753334,0.021940830262,-0.00418644236184,0.0342008747786,0.000964617019916,0.000171760645972,0.000545320372466,0.999999371319,0.0,0.0,0.0,0.0,0.0,0.0
1609059033779922724,206,1609059033779922724,0.018318824754,0.00142478743837,0.00670415403139,0.0025271398486,-0.000191982715584,0.000316830577641,0.999996738157,0.0,0.0,0.0,0.0,0.0,0.0
1609059033882041454,207,1609059033882041454,0.0223119637442,-0.00429510657756,0.0279360167077,0.00174228749623,1.73501037086e-05,0.000364150907502,0.999998415762,0.0,0.0,0.0,0.0,0.0,0.0
1609059033985297441,208,1609059033985297441,0.0239459006903,-0.00102379275726,0.0381349131318,0.000413489445247,-8.95954637775e-05,0.000428546442425,0.999999818673,0.0,0.0,0.0,0.0,0.0,0.0
1609059034088403225,209,1609059034088403225,0.0250916247398,-0.00333058387256,0.0204851959359,0.00271114756404,-0.000554809702483,0.000471281441241,0.999996059871,0.0,0.0,0.0,0.0,0.0,0.0
1609059034192173481,210,1609059034192173481,0.0126767642883,-0.00461501188068,-0.000157236339399,0.000487216796081,-0.000444954108323,0.000486961682783,0.999999663752,0.0,0.0,0.0,0.0,0.0,0.0
1609059034262825251,211,1609059034262825251,0.0162063719063,-0.0043935994754,0.0209700784335,0.00017773334505,-0.00019524776946,0.00047270517579,0.999999853419,0.0,0.0,0.0,0.0,0.0,0.0
1609059034363022566,212,1609059034363022566,0.029947598804,-0.00580614532941,0.0419217131155,0.00116326282005,0.000454534134021,0.000528236104296,0.999999080592,0.0,0.0,0.0,0.0,0.0,0.0
1609059034466039896,213,1609059034466039896,0.017824988071,-0.00371247929205,0.00572222615737,0.00115798479042,-0.000389787844857,0.000356449683273,0.99999919004,0.0,0.0,0.0,0.0,0.0,0.0
1609059034574061632,214,1609059034574061632,0.0177845077975,-0.00509344676936,0.0173005281292,-8.64902395253e-06,0.000178722562813,0.000564011402849,0.999999824937,0.0,0.0,0.0,0.0,0.0,0.0
1609059034677431822,215,1609059034677431822,0.0282867759457,-0.0067271067766,0.0379350166377,0.00142884557806,0.000211849687537,0.000474102052668,0.999998844373,0.0,0.0,0.0,0.0,0.0,0.0
1609059034779833317,216,1609059034779833317,0.0251338973615,-0.0062795993195,0.0137015018727,0.00189374350378,-0.000263670916849,0.000521816919462,0.999998035958,0.0,0.0,0.0,0.0,0.0,0.0
1609059034883658648,217,1609059034883658648,0.00830029028512,-0.00101646995783,0.0256928251757,0.000573445066609,-0.000303625369236,0.000591319709343,0.999999614656,0.0,0.0,0.0,0.0,0.0,0.0
1609059034985977650,218,1609059034985977650,0.0177652898582,0.00160743023473,0.0529241631729,0.00247710243761,-0.000109099817603,0.000450613462567,0.999996824499,0.0,0.0,0.0,0.0,0.0,0.0
1609059035089134455,219,1609059035089134455,0.00884981096731,-0.00352504305793,0.0262375080889,0.00117934491201,-0.000104314553116,0.000501213923002,0.999999173524,0.0,0.0,0.0,0.0,0.0,0.0
1609059035162548304,220,1609059035162548304,0.0117322764949,-0.00279722176975,0.0290871781576,0.00186290973388,-0.000172892218178,0.000486658862848,0.999998131417,0.0,0.0,0.0,0.0,0.0,0.0
1609059035280713081,221,1609059035280713081,0.0369925732987,0.00107244098468,0.0251558609071,0.000755613663111,4.35922191286e-06,0.000380645795209,0.999999642069,0.0,0.0,0.0,0.0,0.0,0.0
1609059035382897139,222,1609059035382897139,0.020419229664,-0.000875489427347,0.0396080692196,0.00130733532046,-0.000134565317375,0.000341986209373,0.999999077905,0.0,0.0,0.0,0.0,0.0,0.0
1609059035485997915,223,1609059035485997915,0.0158321159146,-0.00194541978788,0.0270881643383,0.00146021137544,-0.00031152975372,0.000508613715739,0.999998756021,0.0,0.0,0.0,0.0,0.0,0.0
1609059035589219332,224,1609059035589219332,0.0286826722637,-0.000942233993588,0.033328861698,0.00287360055456,-4.78473289215e-05,0.000531628005181,0.999995728742,0.0,0.0,0.0,0.0,0.0,0.0
1609059035692436218,225,1609059035692436218,0.0156726194941,-0.0036688199949,0.0214226789946,0.000338213521095,-0.000480438215586,0.000444593380028,0.999999728563,0.0,0.0,0.0,0.0,0.0,0.0
1609059035762498617,226,1609059035762498617,0.02396821505,-0.00283215255842,0.00942580640642,0.000468655887633,0.000195342453996,0.000608355736602,0.999999686053,0.0,0.0,0.0,0.0,0.0,0.0
1609059035864729404,227,1609059035864729404,0.027426599797,-0.00769067910418,0.00683374124572,0.000468417578509,2.76251204589e-06,0.000704728178675,0.999999641967,0.0,0.0,0.0,0.0,0.0,0.0
1609059035967133760,228,1609059035967133760,0.0315232104399,-0.00299817828957,0.0331676505796,0.000772163757482,-0.00030047151409,0.000610654035211,0.99999947029,0.0,0.0,0.0,0.0,0.0,0.0
1609059036070278645,229,1609059036070278645,0.0351860113101,-0.00525438570611,0.0182125694858,0.0015481469423,-0.000742790133019,0.000590185475252,0.999998351591,0.0,0.0,0.0,0.0,0.0,0.0
1609059036174264908,230,1609059036174264908,0.0268198914131,-0.002820990237,0.0135825308457,0.00125163913399,0.000354294495128,0.00052022412967,0.99999901862,0.0,0.0,0.0,0.0,0.0,0.0
1609059036276594639,231,1609059036276594639,0.016260941683,-0.00192657876936,0.0209683947393,0.00150322561695,1.70907721035e-05,0.000542182861613,0.999998723028,0.0,0.0,0.0,0.0,0.0,0.0
1609059036379638672,232,1609059036379638672,0.0139027921182,-0.00438251541555,0.0214980048537,-4.01913333158e-05,-0.000212875054084,0.0007228231396,0.999999715297,0.0,0.0,0.0,0.0,0.0,0.0
1609059036482711792,233,1609059036482711792,0.018765387464,-0.00129620449847,0.00245207606078,0.0013262774894,-8.13288493669e-05,0.000366259637012,0.999999050113,0.0,0.0,0.0,0.0,0.0,0.0
1609059036585885286,234,1609059036585885286,0.027894663246,-0.0046757065618,0.00708235977217,0.000962838675197,0.000102512337419,0.000458845213256,0.999999425947,0.0,0.0,0.0,0.0,0.0,0.0
1609059036690322638,235,1609059036690322638,0.012785346159,-0.00221903667027,0.0104112965152,0.000966963572046,-0.000316477733226,0.000592690970673,0.99999930677,0.0,0.0,0.0,0.0,0.0,0.0
1609059036792572260,236,1609059036792572260,0.0194475096195,-0.00257807233278,0.00827151902445,0.000691443679007,-0.000268487474546,0.000470132282441,0.999999614398,0.0,0.0,0.0,0.0,0.0,0.0
1609059036863150597,237,1609059036863150597,0.0328736948167,-0.00600347398393,0.022960647108,0.000355860359285,0.000255932208928,0.000538762968431,0.999999758798,0.0,0.0,0.0,0.0,0.0,0.0
1609059036964625120,238,1609059036964625120,0.0284629073598,-0.00192689930867,0.00825483363153,0.000726043465743,-0.000212195405134,0.000593090248479,0.999999538039,0.0,0.0,0.0,0.0,0.0,0.0
1609059037067671299,239,1609059037067671299,0.0277218940737,0.00130112736946,0.0225167406872,0.000965455984177,0.00016898158939,0.000366599508945,0.999999452472,0.0,0.0,0.0,0.0,0.0,0.0
1609059037170726061,240,1609059037170726061,0.0178090172504,-0.000842959856549,0.0263350876487,0.00181785790734,-7.81158892303e-05,0.000486060088017,0.999998226516,0.0,0.0,0.0,0.0,0.0,0.0
1609059037273654938,241,1609059037273654938,0.0192487155854,-0.00437220737455,0.0148555568217,0.00186208676795,-0.000184593594887,0.000613911709116,0.999998060833,0.0,0.0,0.0,0.0,0.0,0.0
1609059037377023220,242,1609059037377023220,0.0272338822474,0.0021406011006,0.00168346722112,0.00119933248523,-0.000379388372662,0.000365367513453,0.999999142086,0.0,0.0,0.0,0.0,0.0,0.0
1609059037480533361,243,1609059037480533361,0.0320625806136,-0.00616025865358,0.00263045736068,0.000705902872799,0.00019170203838,0.000509485162426,0.999999602688,0.0,0.0,0.0,0.0,0.0,0.0
1609059037582600355,244,1609059037582600355,0.0119877769951,-0.000226560178878,0.00720407241916,0.000117263317208,-1.22878196045e-05,0.000407702143078,0.999999909938,0.0,0.0,0.0,0.0,0.0,0.0
1609059037686016560,245,1609059037686016560,0.028817373321,-0.00508082933748,0.0103083168863,0.00115496473711,-0.00016305501174,0.000426494945996,0.999999228785,0.0,0.0,0.0,0.0,0.0,0.0
1609059037788817167,246,1609059037788817167,0.0252331726996,-0.00271807652254,0.0167374359888,0.000733461553973,-6.4584428179e-05,0.00058206599883,0.999999559531,0.0,0.0,0.0,0.0,0.0,0.0
1609059037891816854,247,1609059037891816854,0.0318581773771,-0.00436903863954,0.0102635999846,0.00183238336396,-0.000253335349895,0.000498779928165,0.999998164703,0.0,0.0,0.0,0.0,0.0,0.0
1609059037962224007,248,1609059037962224007,0.0297847594259,-0.00336858687348,0.0258100358453,0.00123704868687,0.000230134613434,0.000494431021083,0.999999086143,0.0,0.0,0.0,0.0,0.0,0.0
1609059038064137936,249,1609059038064137936,0.013039047386,-0.00134208804267,0.0178019152192,0.000909449985164,-0.000307194403709,0.000433051354302,0.999999445499,0.0,0.0,0.0,0.0,0.0,0.0
1609059038166922092,250,1609059038166922092,0.0287210857686,-0.00630474540115,0.0182224464598,0.00138533652937,-4.57336773422e-05,0.000308700916632,0.999998991727,0.0,0.0,0.0,0.0,0.0,0.0
1609059038271801949,251,1609059038271801949,0.0180553751585,-0.00274822264032,0.0309371999798,4.78428416935e-05,0.000317229111945,0.000619692490806,0.999999756529,0.0,0.0,0.0,0.0,0.0,0.0
1609059038373084545,252,1609059038373084545,0.0263939172543,-0.00339741423872,0.0194068993292,0.0011062098843,2.00140671881e-05,0.000384922467115,0.999999313866,0.0,0.0,0.0,0.0,0.0,0.0
1609059038476727247,253,1609059038476727247,0.0197779250486,-0.00131077230614,0.0135722172801,0.00117957508914,-0.000473289525275,0.000406712669436,0.999999109591,0.0,0.0,0.0,0.0,0.0,0.0
1609059038582505465,254,1609059038582505465,0.0282705832645,-0.0010681085275,0.036559189408,0.00127810563025,-4.96742349728e-05,0.000384069956673,0.999999108234,0.0,0.0,0.0,0.0,0.0,0.0
1609059038685616493,255,1609059038685616493,0.0150814353449,0.00423349883675,0.0190665591084,0.00195050699471,-7.74358121353e-05,0.000311821688628,0.999998046144,0.0,0.0,0.0,0.0,0.0,0.0
1609059038789432049,256,1609059038789432049,0.0278957769013,-0.000910487241922,0.0400666603912,0.00115648601441,1.4585808223e-05,0.000418888425823,0.999999243429,0.0,0.0,0.0,0.0,0.0,0.0
1609059038892025471,257,1609059038892025471,0.0210275644631,0.000930970053321,0.0350329065181,0.00137120499178,6.06306891506e-05,0.000637603807786,0.99999885479,0.0,0.0,0.0,0.0,0.0,0.0
1609059038961837769,258,1609059038961837769,0.0422924097733,-0.00649562739603,0.0246665871973,0.000994528361585,-8.93181693136e-05,0.000277503048224,0.999999462963,0.0,0.0,0.0,0.0,0.0,0.0
1609059039063194275,259,1609059039063194275,0.0292045783203,-0.00301386255195,0.00459147228415,0.000602311599869,0.000440716862098,0.000607926419861,0.999999536707,0.0,0.0,0.0,0.0,0.0,0.0
1609059039166143417,260,1609059039166143417,0.0293266290254,-0.00512718265704,0.0142035024605,0.000705086912415,1.85293159366e-05,0.000454012797178,0.99999964819,0.0,0.0,0.0,0.0,0.0,0.0
1609059039269648075,261,1609059039269648075,0.0177253787073,0.00118311433304,0.0150747499322,0.00173318996635,-0.000320037548416,0.000499060844577,0.999998322282,0.0,0.0,0.0,0.0,0.0,0.0
1609059039373252869,262,1609059039373252869,0.0331337016574,-0.0071106897319,0.0154363658409,0.0010207962095,7.05476756222e-05,0.000501560497184,0.999999350717,0.0,0.0,0.0,0.0,0.0,0.0
1609059039476061344,263,1609059039476061344,0.0263542144239,-0.00324817149949,0.00272434376294,0.000466861524215,7.27806502954e-06,0.000618596840937,0.999999699662,0.0,0.0,0.0,0.0,0.0,0.0
1609059039579569578,264,1609059039579569578,0.0230089959312,-0.000391356586811,0.021107787967,0.000935233210676,-0.000157058231358,0.000302827382024,0.999999504483,0.0,0.0,0.0,0.0,0.0,0.0
1609059039682906628,265,1609059039682906628,0.0354963149802,-0.00165230720926,0.00816131877458,0.000694215009453,2.01669199154e-05,0.000495589830955,0.999999636024,0.0,0.0,0.0,0.0,0.0,0.0
1609059039786004305,266,1609059039786004305,0.0251321896357,-0.00274525262895,0.0310335972631,0.00122042833259,-9.34528796024e-05,0.000438120647631,0.999999154935,0.0,0.0,0.0,0.0,0.0,0.0
1609059039889301062,267,1609059039889301062,0.0185364634629,-0.00834745846284,0.0279695261906,0.00131922648727,0.000157600123143,0.000690448882168,0.999998879041,0.0,0.0,0.0,0.0,0.0,0.0
1609059039992092133,268,1609059039992092133,0.027591949543,-0.00444431348021,0.0205282881237,0.000909650262278,-0.000358398186881,0.000563192073214,0.99999936345,0.0,0.0,0.0,0.0,0.0,0.0
1609059040062198400,269,1609059040062198400,0.0314565624329,-0.000583636289877,0.043181443721,0.00182257467608,6.78053691804e-05,0.00047428627734,0.999998224336,0.0,0.0,0.0,0.0,0.0,0.0
1609059040163987160,270,1609059040163987160,0.0243790018894,-0.00360462844518,0.00893338573704,0.000555174919775,-0.000419913807565,0.000530307342967,0.999999617113,0.0,0.0,0.0,0.0,0.0,0.0
1609059040267340183,271,1609059040267340183,0.0232370934723,-9.23126611176e-05,0.0294324533271,0.0011961902272,0.000158923940908,0.000455467222768,0.99999916821,0.0,0.0,0.0,0.0,0.0,0.0
1609059040370266914,272,1609059040370266914,0.0227943051943,-0.00166301053871,0.0314542009587,-4.2258859086e-05,0.00040006991774,0.000488601041756,0.999999799713,0.0,0.0,0.0,0.0,0.0,0.0
1609059040473243952,273,1609059040473243952,0.0275759560338,-0.00374885980474,0.0185572054447,0.00115197605128,-0.000300383257099,0.000524826452263,0.999999153638,0.0,0.0,0.0,0.0,0.0,0.0
1609059040576401234,274,1609059040576401234,0.0248794783395,-0.00298343391916,0.00037002071104,0.00147942836418,-0.000241317548565,0.000519848770166,0.999998741406,0.0,0.0,0.0,0.0,0.0,0.0
1609059040679787874,275,1609059040679787874,0.0171129786781,-0.00294561836341,0.0197545894758,0.00187866749885,-3.55225166604e-05,0.000592454521696,0.99999805917,0.0,0.0,0.0,0.0,0.0,0.0
1609059040784235954,276,1609059040784235954,0.0273220078466,-0.00330236356819,0.0448938778615,0.0013117889638,0.000129691757271,0.000562208520849,0.999998973155,0.0,0.0,0.0,0.0,0.0,0.0
1609059040887323380,277,1609059040887323380,0.026511212748,-0.00722251244859,0.00792599646977,4.06633137881e-05,-0.000133092555867,0.000513534083677,0.999999858457,0.0,0.0,0.0,0.0,0.0,0.0
1609059040989135981,278,1609059040989135981,0.0151801805787,-0.00526459282485,0.0182101197741,0.00108525526375,0.000127827140795,0.000562406142277,0.99999924479,0.0,0.0,0.0,0.0,0.0,0.0
1609059041092650414,279,1609059041092650414,0.0234711831717,-0.00622767891715,0.0174265039743,0.000679325975713,-0.000238033104731,0.000709135032167,0.999999489491,0.0,0.0,0.0,0.0,0.0,0.0
1609059041162662268,280,1609059041162662268,0.0316197350742,-0.00586388831474,0.0206016434399,0.00196086219974,-0.000265971518923,0.000620235844674,0.99999784979,0.0,0.0,0.0,0.0,0.0,0.0
1609059041264292717,281,1609059041264292717,0.0244105043987,-0.00402356045981,0.0208368422305,0.00030648091381,-0.000268506932932,0.000467781652912,0.999999807576,0.0,0.0,0.0,0.0,0.0,0.0
1609059041367069721,282,1609059041367069721,0.0359883594217,-0.00505215969796,0.0397081458475,0.00122892227152,0.000417477618763,0.000642441268013,0.999998951365,0.0,0.0,0.0,0.0,0.0,0.0
1609059041470372677,283,1609059041470372677,0.0122388624265,-0.0025411391853,-0.00590544478921,0.000792747397738,-6.20628190165e-05,0.000647015063626,0.999999474535,0.0,0.0,0.0,0.0,0.0,0.0
1609059041573894978,284,1609059041573894978,0.0361968964511,-0.00682339541286,0.0358192723677,0.00118261169363,0.000332518541745,0.000591689712635,0.999999070381,0.0,0.0,0.0,0.0,0.0,0.0
1609059041678287506,285,1609059041678287506,0.0174917147517,-0.00403319169955,0.0216856235846,0.00110111304108,-0.000331646195467,0.000523754569582,0.99999920162,0.0,0.0,0.0,0.0,0.0,0.0
1609059041781635046,286,1609059041781635046,0.0253320958196,-0.00315444565968,0.00481509960583,0.000749519063069,-8.83592178478e-05,0.000594521404118,0.999999538479,0.0,0.0,0.0,0.0,0.0,0.0
1609059041882654905,287,1609059041882654905,0.032402042051,-0.00830363415769,0.00632438347319,0.000723584239813,-8.31610787437e-05,0.000685879806114,0.999999499539,0.0,0.0,0.0,0.0,0.0,0.0
1609059041985770702,288,1609059041985770702,0.0230137728873,-0.00482206469521,0.020892948978,0.000143621216277,-0.000425769141616,0.000624251443635,0.999999704201,0.0,0.0,0.0,0.0,0.0,0.0
1609059042090439081,289,1609059042090439081,0.024748744104,-0.00608796400837,0.0197572100429,0.00149481800185,-0.000549781049032,0.000648068379052,0.999998521632,0.0,0.0,0.0,0.0,0.0,0.0
1609059042193055153,290,1609059042193055153,0.0307798250424,-0.00710573347845,0.0234583546875,0.00171105195667,-0.000195084714921,0.000672537544967,0.999998290966,0.0,0.0,0.0,0.0,0.0,0.0
1609059042262256622,291,1609059042262256622,0.0199180971317,-0.000840608947594,0.0193445684654,0.00101156651573,-0.000183525289768,0.000605234481251,0.999999288371,0.0,0.0,0.0,0.0,0.0,0.0
1609059042364798069,292,1609059042364798069,0.0210786229368,-0.00230780003638,0.0118144397688,0.000708188606597,-0.00038062134272,0.000615103947081,0.999999487621,0.0,0.0,0.0,0.0,0.0,0.0
1609059042467556238,293,1609059042467556238,0.0290485171467,-0.00123206240923,0.0153226429033,0.000836827007822,-0.000204813750792,0.000616797974493,0.999999438665,0.0,0.0,0.0,0.0,0.0,0.0
1609059042572211742,294,1609059042572211742,0.0237712261623,-0.00307790875394,0.014370932878,0.00123642697142,-0.00017308856518,0.000371047672028,0.999999151805,0.0,0.0,0.0,0.0,0.0,0.0
1609059042676746130,295,1609059042676746130,0.0151393742793,-0.00674910294727,0.0237452876322,0.00112299876683,-1.29608644608e-05,0.000589390243272,0.999999195662,0.0,0.0,0.0,0.0,0.0,0.0
1609059042776295900,296,1609059042776295900,0.0304801344015,-0.00242849959065,0.0267263972621,0.00161269673509,-0.000425758736295,0.000478706871392,0.999998494388,0.0,0.0,0.0,0.0,0.0,0.0
1609059042879500389,297,1609059042879500389,0.0104141533344,-0.00321029337089,0.0221847057377,0.00104561600362,-8.36571538492e-05,0.000602582294741,0.999999268291,0.0,0.0,0.0,0.0,0.0,0.0
1609059042983201504,298,1609059042983201504,0.0242061560127,-0.0072383811909,0.0186675571621,0.000298595642042,0.000213894163495,0.000688400172037,0.999999695597,0.0,0.0,0.0,0.0,0.0,0.0
1609059043086464405,299,1609059043086464405,0.0300648173762,-0.00409554056516,0.0200507965987,0.00109723045453,-0.000303269118891,0.00048377115716,0.999999235039,0.0,0.0,0.0,0.0,0.0,0.0
1609059043189270973,300,1609059043189270973,0.0195439533168,-0.00272922050525,0.0251046594396,0.00130647763158,-0.000188879980596,0.000467350482586,0.999999019511,0.0,0.0,0.0,0.0,0.0,0.0
1609059043292294264,301,1609059043292294264,0.0246281685042,-0.0068696021259,-0.0014149708753,0.000526128866991,-0.000125426983644,0.00060458170337,0.999999670968,0.0,0.0,0.0,0.0,0.0,0.0
1609059043362710238,302,1609059043362710238,0.0246809719897,-0.00223488394062,0.017552025068,0.00138016788402,-0.000215961144769,0.000552943661825,0.999998871374,0.0,0.0,0.0,0.0,0.0,0.0
1609059043464353561,303,1609059043464353561,0.0251008251654,-0.00801343991958,0.00895553150038,0.000820391312804,0.00020848055978,0.000413178563455,0.999999556388,0.0,0.0,0.0,0.0,0.0,0.0
1609059043569496632,304,1609059043569496632,0.0296690324536,-0.00507649555429,0.0145844102159,0.00108913410283,-0.000459505603488,0.000485680683391,0.999999183377,0.0,0.0,0.0,0.0,0.0,0.0
1609059043671614647,305,1609059043671614647,0.0244415560385,-0.00477490008178,0.0276569543287,0.000369007641025,-0.000101651300393,0.000542617661733,0.999999779533,0.0,0.0,0.0,0.0,0.0,0.0
1609059043772991419,306,1609059043772991419,0.0210632492326,-0.00730334238794,0.00148000343283,0.000781002563546,-0.000203061351936,0.000471398202752,0.999999563292,0.0,0.0,0.0,0.0,0.0,0.0
1609059043876054049,307,1609059043876054049,0.0267377272479,-0.00389469092758,0.0207723308454,0.00118031426569,9.1753150996e-05,0.000474093140673,0.999999186837,0.0,0.0,0.0,0.0,0.0,0.0
1609059043979515553,308,1609059043979515553,0.0321520745538,-0.00124162465638,0.0205395555482,0.00194794932271,-0.000630447059905,0.000611237369713,0.999997717206,0.0,0.0,0.0,0.0,0.0,0.0
1609059044083253145,309,1609059044083253145,0.0386105009512,-0.00560175391148,0.0157174679462,0.000762494534582,-0.00021358292435,0.000565307969565,0.999999526705,0.0,0.0,0.0,0.0,0.0,0.0
1609059044185682774,310,1609059044185682774,0.0305362629027,-0.00709626616107,0.0218728709599,0.00028479003709,0.0001295744778,0.000488365547418,0.999999831802,0.0,0.0,0.0,0.0,0.0,0.0
1609059044289080381,311,1609059044289080381,0.0322955941555,-0.0033870202064,-0.00180979498569,0.0010184207111,2.81455318706e-05,0.000438124113073,0.999999385036,0.0,0.0,0.0,0.0,0.0,0.0
1609059044392720222,312,1609059044392720222,0.0260342708107,-0.0037859133898,0.0047816560523,0.00132409688695,-0.000655538965427,0.000758325433524,0.999998620988,0.0,0.0,0.0,0.0,0.0,0.0
1609059044464194298,313,1609059044464194298,0.0289254849314,-0.0123399327219,0.0252291474317,0.000632574330121,0.000281720007067,0.000703552307296,0.999999512748,0.0,0.0,0.0,0.0,0.0,0.0
1609059044564440250,314,1609059044564440250,0.0296178240685,-0.0102439197546,0.0214355987498,0.000236909643282,0.000176568787233,0.000443988920143,0.999999857785,0.0,0.0,0.0,0.0,0.0,0.0
1609059044667610407,315,1609059044667610407,0.0241652136408,-0.00447959889172,0.0171293547349,0.00174916416851,-9.77772521041e-05,0.000573243903867,0.999998301126,0.0,0.0,0.0,0.0,0.0,0.0
1609059044770271063,316,1609059044770271063,0.0334468773756,-0.00665829985635,0.0220070556758,0.00167548225493,-7.40258524531e-05,0.000408856241349,0.999998510056,0.0,0.0,0.0,0.0,0.0,0.0
1609059044873552084,317,1609059044873552084,0.0227511811351,-0.00564088840691,0.00992599089349,0.000632102444082,-0.000287343392944,0.00059291400558,0.999999583166,0.0,0.0,0.0,0.0,0.0,0.0
1609059044976332903,318,1609059044976332903,0.0206068897909,-0.00434486269758,0.00876650704387,0.000998806503807,-0.000171928264811,0.000438068819694,0.99999939046,0.0,0.0,0.0,0.0,0.0,0.0
1609059045082027674,319,1609059045082027674,0.0264909796535,-0.00477529620937,0.0140196969345,0.00187892635244,-0.000676576846861,0.000447128402319,0.999997905975,0.0,0.0,0.0,0.0,0.0,0.0
1609059045184203863,320,1609059045184203863,0.0292806711316,-0.00686390705655,0.0305987139273,-0.000112046730916,0.000732820886035,0.000390522498397,0.999999648955,0.0,0.0,0.0,0.0,0.0,0.0
1609059045286398649,321,1609059045286398649,0.0269269283441,-0.00420990604085,0.0242209356186,0.00139554332645,-0.000257873799074,0.000393430187742,0.999998915585,0.0,0.0,0.0,0.0,0.0,0.0
1609059045390468359,322,1609059045390468359,0.0271431679027,-0.00355208672366,0.0203362240155,0.00104206148668,1.63600661718e-05,0.000480783668944,0.999999341343,0.0,0.0,0.0,0.0,0.0,0.0
1609059045492189646,323,1609059045492189646,0.0265238173229,-0.0048836208544,0.00894259624705,0.000839489091807,-0.000292370463776,0.000485492278494,0.999999487037,0.0,0.0,0.0,0.0,0.0,0.0
1609059045562449694,324,1609059045562449694,0.0292616036069,-0.00629315520518,0.0235263577453,0.000937486787374,0.000496297570588,0.000410014655777,0.999999353347,0.0,0.0,0.0,0.0,0.0,0.0
1609059045664650917,325,1609059045664650917,0.017149523687,-0.00633405537751,0.00179158324905,0.000718873822055,0.0002942660772,0.000464416833734,0.999999590472,0.0,0.0,0.0,0.0,0.0,0.0
1609059045767451525,326,1609059045767451525,0.0290823245711,-0.00685295352179,0.0309231451406,0.00134191947522,-0.000310145617586,0.00076133053776,0.999998761717,0.0,0.0,0.0,0.0,0.0,0.0
1609059045871901751,327,1609059045871901751,0.0327083398064,-0.00506341436654,0.0222739833167,0.00209812491752,0.000342565435487,0.00044286782411,0.999997642191,0.0,0.0,0.0,0.0,0.0,0.0
1609059045975208282,328,1609059045975208282,0.0269834886147,-0.00489084600574,0.0199196377998,-0.00101333331475,0.000542863254348,0.000489524826239,0.999999219409,0.0,0.0,0.0,0.0,0.0,0.0
1609059046078449488,329,1609059046078449488,0.0263925228748,-0.00795352894098,0.00764984817894,0.00130429544184,-0.000492214558148,0.000575385973505,0.999998862733,0.0,0.0,0.0,0.0,0.0,0.0
1609059046181475878,330,1609059046181475878,0.0222429898754,-0.00330992601957,-0.0129453484479,0.000427496616461,0.000163082611538,0.00042443365962,0.999999805253,0.0,0.0,0.0,0.0,0.0,0.0
1609059046284476280,331,1609059046284476280,0.023746822435,-0.00718378614635,0.00083289972408,-0.000187232918417,-6.26533669813e-05,0.000625550299319,0.999999784852,0.0,0.0,0.0,0.0,0.0,0.0
1609059046385970354,332,1609059046385970354,0.0206254564785,-0.00548872693829,0.0391197510946,0.00105442510657,0.000544536964407,0.00044279843268,0.999999197797,0.0,0.0,0.0,0.0,0.0,0.0
1609059046490759850,333,1609059046490759850,0.02667445905,-0.0103678601284,0.0157109330463,-0.000163660596248,-0.000214588365945,0.000654240205642,0.999999749568,0.0,0.0,0.0,0.0,0.0,0.0
1609059046593454599,334,1609059046593454599,0.016522601794,-0.00329663485,0.0108314223949,0.00146596650827,-0.000351483614338,0.000414394544798,0.999998777838,0.0,0.0,0.0,0.0,0.0,0.0
1609059046663716555,335,1609059046663716555,0.0245350150792,-0.00732485301937,0.0141026973427,0.00114734428699,-6.39677761236e-05,0.000551780096781,0.999999187523,0.0,0.0,0.0,0.0,0.0,0.0
1609059046765645981,336,1609059046765645981,0.0177863460936,-0.00491605278344,0.0176640716554,0.000559110275405,0.000329009208901,0.000573826828714,0.999999624935,0.0,0.0,0.0,0.0,0.0,0.0
1609059046868259430,337,1609059046868259430,0.0250974977609,-0.00421000535651,0.0122674597856,-0.000297270217329,0.000554443822951,0.000561992809551,0.999999644193,0.0,0.0,0.0,0.0,0.0,0.0
1609059046971613884,338,1609059046971613884,0.0346358680646,-0.00671014665031,0.0213857719035,0.000942034503988,-5.52992668305e-05,0.000468133286463,0.999999445181,0.0,0.0,0.0,0.0,0.0,0.0
1609059047074705601,339,1609059047074705601,0.0236081539839,0.00238777856137,0.0183881178906,0.00199277781397,-0.00082923131056,0.00045867531161,0.999997565411,0.0,0.0,0.0,0.0,0.0,0.0
1609059047177990913,340,1609059047177990913,0.0350549978425,-0.00546150704573,0.0266641726444,0.00020779047093,0.000292427910553,0.000426455409483,0.999999844722,0.0,0.0,0.0,0.0,0.0,0.0
1609059047281430960,341,1609059047281430960,0.0297373201995,-0.00298196305665,0.0290646906634,0.000560564553461,1.83390696695e-05,0.000561293166726,0.99999968519,0.0,0.0,0.0,0.0,0.0,0.0
1609059047383936882,342,1609059047383936882,0.0295055007549,-0.00525540857839,0.0299070625625,0.00129259945334,0.000375312628222,0.000363565507312,0.999999028072,0.0,0.0,0.0,0.0,0.0,0.0
1609059047486719131,343,1609059047486719131,0.0211428986244,-0.00762994835571,0.0271171656437,0.0011308273455,-0.000768974054468,0.000575563235415,0.999998899316,0.0,0.0,0.0,0.0,0.0,0.0
1609059047589714766,344,1609059047589714766,0.028734130668,-0.00757362463439,0.00210487262866,0.000758001207807,0.000298748883007,0.000545673999947,0.999999519211,0.0,0.0,0.0,0.0,0.0,0.0
1609059047692857027,345,1609059047692857027,0.0285940718992,-0.00634666878988,0.00854404749754,0.00132293626181,-1.52292895961e-05,0.000392047391711,0.999999047952,0.0,0.0,0.0,0.0,0.0,0.0
1609059047763252974,346,1609059047763252974,0.0260523094603,-0.00607698693242,0.0404255649201,-0.000316628565493,0.000494700111234,0.000447840480913,0.999999727228,0.0,0.0,0.0,0.0,0.0,0.0
1609059047865298033,347,1609059047865298033,0.0278039972351,-0.00299408849768,0.0335016875665,0.00311726579777,-0.000320457810722,0.000416833039541,0.999995003092,0.0,0.0,0.0,0.0,0.0,0.0
1609059047968552589,348,1609059047968552589,0.0231111072695,-0.0070981668715,0.0151098048868,0.00101694849553,-0.000134030059045,0.000522070043835,0.999999337646,0.0,0.0,0.0,0.0,0.0,0.0
1609059048071269751,349,1609059048071269751,0.0231879895581,-0.00544343326675,0.0347828847648,0.00116051036222,0.000379773422645,0.000403179367323,0.999999173216,0.0,0.0,0.0,0.0,0.0,0.0
1609059048174731731,350,1609059048174731731,0.025234453868,-0.00633866602547,0.0355900856431,0.00146067722005,-0.000147753568106,0.000603334122752,0.999998740288,0.0,0.0,0.0,0.0,0.0,0.0
1609059048278475761,351,1609059048278475761,0.023774007524,-0.00350439911867,0.000225419526445,0.000679836409535,-0.00042279046715,0.000354421421954,0.999999616727,0.0,0.0,0.0,0.0,0.0,0.0
1609059048380405903,352,1609059048380405903,0.0272588380885,-0.00769218997527,0.00516341468515,5.85102427915e-05,-0.000112827190306,0.000422310044913,0.99999990275,0.0,0.0,0.0,0.0,0.0,0.0
1609059048483576298,353,1609059048483576298,0.0153416404055,-0.0011350727543,0.024350150451,0.000839985363182,-2.24695840679e-05,0.000306679420441,0.999999599933,0.0,0.0,0.0,0.0,0.0,0.0
1609059048586679697,354,1609059048586679697,0.0181503338087,-0.00871242803949,0.0204297395306,0.00165187580601,-5.52810193517e-05,0.000637065170082,0.999998431197,0.0,0.0,0.0,0.0,0.0,0.0
1609059048689599276,355,1609059048689599276,0.0368623931777,-0.00841016504615,0.0466899484944,0.00133704699256,-0.000557550639988,0.000574230807617,0.999998785849,0.0,0.0,0.0,0.0,0.0,0.0
1609059048792554379,356,1609059048792554379,0.0329034019725,-0.00643699149942,0.0203167253223,0.000789994760506,0.000182532048304,0.000325706112589,0.999999618252,0.0,0.0,0.0,0.0,0.0,0.0
1609059048862896681,357,1609059048862896681,0.0254210207776,-0.00908982106593,-0.00574186679037,0.000859151835538,-0.000245539817944,0.000426069118265,0.999999510016,0.0,0.0,0.0,0.0,0.0,0.0
1609059048964834452,358,1609059048964834452,0.0167381333384,-0.00194459661798,0.0293379129534,0.00257650584421,0.000186118074393,0.00041926942194,0.999996575589,0.0,0.0,0.0,0.0,0.0,0.0
1609059049067944527,359,1609059049067944527,0.0197079184285,-0.00667261561438,0.0278233144697,0.00124613516662,0.000379084264517,0.00048666400656,0.999999033299,0.0,0.0,0.0,0.0,0.0,0.0
1609059049171260357,360,1609059049171260357,0.0282907766012,-0.00686950173835,0.00529054681576,-0.000393214349735,0.000435264084322,0.000576248024489,0.999999661932,0.0,0.0,0.0,0.0,0.0,0.0
1609059049275044203,361,1609059049275044203,0.034356985278,-0.0101838762596,0.000418396313489,0.000423657219233,-0.000128102717397,0.000485614359597,0.999999784141,0.0,0.0,0.0,0.0,0.0,0.0
1609059049377460003,362,1609059049377460003,0.0282950214666,-0.00692392433307,0.0153925191059,0.000639504359055,8.56600720328e-05,0.000531509905088,0.999999650596,0.0,0.0,0.0,0.0,0.0,0.0
1609059049480579853,363,1609059049480579853,0.0230147032408,-0.00784304339687,-0.00416842182713,0.00164658368052,-0.000776330807643,0.00041420093224,0.999998257253,0.0,0.0,0.0,0.0,0.0,0.0
1609059049583537102,364,1609059049583537102,0.0116099536509,-0.00989112009849,0.00505092962751,0.00139406419329,-0.000115007932962,0.00066426076632,0.999998801056,0.0,0.0,0.0,0.0,0.0,0.0
1609059049686330795,365,1609059049686330795,0.0174501508081,-0.00610048796193,0.0245177914014,0.00113392701959,-0.000209837697288,0.000542185248102,0.999999188105,0.0,0.0,0.0,0.0,0.0,0.0
1609059049789537191,366,1609059049789537191,0.0257154710943,-0.00826363092465,0.0311787733385,0.000879986123208,0.000182579211782,0.000532838564742,0.999999454185,0.0,0.0,0.0,0.0,0.0,0.0
1609059049893087626,367,1609059049893087626,0.0224431445644,-0.00793331562794,0.0266723582293,0.00146736550604,-3.78407502034e-05,0.000416565358729,0.999998835938,0.0,0.0,0.0,0.0,0.0,0.0
1609059049963385105,368,1609059049963385105,0.0390150081562,-0.00684425202589,0.027069653318,0.00077357965629,-0.000112609255302,0.000469776466236,0.999999584101,0.0,0.0,0.0,0.0,0.0,0.0
1609059050065565348,369,1609059050065565348,0.0244450860657,-0.00426741119019,0.0144970800302,0.00206646197316,-0.000129659575118,0.000423287491418,0.999997766872,0.0,0.0,0.0,0.0,0.0,0.0
1609059050169135571,370,1609059050169135571,0.0233554831677,-0.00650945911868,0.00659556754443,0.00130091506402,-0.000665706126703,0.000553620051867,0.999998778978,0.0,0.0,0.0,0.0,0.0,0.0
