%time,field.header.seq,field.header.stamp,field.pose.pose.position.x,field.pose.pose.position.y,field.pose.pose.position.z,field.pose.pose.orientation.x,field.pose.pose.orientation.y,field.pose.pose.orientation.z,field.pose.pose.orientation.w,field.twist.twist.linear.x,field.twist.twist.linear.y,field.twist.twist.linear.z,field.twist.twist.angular.x,field.twist.twist.angular.y,field.twist.twist.angular.z
1609045335811398745,46,1609045335811398745,-0.0182473757802,0.0140327137755,-0.00639682920483,-0.000834306217396,-0.000106694753932,-0.000194543520444,0.999999627351,0.0,0.0,0.0,0.0,0.0,0.0
1609045335916780472,47,1609045335916780472,-0.0193299226261,0.0136618241998,0.00885438122154,-0.00120816173809,-9.18092921151e-05,0.000125657448113,0.999999258063,0.0,0.0,0.0,0.0,0.0,0.0
1609045336017917395,48,1609045336017917395,-0.0162429749682,0.0147778490772,0.0085904598617,-0.000851153999326,0.000588779747264,0.000182138752888,0.99999944785,0.0,0.0,0.0,0.0,0.0,0.0
1609045336088628531,49,1609045336088628531,-0.0152603529677,0.016223903284,-0.0140583167205,-0.00161448783746,-0.000506102150382,-0.000130690090236,0.999998560104,0.0,0.0,0.0,0.0,0.0,0.0
1609045336191828728,50,1609045336191828728,-0.0290198797326,0.0151715498067,0.00778232231188,-0.00148961155124,-0.000188684844847,9.42897069041e-05,0.999998868282,0.0,0.0,0.0,0.0,0.0,0.0
1609045336293513298,51,1609045336293513298,-0.0233499682788,0.014999315638,0.00779128731042,-0.00137204212202,-0.000181216280324,-5.84915650471e-05,0.999999040619,0.0,0.0,0.0,0.0,0.0,0.0
1609045336398091078,52,1609045336398091078,-0.0205077055639,0.0155735037368,0.00386924672329,-0.00160952561287,-0.000106450835697,-0.000173202632936,0.999998684047,0.0,0.0,0.0,0.0,0.0,0.0
1609045336500437260,53,1609045336500437260,-0.0261630445909,0.0141877607148,0.00363168499698,-0.00139412453853,3.87251741087e-05,2.29578357804e-05,0.999999027195,0.0,0.0,0.0,0.0,0.0,0.0
1609045336602282047,54,1609045336602282047,-0.0129403660957,0.0143579800278,0.0206603825046,-0.00110896581192,0.00100035818178,0.000194294023539,0.999998865863,0.0,0.0,0.0,0.0,0.0,0.0
1609045336705238104,55,1609045336705238104,-0.0202929621589,0.0145396961381,0.005406246633,-0.000693799544405,-3.85485663557e-05,-0.00022804928413,0.999999732575,0.0,0.0,0.0,0.0,0.0,0.0
1609045336808584213,56,1609045336808584213,-0.0374482551656,0.0132248492732,0.00397148230149,-0.000974969137112,-0.000362270480872,0.000159407364362,0.999999446392,0.0,0.0,0.0,0.0,0.0,0.0
1609045336912001848,57,1609045336912001848,-0.0163751011189,0.0149593514974,0.0114920320513,-0.000968147068735,2.66923572709e-06,-5.63381628682e-05,0.999999529755,0.0,0.0,0.0,0.0,0.0,0.0
1609045337014822245,58,1609045337014822245,-0.0230412194205,0.0121265412779,0.00635917071534,-0.00114389289224,0.000169601148277,4.09443837458e-05,0.999999330534,0.0,0.0,0.0,0.0,0.0,0.0
1609045337117919207,59,1609045337117919207,-0.0215627404705,0.0132139375094,0.00955753968471,-0.00163913932558,0.000289491952601,0.000322649376454,0.999998562656,0.0,0.0,0.0,0.0,0.0,0.0
1609045337188594103,60,1609045337188594103,-0.0244934683395,0.0129805480804,0.00200577177214,-0.000913969636657,3.65878008098e-05,-0.000108801170675,0.999999575741,0.0,0.0,0.0,0.0,0.0,0.0
1609045337290141106,61,1609045337290141106,-0.0226857718704,0.0186733360385,-0.0091574926834,-0.000695683965246,-0.00040230681581,-0.000111628954871,0.999999670856,0.0,0.0,0.0,0.0,0.0,0.0
1609045337397142172,62,1609045337397142172,-0.0212148713176,0.0129545001544,0.00456150496431,-0.00192798252738,9.83005308428e-05,3.51406332528e-05,0.999998135991,0.0,0.0,0.0,0.0,0.0,0.0
1609045337500329256,63,1609045337500329256,-0.0305367208254,0.0144564363636,-0.00821508881339,-0.000523917079224,-0.000208114110111,3.97163356678e-05,0.999999840311,0.0,0.0,0.0,0.0,0.0,0.0
1609045337603694916,64,1609045337603694916,-0.024004699603,0.0138460562255,-0.00047148667417,-0.00093546187885,-0.000332472371702,-1.57347418144e-05,0.999999507063,0.0,0.0,0.0,0.0,0.0,0.0
1609045337708983660,65,1609045337708983660,-0.0332320682432,0.0188673571581,0.0106596933614,-0.000880537012447,0.000413145916557,6.53398902904e-05,0.999999524848,0.0,0.0,0.0,0.0,0.0,0.0
1609045337810515881,66,1609045337810515881,-0.00665887861189,0.0164480669973,-0.0109659861498,-0.00098491820434,-5.90761013784e-05,-1.83675502595e-05,0.999999513054,0.0,0.0,0.0,0.0,0.0,0.0
1609045337912483215,67,1609045337912483215,-0.0141135498998,0.0152894654535,-0.0115154697083,-0.00117725171799,-0.00053344953886,-0.000152559187826,0.999999153117,0.0,0.0,0.0,0.0,0.0,0.0
1609045338015405893,68,1609045338015405893,-0.0227441178209,0.0177794171678,-0.00168721838436,-0.00203362886195,-1.67303072133e-05,-0.000148061021038,0.999997921074,0.0,0.0,0.0,0.0,0.0,0.0
1609045338087409019,69,1609045338087409019,-0.0367872705226,0.0141073335673,0.00536047843773,-0.00177508437108,9.78120697548e-05,-0.000139526198682,0.999998410019,0.0,0.0,0.0,0.0,0.0,0.0
1609045338187905788,70,1609045338187905788,-0.0209970968402,0.0171438135429,0.00357634342014,-1.11791286148e-05,0.000218432110721,9.5154508095e-05,0.999999971554,0.0,0.0,0.0,0.0,0.0,0.0
1609045338291697502,71,1609045338291697502,-0.0296871006585,0.015239941721,0.0167707831423,-0.00110836543444,0.000253959383694,-0.000169445865962,0.999999339159,0.0,0.0,0.0,0.0,0.0,0.0
1609045338393827200,72,1609045338393827200,-0.031869635266,0.0162178544576,-0.011323078052,-0.00130855703119,-0.000188799406355,0.000326766422219,0.999999072628,0.0,0.0,0.0,0.0,0.0,0.0
1609045338496827364,73,1609045338496827364,-0.0271368940916,0.0155860382722,0.0122856161899,-0.00148782335226,0.000311152970212,9.09648734368e-05,0.999998840645,0.0,0.0,0.0,0.0,0.0,0.0
1609045338600276232,74,1609045338600276232,-0.0218550875755,0.0131658933418,-0.00561723967408,-0.00114784581208,-0.000163287484862,6.72979427507e-05,0.999999325629,0.0,0.0,0.0,0.0,0.0,0.0
1609045338704286098,75,1609045338704286098,-0.0230440557955,0.0190325496272,-0.00238691713734,-0.000874795390685,-9.11559610675e-05,-0.000375372111623,0.99999954276,0.0,0.0,0.0,0.0,0.0,0.0
1609045338806516171,76,1609045338806516171,-0.0234273357186,0.0141809851107,0.00074467789896,-0.00134892030754,-3.24325194937e-05,0.000105723940083,0.999999084092,0.0,0.0,0.0,0.0,0.0,0.0
1609045338909948111,77,1609045338909948111,-0.0278900776379,0.0167662318832,0.00631900244827,-1.02971523285e-05,0.000546420810975,8.58131443406e-05,0.999999846977,0.0,0.0,0.0,0.0,0.0,0.0
1609045339013799667,78,1609045339013799667,-0.00841372870662,0.0131544572404,-0.0108391704044,-0.000368229179237,0.000357577005648,3.81018714419e-06,0.999999868266,0.0,0.0,0.0,0.0,0.0,0.0
1609045339115771055,79,1609045339115771055,-0.0242416287323,0.0195371539334,-0.0089153310089,0.000533365522145,0.000215911441573,-3.07150963273e-05,0.99999983398,0.0,0.0,0.0,0.0,0.0,0.0
1609045339187283754,80,1609045339187283754,-0.0204084709782,0.0164167043466,-0.0192904992921,5.74458408321e-05,-0.000604729756726,-7.49281290616e-05,0.999999812694,0.0,0.0,0.0,0.0,0.0,0.0
1609045339287915945,81,1609045339287915945,-0.0231616698118,0.017001602162,0.00634925154055,9.78758712567e-05,0.000660370089575,-0.000255362103295,0.999999744561,0.0,0.0,0.0,0.0,0.0,0.0
1609045339390367746,82,1609045339390367746,-0.0264492420995,0.0146980623176,-0.00840053377574,0.000394536458487,-0.00022246045417,-4.24177402951e-05,0.999999896527,0.0,0.0,0.0,0.0,0.0,0.0
1609045339494981766,83,1609045339494981766,-0.0321775134642,0.0181187474127,-0.00999799411929,0.000552686531926,-0.000307716243778,0.000151096222413,0.999999788509,0.0,0.0,0.0,0.0,0.0,0.0
1609045339596716881,84,1609045339596716881,-0.0201417857295,0.0145639077502,-0.0184332798015,-6.64713652677e-05,0.000284047506641,-3.76167321014e-05,0.999999956742,0.0,0.0,0.0,0.0,0.0,0.0
1609045339699761629,85,1609045339699761629,-0.0279206806453,0.0142702805843,-0.00687794719726,0.000569028208782,0.000138722880561,-0.000126892193808,0.999999820431,0.0,0.0,0.0,0.0,0.0,0.0
1609045339802997589,86,1609045339802997589,-0.0230490984264,0.0184272570103,-0.00990098766714,0.000325629868634,-0.000100053937021,-1.19731720463e-05,0.999999941905,0.0,0.0,0.0,0.0,0.0,0.0
1609045339909308910,87,1609045339909308910,-0.023337099208,0.0123789551361,-0.00706288466091,0.00137271369508,0.000223942443679,-5.9380972469e-05,0.99999903099,0.0,0.0,0.0,0.0,0.0,0.0
1609045340013863087,88,1609045340013863087,-0.0100591890254,0.0182898810589,-0.0124901801213,0.000202021224736,6.16794525205e-05,-7.72325412531e-05,0.999999974709,0.0,0.0,0.0,0.0,0.0,0.0
1609045340115597486,89,1609045340115597486,-0.0261249368775,0.0175638322952,-0.00779387397082,0.000274771898354,0.000250528770788,-0.000216625793343,0.999999907404,0.0,0.0,0.0,0.0,0.0,0.0
1609045340187190771,90,1609045340187190771,-0.0220544887911,0.0185818775404,-0.0123817700896,8.35440616105e-05,0.00023163284742,3.58804136842e-05,0.99999996904,0.0,0.0,0.0,0.0,0.0,0.0
1609045340287374973,91,1609045340287374973,-0.0217637065046,0.0160699732902,-0.0206918124949,9.98712746609e-05,-0.000362412240572,-0.000105475511536,0.999999923779,0.0,0.0,0.0,0.0,0.0,0.0
1609045340390713930,92,1609045340390713930,-0.0136492486715,0.0170288384148,-0.0232723088181,0.000383834171176,7.88873311083e-05,-0.000250936933041,0.999999891739,0.0,0.0,0.0,0.0,0.0,0.0
1609045340494187832,93,1609045340494187832,-0.0273983318557,0.02163333898,-0.00924927378454,-0.00246745936936,0.000448910687429,-5.85413447116e-05,0.999996853343,0.0,0.0,0.0,0.0,0.0,0.0
1609045340596313238,94,1609045340596313238,-0.0239749059559,0.0178476359823,-0.00354319178413,-0.000184188736201,-5.58319520653e-05,0.000172678302278,0.99999996657,0.0,0.0,0.0,0.0,0.0,0.0
1609045340700003862,95,1609045340700003862,-0.0139336719273,0.0198153603844,-0.00868148517963,-0.00153299520057,-0.0002470221918,-0.000387698630185,0.999998719297,0.0,0.0,0.0,0.0,0.0,0.0
1609045340803018332,96,1609045340803018332,-0.0394335577659,0.0140155790585,-0.00741944357849,-0.00164312498483,-0.000304448478993,6.56427703749e-05,0.99999860157,0.0,0.0,0.0,0.0,0.0,0.0
1609045340906322241,97,1609045340906322241,-0.0284340909664,0.0187774638981,-0.00696026960714,-0.000861958645707,0.000249134229406,-0.000148575828469,0.999999586442,0.0,0.0,0.0,0.0,0.0,0.0
1609045341009449244,98,1609045341009449244,-0.0207416358954,0.0143829877052,-0.00341593458588,-0.000920549358125,0.000247446633472,-5.00214755896e-05,0.999999544428,0.0,0.0,0.0,0.0,0.0,0.0
1609045341112504005,99,1609045341112504005,-0.0295241695042,0.0209148090472,-0.0115788278792,-0.00163279393951,-0.000183863916012,-4.01957573126e-05,0.99999864928,0.0,0.0,0.0,0.0,0.0,0.0
1609045341215650797,100,1609045341215650797,-0.0170539249885,0.0150993891187,0.000485661175337,-0.00118405593306,3.55558184791e-05,-0.000102360198716,0.999999293135,0.0,0.0,0.0,0.0,0.0,0.0
1609045341287752867,101,1609045341287752867,-0.0326058567949,0.0150303825457,0.0018315346225,-0.000417565702099,4.60677395522e-05,4.12291989143e-05,0.999999910908,0.0,0.0,0.0,0.0,0.0,0.0
1609045341388721943,102,1609045341388721943,-0.0232308288429,0.0178614333151,0.00184531885218,-0.00165937101505,0.000427409768723,-0.000277993293391,0.999998493263,0.0,0.0,0.0,0.0,0.0,0.0
1609045341491290569,103,1609045341491290569,-0.0242104271768,0.0160236743309,0.00325393756577,-0.0013171253595,0.00050534908146,2.50723969223e-05,0.999999004587,0.0,0.0,0.0,0.0,0.0,0.0
1609045341593472004,104,1609045341593472004,-0.0287749042712,0.0133480663532,-0.0155154110936,-0.00147223365988,-0.000240139631714,1.45796240571e-05,0.999998887324,0.0,0.0,0.0,0.0,0.0,0.0
1609045341696659565,105,1609045341696659565,-0.0259884723637,0.0183703529409,-0.016133795913,-0.00144558718473,-0.000135209679036,-7.16769646224e-05,0.999998943429,0.0,0.0,0.0,0.0,0.0,0.0
1609045341799853325,106,1609045341799853325,-0.0278461955624,0.0171441298742,-0.0143631667001,-0.000744814105851,-6.99343273259e-05,-0.000187788894285,0.999999702548,0.0,0.0,0.0,0.0,0.0,0.0
1609045341903296709,107,1609045341903296709,-0.0230177569388,0.018643363899,-0.00271810334712,-0.00139588503719,0.000159532036233,-0.000119202700667,0.999999005922,0.0,0.0,0.0,0.0,0.0,0.0
1609045342006299496,108,1609045342006299496,-0.0341326791958,0.0164176578302,-0.00433131883605,-0.0018698889655,4.12426613428e-05,-0.000118994132266,0.999998243826,0.0,0.0,0.0,0.0,0.0,0.0
1609045342109455347,109,1609045342109455347,-0.0144875398673,0.0175121893814,0.00435763460463,-0.000943794784257,0.00101667592135,-3.52416530157e-05,0.999999037189,0.0,0.0,0.0,0.0,0.0,0.0
1609045342212546110,110,1609045342212546110,-0.0426161725227,0.0177838590618,0.00551246179949,-0.00160648601023,1.55423038911e-05,3.89143940684e-05,0.999998708723,0.0,0.0,0.0,0.0,0.0,0.0
1609045342288699865,111,1609045342288699865,-0.020512900303,0.0152446017277,-0.0267052177114,-0.000530276355797,-0.000519733006499,-0.000309170505421,0.999999676549,0.0,0.0,0.0,0.0,0.0,0.0
1609045342389137983,112,1609045342389137983,-0.0277280366411,0.0165987504728,-0.000108347536245,-0.00251348110124,0.000187887210541,8.64665633856e-05,0.999996819812,0.0,0.0,0.0,0.0,0.0,0.0
1609045342490695000,113,1609045342490695000,-0.035258108901,0.0124414927054,-0.0128415795994,-0.00146920444245,-0.00060087075658,-0.000153367771686,0.999998728435,0.0,0.0,0.0,0.0,0.0,0.0
1609045342593867064,114,1609045342593867064,-0.0227469495574,0.017226399063,0.00181309888082,-0.000849478530051,-3.64897827164e-05,-0.000192133851032,0.99999962007,0.0,0.0,0.0,0.0,0.0,0.0
1609045342696655512,115,1609045342696655512,-0.0275274463708,0.0133525635285,-0.0242077676944,-0.000277878552178,-0.000740940969771,-1.30400868668e-05,0.99999968681,0.0,0.0,0.0,0.0,0.0,0.0
1609045342799715996,116,1609045342799715996,-0.016845770197,0.0169839801338,-0.0243328023028,-0.00221399922545,-8.81419574294e-05,-0.000357512824195,0.999997481308,0.0,0.0,0.0,0.0,0.0,0.0
1609045342903791666,117,1609045342903791666,-0.0291412016941,0.0163874906686,-0.00819771187455,-0.00147565840319,2.82356425061e-05,6.71196117557e-05,0.999998908564,0.0,0.0,0.0,0.0,0.0,0.0
1609045343006029367,118,1609045343006029367,-0.0282023370413,0.0156939111464,0.000631187564053,-0.00180782710344,-9.8537314975e-05,-8.73114069868e-05,0.999998357213,0.0,0.0,0.0,0.0,0.0,0.0
1609045343109091997,119,1609045343109091997,-0.0438906945237,0.0180052580807,-0.00673489570419,-0.00135375926843,-0.000421157032262,7.65388931881e-05,0.999998992052,0.0,0.0,0.0,0.0,0.0,0.0
1609045343212695360,120,1609045343212695360,-0.0226442307523,0.0170398543228,-0.00917833299648,-0.00164862845569,-0.00010754917393,-5.23783626658e-05,0.999998633856,0.0,0.0,0.0,0.0,0.0,0.0
1609045343315571785,121,1609045343315571785,-0.0256226750298,0.0174781932811,-0.0144763481901,-0.000768894931148,-0.000469504791074,-0.000183989942298,0.999999577257,0.0,0.0,0.0,0.0,0.0,0.0
1609045343386935949,122,1609045343386935949,-0.0336584160034,0.0149765271161,-0.00110413122731,-0.000736072961637,5.32029086229e-05,-0.000175627915772,0.99999971226,0.0,0.0,0.0,0.0,0.0,0.0
1609045343487350464,123,1609045343487350464,-0.0250955178898,0.0170288018743,-0.00623408131689,-0.000260781832019,0.00012480541735,-2.08869941763e-05,0.99999995799,0.0,0.0,0.0,0.0,0.0,0.0
1609045343590838909,124,1609045343590838909,-0.0275996073269,0.0154363522542,-0.0244719233827,0.000139303465662,-0.000314894314024,-0.000168450548885,0.99999992653,0.0,0.0,0.0,0.0,0.0,0.0
1609045343694115400,125,1609045343694115400,-0.00970349864413,0.0172523721773,-0.024463977405,-0.000138968269547,0.000244254016672,-0.000154135121285,0.999999948635,0.0,0.0,0.0,0.0,0.0,0.0
1609045343797134638,126,1609045343797134638,-0.0122477466329,0.0159809623782,-0.0259931054555,0.000735718573195,-0.000121059274806,-0.000271422722269,0.999999685196,0.0,0.0,0.0,0.0,0.0,0.0
1609045343899625778,127,1609045343899625778,-0.0156699040817,0.0158023406583,-0.00809188517957,-0.000320515232833,0.000587326982466,-0.000107478480909,0.999999770383,0.0,0.0,0.0,0.0,0.0,0.0
1609045344002461910,128,1609045344002461910,-0.0250525469691,0.0172755029779,-0.0241775929271,-0.000374324218387,9.09358755437e-05,2.07314247948e-05,0.999999925591,0.0,0.0,0.0,0.0,0.0,0.0
1609045344110201120,129,1609045344110201120,-0.0278612382798,0.0183885914935,-0.0219971308528,0.00114231171884,-0.000611456420876,-0.000422260485376,0.99999907147,0.0,0.0,0.0,0.0,0.0,0.0
1609045344211615562,130,1609045344211615562,-0.0276660383902,0.0171252698104,-0.0227014141054,0.000810324702205,5.81444307405e-05,-0.000155434593487,0.999999657916,0.0,0.0,0.0,0.0,0.0,0.0
1609045344314786434,131,1609045344314786434,-0.0293319474436,0.0187587950717,-0.0312721852534,0.000151933546254,-0.000595534560653,-2.14341014114e-05,0.999999810898,0.0,0.0,0.0,0.0,0.0,0.0
1609045344386462450,132,1609045344386462450,-0.0302444268492,0.0196088897015,-0.00678526895003,-0.000149845518473,0.000348854990857,-0.000207739404355,0.999999906345,0.0,0.0,0.0,0.0,0.0,0.0
1609045344488031149,133,1609045344488031149,-0.0210317414752,0.0178342449176,-0.0135670061565,0.00053928486332,0.000406414870919,-4.33623554951e-05,0.999999771059,0.0,0.0,0.0,0.0,0.0,0.0
1609045344590209484,134,1609045344590209484,-0.0281196863381,0.0154367251846,-0.00472936197479,0.00085635319987,0.000224447258801,-0.000131173050323,0.999999599538,0.0,0.0,0.0,0.0,0.0,0.0
1609045344692486525,135,1609045344692486525,-0.0184647540423,0.0172537106025,0.000939753086656,0.000242734661325,0.000772554634598,-0.000362815178241,0.999999606302,0.0,0.0,0.0,0.0,0.0,0.0
1609045344795916557,136,1609045344795916557,-0.0216623233771,0.0160349420537,-0.0110987752763,0.000516376190087,0.000285992064102,-0.000310909506939,0.99999977745,0.0,0.0,0.0,0.0,0.0,0.0
1609045344899044991,137,1609045344899044991,-0.0311436963694,0.019770433558,-0.0224970616844,0.00120526450706,-0.000458742254516,-0.000125288556774,0.999999160597,0.0,0.0,0.0,0.0,0.0,0.0
1609045345002422571,138,1609045345002422571,-0.0259072305578,0.0174942304361,-0.0191786604915,-0.000100091208152,7.75116803077e-05,9.83497731543e-05,0.99999998715,0.0,0.0,0.0,0.0,0.0,0.0
1609045345105775118,139,1609045345105775118,-0.0306843378037,0.0153121198674,0.00448561190546,0.000699773735183,0.000242412660088,-2.62510992776e-05,0.999999725432,0.0,0.0,0.0,0.0,0.0,0.0
1609045345208669901,140,1609045345208669901,-0.0306403925621,0.0146536832904,-0.012906865451,0.001278535388,5.5777227055e-05,-0.000162559102997,0.999999167905,0.0,0.0,0.0,0.0,0.0,0.0
1609045345313393593,141,1609045345313393593,-0.020330927887,0.0170212969296,-0.00890597440854,0.000598983314938,0.000502417800566,-9.77680284588e-05,0.999999689618,0.0,0.0,0.0,0.0,0.0,0.0
1609045345415173054,142,1609045345415173054,-0.0250626312269,0.0132890131294,-0.0103880859717,-0.00116276523376,7.69648340982e-05,6.58420795216e-05,0.999999318859,0.0,0.0,0.0,0.0,0.0,0.0
1609045345487581253,143,1609045345487581253,-0.0246502562915,0.0159536074474,-0.0204628639011,6.72930224632e-05,-0.000332438084328,-0.000257209297145,0.9999999094,0.0,0.0,0.0,0.0,0.0,0.0
1609045345587464571,144,1609045345587464571,-0.0238866866352,0.0150497089661,-0.0146810488251,-0.000873902785795,0.00025076539554,-0.000102959772856,0.999999581405,0.0,0.0,0.0,0.0,0.0,0.0
1609045345691041470,145,1609045345691041470,-0.0328134745981,0.0147107475238,0.00730020674884,-0.00141815969499,0.00072236816039,-0.000236493307209,0.999998705538,0.0,0.0,0.0,0.0,0.0,0.0
1609045345793040752,146,1609045345793040752,-0.0307643039073,0.0172802354049,-0.00761308137662,-0.000868710397651,-0.000320037763454,-7.87310454576e-05,0.99999956836,0.0,0.0,0.0,0.0,0.0,0.0
1609045345895675421,147,1609045345895675421,-0.0302473766051,0.0176644969539,0.00785569581995,-0.000827626081901,0.000300934429398,5.41610713923e-05,0.99999961077,0.0,0.0,0.0,0.0,0.0,0.0
1609045345998785496,148,1609045345998785496,-0.0404184098311,0.0144765843107,-0.00938453856539,-0.000708482230983,-0.000229243453326,0.000118475732484,0.999999715732,0.0,0.0,0.0,0.0,0.0,0.0
1609045346102073669,149,1609045346102073669,-0.029674350718,0.0145644210784,-0.00121935948414,-0.00227341013542,0.000129291536398,-0.000252019009879,0.999997375685,0.0,0.0,0.0,0.0,0.0,0.0
1609045346204977989,150,1609045346204977989,-0.0393095509433,0.016049616832,-0.0051610483869,-0.00214961373693,-0.000104015812309,0.000222714796988,0.999997659367,0.0,0.0,0.0,0.0,0.0,0.0
1609045346308043718,151,1609045346308043718,-0.0292491151157,0.0143413784981,-0.0181858016592,-0.00106405400459,-0.000327963616853,0.000209801105729,0.999999358106,0.0,0.0,0.0,0.0,0.0,0.0
1609045346411984921,152,1609045346411984921,-0.0260028762834,0.0159116165058,0.0110457520099,-0.00206360535263,0.000623312824846,-0.000122745006726,0.999997668971,0.0,0.0,0.0,0.0,0.0,0.0
1609045346514856815,153,1609045346514856815,-0.0285319171133,0.0132471522842,0.0041667243485,-0.000674117066024,0.000244030578532,-0.000289945752328,0.999999700973,0.0,0.0,0.0,0.0,0.0,0.0
1609045346586501598,154,1609045346586501598,-0.0202303863877,0.016762355386,-0.00816213150944,-0.000829349317535,0.000152450296891,2.41572394512e-05,0.999999644177,0.0,0.0,0.0,0.0,0.0,0.0
1609045346687124491,155,1609045346687124491,-0.0311283894928,0.0170137318049,-0.00666278349422,-0.00167775016236,2.83801951745e-05,-0.000306146110909,0.999998545311,0.0,0.0,0.0,0.0,0.0,0.0
1609045346790635347,156,1609045346790635347,-0.0320198332095,0.0168524947684,0.0163429124378,-0.0018012574642,0.000817705554759,3.45340501968e-05,0.999998042816,0.0,0.0,0.0,0.0,0.0,0.0
1609045346892720222,157,1609045346892720222,-0.0364880669038,0.0135953997587,0.0040668796238,-0.00223143293635,0.000307513066891,0.000165706551905,0.999997449339,0.0,0.0,0.0,0.0,0.0,0.0
1609045346998457670,158,1609045346998457670,-0.0355731519434,0.0200227821696,-0.00529577854276,-0.000390511900426,-0.000420215033093,-0.000101364585637,0.999999830322,0.0,0.0,0.0,0.0,0.0,0.0
1609045347101622105,159,1609045347101622105,-0.0295519541865,0.0152201099404,-0.0103655705328,-0.00136558232849,-3.55660596611e-05,-4.227573813e-05,0.999999066066,0.0,0.0,0.0,0.0,0.0,0.0
1609045347206762791,160,1609045347206762791,-0.03280323851,0.0123802374507,-0.00717824544229,-0.00145710562319,0.000140183335317,-0.000127302449806,0.999998920492,0.0,0.0,0.0,0.0,0.0,0.0
1609045347309575319,161,1609045347309575319,-0.0351663258164,0.0124844266766,-0.00182765379273,-0.00145775362766,-0.000227292063026,-7.28066728739e-05,0.999998908995,0.0,0.0,0.0,0.0,0.0,0.0
1609045347410986900,162,1609045347410986900,-0.0365087649586,0.0165948563762,-0.00689045893413,-0.000900450312635,7.55303327151e-06,-0.000127411237115,0.999999586449,0.0,0.0,0.0,0.0,0.0,0.0
1609045347514247417,163,1609045347514247417,-0.022631330805,0.0186098800292,-0.00898264386513,0.000781289298321,0.000298150823962,-0.000141604102731,0.999999640321,0.0,0.0,0.0,0.0,0.0,0.0
1609045347586621046,164,1609045347586621046,-0.024368789499,0.0151045901361,-0.00653679118115,-0.000272786526811,7.43612551105e-05,0.000142515522243,0.999999949874,0.0,0.0,0.0,0.0,0.0,0.0
1609045347688697338,165,1609045347688697338,-0.0294849868704,0.0175262530306,-0.0102883289773,-0.000645414730901,-3.71876243478e-05,1.66469261032e-05,0.99999979089,0.0,0.0,0.0,0.0,0.0,0.0
1609045347795871496,166,1609045347795871496,-0.0207182824481,0.0158870177695,-0.0160657653651,-5.65313367621e-05,9.15626385927e-05,-0.000143095613611,0.999999983972,0.0,0.0,0.0,0.0,0.0,0.0
1609045347898435831,167,1609045347898435831,-0.0257811268259,0.0133569495272,-0.0110641369989,-0.000696964272612,-5.77258156377e-06,-0.00021356313489,0.999999734299,0.0,0.0,0.0,0.0,0.0,0.0
1609045348001751423,168,1609045348001751423,-0.0252465686996,0.0196838158544,-0.00112025316053,-0.000802030079439,-1.7206309239e-07,1.93012899484e-05,0.999999678187,0.0,0.0,0.0,0.0,0.0,0.0
1609045348105408907,169,1609045348105408907,-0.0353202071327,0.0129781379285,-0.00820168246968,-0.00124156192684,-0.000283906281504,0.00020391664009,0.999999168169,0.0,0.0,0.0,0.0,0.0,0.0
1609045348208961964,170,1609045348208961964,-0.0256993824555,0.0147060922414,-0.0105424427303,-0.00150092121887,-1.42558318751e-05,4.68493230835e-05,0.999998872418,0.0,0.0,0.0,0.0,0.0,0.0
1609045348310744524,171,1609045348310744524,-0.0340512442012,0.0185992314222,-0.017775531301,-0.00168477175953,-0.000284478851335,5.53592751933e-05,0.999998538774,0.0,0.0,0.0,0.0,0.0,0.0
1609045348413769960,172,1609045348413769960,-0.02195861692,0.0179251769824,-0.00441295460445,-0.00065954621713,0.000153984991838,-0.000212617510145,0.99999974804,0.0,0.0,0.0,0.0,0.0,0.0
1609045348485606909,173,1609045348485606909,-0.0485126693518,0.0178267539571,-0.00696092234986,-0.00175488154178,-0.000376059636899,5.91512230326e-05,0.999998387734,0.0,0.0,0.0,0.0,0.0,0.0
1609045348587266684,174,1609045348587266684,-0.024565780557,0.0190485452943,0.000513458648819,-0.0015173174076,0.000240317189561,-0.000372761289502,0.999998750521,0.0,0.0,0.0,0.0,0.0,0.0
1609045348696975470,175,1609045348696975470,-0.0258094494011,0.0131202989809,-0.0129995358959,0.00101030881295,-6.94460860335e-05,-0.00018855977151,0.999999469449,0.0,0.0,0.0,0.0,0.0,0.0
1609045348799931526,176,1609045348799931526,-0.0294550442806,0.0155919730623,-0.0226164050372,0.000567085934533,-0.000109091039375,9.72647927213e-05,0.999999828526,0.0,0.0,0.0,0.0,0.0,0.0
1609045348905345678,177,1609045348905345678,-0.0222879277733,0.0161977698418,-0.0163323984143,0.000816466060696,0.000491601773585,-0.000226410711364,0.999999520224,0.0,0.0,0.0,0.0,0.0,0.0
1609045349006385565,178,1609045349006385565,-0.0344786475768,0.017784119043,-0.0296280861461,-0.000139363033099,-0.000276030850676,-5.78325143504e-05,0.99999995052,0.0,0.0,0.0,0.0,0.0,0.0
1609045349109455109,179,1609045349109455109,-0.0324652827717,0.0171139228683,-0.0100922422155,0.000876782986436,0.000371585888571,-3.63947616556e-05,0.999999545925,0.0,0.0,0.0,0.0,0.0,0.0
1609045349213086843,180,1609045349213086843,-0.0314585825846,0.0189113399172,-0.0242572923171,0.000537032659795,5.27395195241e-05,-0.000337281926401,0.999999797528,0.0,0.0,0.0,0.0,0.0,0.0
1609045349315943480,181,1609045349315943480,-0.0351521157887,0.0184943321435,-0.0276996986118,0.00014484804334,-0.000304836287968,-7.17603465922e-05,0.999999940472,0.0,0.0,0.0,0.0,0.0,0.0
1609045349388207436,182,1609045349388207436,-0.0309064187762,0.0197161630974,-0.0222666023553,0.00128269853135,-0.000276553090841,-0.000183909081725,0.99999912219,0.0,0.0,0.0,0.0,0.0,0.0
1609045349487769604,183,1609045349487769604,-0.0226143330619,0.0185711737396,-0.0171200599292,7.95444737711e-05,0.000369126394212,-0.000201428243995,0.999999908422,0.0,0.0,0.0,0.0,0.0,0.0
1609045349590392113,184,1609045349590392113,-0.0449256013635,0.0163711572421,-0.00942922479389,0.000394773872713,-8.01441537722e-05,-6.69175780655e-05,0.999999916626,0.0,0.0,0.0,0.0,0.0,0.0
1609045349695022106,185,1609045349695022106,-0.0414745668991,0.020145725868,-0.0249679543934,-0.00043361443378,-6.74326246011e-05,0.00010569035469,0.99999989813,0.0,0.0,0.0,0.0,0.0,0.0
1609045349796919584,186,1609045349796919584,-0.0233967355016,0.0185699564152,-0.013277206582,0.00105350426022,0.000230880594906,-0.000335536218587,0.999999362119,0.0,0.0,0.0,0.0,0.0,0.0
1609045349900307417,187,1609045349900307417,-0.0199117085909,0.0182128614593,-0.0200946594188,-0.000390461250501,0.000387773931662,-4.89308447064e-05,0.999999847388,0.0,0.0,0.0,0.0,0.0,0.0
1609045350002583504,188,1609045350002583504,-0.0233566885423,0.019951185013,-0.0191501736613,-0.000523845208774,0.000247223470445,-0.000167966538212,0.999999818127,0.0,0.0,0.0,0.0,0.0,0.0
1609045350105497122,189,1609045350105497122,-0.0314964770938,0.0164452607588,-0.0194030030252,0.000239955773697,-2.69736760804e-05,-0.000206273794626,0.999999949572,0.0,0.0,0.0,0.0,0.0,0.0
1609045350208505154,190,1609045350208505154,-0.0336356738946,0.0180386156639,-0.0157995579321,0.000823346395126,-4.4933619186e-05,8.4027354066e-05,0.99999965651,0.0,0.0,0.0,0.0,0.0,0.0
1609045350313298464,191,1609045350313298464,-0.0333784650888,0.0196464900408,-0.00784201324376,0.000355921202047,0.000122281524028,-0.000308135285363,0.99999988171,0.0,0.0,0.0,0.0,0.0,0.0
1609045350414828539,192,1609045350414828539,-0.0267953562863,0.0173459482071,-0.00626224872714,0.000666658567894,0.000316742526221,-0.000302035892207,0.999999682007,0.0,0.0,0.0,0.0,0.0,0.0
1609045350485152006,193,1609045350485152006,-0.0333183797832,0.0209814966288,-0.0218978975135,-1.60168132364e-06,-0.000154047681558,-0.000452837854115,0.999999885602,0.0,0.0,0.0,0.0,0.0,0.0
1609045350587099075,194,1609045350587099075,-0.0358794405632,0.0199592639371,-0.021092516816,0.000960794743625,-0.000144307378671,0.000100672529351,0.999999522957,0.0,0.0,0.0,0.0,0.0,0.0
1609045350690142632,195,1609045350690142632,-0.0211038202504,0.0221707713059,-0.0244577623688,5.06293059478e-05,0.000214689719578,-0.000315980836632,0.99999992575,0.0,0.0,0.0,0.0,0.0,0.0
1609045350793951750,196,1609045350793951750,-0.0244174438079,0.0187475110641,-0.015524116262,0.000237008533916,0.000331255724685,-8.28863275195e-06,0.999999917014,0.0,0.0,0.0,0.0,0.0,0.0
1609045350898040295,197,1609045350898040295,-0.0331841440007,0.0184934035631,-0.0037276865329,-5.80258874147e-05,0.000943464736139,-0.000119277667861,0.99999954614,0.0,0.0,0.0,0.0,0.0,0.0
1609045350999653339,198,1609045350999653339,-0.0313487647745,0.0196304322062,-0.0235085267236,-0.000467729669813,-0.000252319512332,-4.37200480652e-05,0.999999857826,0.0,0.0,0.0,0.0,0.0,0.0
1609045351102971554,199,1609045351102971554,-0.0378187116599,0.0209214470183,-0.00246834477353,-0.00123901247137,7.29245155871e-05,-0.000192041023,0.999999211325,0.0,0.0,0.0,0.0,0.0,0.0
1609045351209684134,200,1609045351209684134,-0.02416083023,0.0194100499258,-0.0101417676604,-0.00180751468391,-8.97683861943e-05,-0.000398514884729,0.999998283007,0.0,0.0,0.0,0.0,0.0,0.0
1609045351313215733,201,1609045351313215733,-0.0290183791209,0.0229701602687,-0.0200725004469,-0.00149321853164,-0.000241766150333,-0.000204566392806,0.999998834999,0.0,0.0,0.0,0.0,0.0,0.0
1609045351415230751,202,1609045351415230751,-0.034039947093,0.0239171556521,-0.0187026388647,-0.00167045350886,-0.000374219343818,-0.000223686561276,0.999998509753,0.0,0.0,0.0,0.0,0.0,0.0
1609045351485807419,203,1609045351485807419,-0.0341132704589,0.0173250045242,-0.00885332323837,-0.00042242972049,0.00024512388005,-8.0721238083e-05,0.999999877476,0.0,0.0,0.0,0.0,0.0,0.0
1609045351587259054,204,1609045351587259054,-0.0372245916314,0.0212390041724,-0.0171080446703,-0.00191329492092,-4.89668020118e-05,1.86634211076e-05,0.999998168276,0.0,0.0,0.0,0.0,0.0,0.0
1609045351691784859,205,1609045351691784859,-0.0205381717505,0.0239084849047,-0.000518105183565,-0.00243261798353,0.000486769276831,-0.000173474164875,0.999996907661,0.0,0.0,0.0,0.0,0.0,0.0
1609045351793467522,206,1609045351793467522,-0.029606158247,0.0219978007893,-0.0182767569065,-0.000745536316732,-0.000467362330392,-0.000331675465799,0.999999557869,0.0,0.0,0.0,0.0,0.0,0.0
1609045351898072243,207,1609045351898072243,-0.0359153297511,0.0229941020341,-0.00573438453792,-0.00202707861666,-0.000154879748605,-0.000116725701141,0.999997926668,0.0,0.0,0.0,0.0,0.0,0.0
1609045352000270605,208,1609045352000270605,-0.0325828707194,0.0220245484964,-0.00346432083304,-0.000711063266395,1.08734831133e-05,-0.000111532376433,0.999999740915,0.0,0.0,0.0,0.0,0.0,0.0
1609045352103054047,209,1609045352103054047,-0.0267985595256,0.0219840643464,-0.0235977317887,-0.0016864395889,-4.52169300218e-05,-0.000164004462553,0.999998563489,0.0,0.0,0.0,0.0,0.0,0.0
1609045352205976248,210,1609045352205976248,-0.020496767796,0.0217931201088,-0.0278617933509,0.00109814311172,0.000121807462636,-0.000375699271006,0.999999319047,0.0,0.0,0.0,0.0,0.0,0.0
1609045352308958530,211,1609045352308958530,-0.0171613517195,0.020524091613,-0.0137358679354,0.000111635020074,0.000517426855215,-0.000339246980076,0.999999802359,0.0,0.0,0.0,0.0,0.0,0.0
1609045352412093401,212,1609045352412093401,-0.0312774652176,0.0211235336416,-0.0226460685215,-0.000309764883987,0.000624162837387,-9.098373492e-05,0.999999753094,0.0,0.0,0.0,0.0,0.0,0.0
1609045352514994860,213,1609045352514994860,-0.0280227436464,0.0214566836435,-0.0262870046888,-0.00176708712661,-0.000445532828407,-0.00036804466482,0.999998271722,0.0,0.0,0.0,0.0,0.0,0.0
1609045352585574865,214,1609045352585574865,-0.0312480978041,0.0220101934758,-0.00425732400919,-0.000834035102754,0.000361098584557,-0.000127967271723,0.999999578809,0.0,0.0,0.0,0.0,0.0,0.0
1609045352688294411,215,1609045352688294411,-0.0272464749864,0.020612223765,-0.00802020884682,-0.00103742960014,-4.2455010684e-05,-0.000114867255489,0.999999454371,0.0,0.0,0.0,0.0,0.0,0.0
1609045352810752392,216,1609045352810752392,-0.0433738011446,0.0196347013412,-0.00481296558777,-0.00184084916804,0.000154675602891,-0.000185471655213,0.999998276473,0.0,0.0,0.0,0.0,0.0,0.0
1609045352912395000,217,1609045352912395000,-0.0234929023564,0.0223358496118,-0.025251247427,-0.0013564841307,-0.000320939239208,-0.000320921719786,0.999998976978,0.0,0.0,0.0,0.0,0.0,0.0
1609045352985663891,218,1609045352985663891,-0.0319727744705,0.0166370987217,0.00127194950761,-0.00167444990099,0.000440648517619,7.85985543787e-05,0.999998497933,0.0,0.0,0.0,0.0,0.0,0.0
1609045353089899063,219,1609045353089899063,-0.0275084607631,0.0175138971897,-0.00807553311595,-0.000836072565497,7.31458249108e-05,-0.000187418295995,0.999999630253,0.0,0.0,0.0,0.0,0.0,0.0
1609045353192094326,220,1609045353192094326,-0.0275206734063,0.018633519386,-0.000457995670465,-0.00174169359049,0.000217018520146,7.10227024066e-05,0.99999845718,0.0,0.0,0.0,0.0,0.0,0.0
1609045353295518637,221,1609045353295518637,-0.0356853914402,0.0216148534424,-0.00900263061184,-0.00111964843108,9.75871667987e-05,-0.000231557200108,0.999999341622,0.0,0.0,0.0,0.0,0.0,0.0
1609045353397992611,222,1609045353397992611,-0.0251523740147,0.0156727552289,-0.0216232012586,-0.00258946574348,-0.000185405914981,-0.000267887806527,0.999996594258,0.0,0.0,0.0,0.0,0.0,0.0
1609045353503099918,223,1609045353503099918,-0.0289329022676,0.0193406776929,-0.000676122145058,-0.00174281793105,0.000277110189985,-0.000193304930888,0.999998424213,0.0,0.0,0.0,0.0,0.0,0.0
1609045353604874849,224,1609045353604874849,-0.0290983182879,0.02077888589,-0.0105406441689,-0.00169238708098,6.99836425219e-05,7.9342529832e-05,0.999998562315,0.0,0.0,0.0,0.0,0.0,0.0
1609045353707521677,225,1609045353707521677,-0.0339187026082,0.0157744893593,-0.00659079604972,-0.0015283464564,0.000130562217542,3.13932478582e-05,0.999998823062,0.0,0.0,0.0,0.0,0.0,0.0
1609045353810141087,226,1609045353810141087,-0.0158713474262,0.0225044635955,-0.0213793150675,-0.000864862671609,-7.51752393019e-05,-0.000193182228638,0.999999604521,0.0,0.0,0.0,0.0,0.0,0.0
1609045353913082361,227,1609045353913082361,-0.0174479172289,0.0166307523322,-0.0104252713384,-0.000366666434601,0.000597184144824,-0.000242872196385,0.99999972497,0.0,0.0,0.0,0.0,0.0,0.0
1609045353985041380,228,1609045353985041380,-0.0433087195081,0.0195550754484,-0.0182533179926,-0.00144148073625,-0.000561096453052,-1.9592160343e-06,0.999998803649,0.0,0.0,0.0,0.0,0.0,0.0
1609045354086913824,229,1609045354086913824,-0.0330455583696,0.0192703610765,-0.0178334810217,-0.00176660628639,-0.000225126166958,-0.000258375650646,0.99999838083,0.0,0.0,0.0,0.0,0.0,0.0
1609045354190468788,230,1609045354190468788,-0.0145926108849,0.0194980282303,-0.0129375166739,-0.00188959391881,0.000352344440542,-0.000412529692371,0.999998067552,0.0,0.0,0.0,0.0,0.0,0.0
1609045354291756392,231,1609045354291756392,-0.0305693563858,0.0210252760145,-0.0182219812761,-0.000989329857459,-0.000373590677629,-8.47189817699e-05,0.999999437239,0.0,0.0,0.0,0.0,0.0,0.0
1609045354399406195,232,1609045354399406195,-0.0302209064106,0.0214016476113,-0.0141189317428,-0.00105166361971,-0.00038887441657,-0.00014782540091,0.999999360464,0.0,0.0,0.0,0.0,0.0,0.0
1609045354506768465,233,1609045354506768465,-0.0312847971859,0.0235236404007,-0.0251134915148,-0.00153626972433,-0.000157838011015,-0.000161879951817,0.999998794378,0.0,0.0,0.0,0.0,0.0,0.0
1609045354608976126,234,1609045354608976126,-0.0466298244796,0.0186465349833,-0.018963484002,-0.000905546367978,-0.000406322083802,-0.000157342322926,0.999999495065,0.0,0.0,0.0,0.0,0.0,0.0
1609045354711973667,235,1609045354711973667,-0.0224025090824,0.0186305016967,-0.0184564522951,0.00068753108878,0.000240193424457,-0.000183724358449,0.999999717927,0.0,0.0,0.0,0.0,0.0,0.0
1609045354815203905,236,1609045354815203905,-0.0157330332571,0.0197143448078,-0.0249355557774,0.00128980641277,-3.05049286885e-06,-0.000105172833201,0.999999162664,0.0,0.0,0.0,0.0,0.0,0.0
1609045354887463808,237,1609045354887463808,-0.0374635143424,0.0187306997099,-0.0174747128084,0.000171730911782,-5.81248686107e-05,-7.31258243028e-05,0.999999980891,0.0,0.0,0.0,0.0,0.0,0.0
1609045354988752604,238,1609045354988752604,-0.027861850234,0.0231938035801,-0.014647675975,0.000440024115941,0.000229926277592,-0.000106558185211,0.999999871079,0.0,0.0,0.0,0.0,0.0,0.0
1609045355090165615,239,1609045355090165615,-0.0309252644358,0.0209966511332,-0.0165581682231,0.00191351706251,-3.22535473068e-05,-7.68608915842e-05,0.99999816575,0.0,0.0,0.0,0.0,0.0,0.0
1609045355193408489,240,1609045355193408489,-0.0280898348947,0.018407222185,-0.0248372953651,-0.000443930360233,-0.000198547661145,-0.000176634499999,0.999999866152,0.0,0.0,0.0,0.0,0.0,0.0
1609045355297468185,241,1609045355297468185,-0.0301540050249,0.0219394664788,-0.0184039260688,-0.00141016893362,-0.000430402160733,-0.000305866539094,0.999998866311,0.0,0.0,0.0,0.0,0.0,0.0
1609045355399901628,242,1609045355399901628,-0.0256661087793,0.0200759792214,-0.00868680418149,-0.0018065125283,6.1462420269e-05,-0.000242922625023,0.99999833686,0.0,0.0,0.0,0.0,0.0,0.0
1609045355503147602,243,1609045355503147602,-0.0356544684445,0.0229000934611,-0.00207226306741,-0.00111115886634,-0.000260098703149,-7.3226255937e-05,0.999999346156,0.0,0.0,0.0,0.0,0.0,0.0
1609045355605817556,244,1609045355605817556,-0.047971654972,0.0191412493466,-0.0223941217828,-0.00190137484425,-0.000818925936052,0.000125614118876,0.999997849175,0.0,0.0,0.0,0.0,0.0,0.0
1609045355709102631,245,1609045355709102631,-0.0316670213224,0.0227964910834,-0.00955645525522,-9.13320039919e-05,0.000414993668871,-0.000211159987149,0.999999887425,0.0,0.0,0.0,0.0,0.0,0.0
1609045355813329935,246,1609045355813329935,-0.0239177913794,0.024254316812,-0.0276241704648,-0.000102439836311,-0.000162407746877,-0.000221732737409,0.999999956982,0.0,0.0,0.0,0.0,0.0,0.0
1609045355885412693,247,1609045355885412693,-0.0290735216227,0.0227950247286,-0.0207054341147,0.00106739132656,0.00012563724642,-0.000169257231639,0.999999408121,0.0,0.0,0.0,0.0,0.0,0.0
1609045355987507582,248,1609045355987507582,-0.0294126782912,0.0180179790425,-0.0184539631871,0.00165259714359,-0.000207892757056,-5.37093177724e-05,0.999998611408,0.0,0.0,0.0,0.0,0.0,0.0
1609045356090442896,249,1609045356090442896,-0.0276867783471,0.0209481263201,-0.0186257657885,0.000510144374666,7.24768830019e-05,-0.000253367321736,0.999999835152,0.0,0.0,0.0,0.0,0.0,0.0
1609045356194350243,250,1609045356194350243,-0.0255144959932,0.0221515015312,-0.0196252375985,-0.000505148382525,0.000643413205919,-0.000251796780748,0.999999633721,0.0,0.0,0.0,0.0,0.0,0.0
1609045356302350998,251,1609045356302350998,-0.0271024962975,0.0246549681011,-0.0265212593637,-0.000138304817379,6.48212146736e-06,-0.000368979050653,0.999999922342,0.0,0.0,0.0,0.0,0.0,0.0
1609045356404291630,252,1609045356404291630,-0.0315412792477,0.0215978279628,-0.0231035001072,-0.00118415427663,-0.000314889362856,-0.000255959718462,0.999999216553,0.0,0.0,0.0,0.0,0.0,0.0
1609045356507346869,253,1609045356507346869,-0.0257824275488,0.0192079048345,-0.001600064833,-0.00129111369905,0.000576379016914,-0.000263951975894,0.99999896557,0.0,0.0,0.0,0.0,0.0,0.0
1609045356610558987,254,1609045356610558987,-0.0399365470574,0.0207500706616,-0.0140624372863,-0.00129586684795,-0.000597131076344,-9.39196828015e-05,0.999998977671,0.0,0.0,0.0,0.0,0.0,0.0
1609045356686925888,255,1609045356686925888,-0.0137746552019,0.0198551460483,-0.0218104261659,-0.000564346382454,0.000692676858059,-0.00043596830395,0.999999505821,0.0,0.0,0.0,0.0,0.0,0.0
1609045356789200544,256,1609045356789200544,-0.0414057190592,0.0209597829734,-0.0124515039554,-3.47725260149e-05,0.000454702569933,0.000165076814847,0.999999882393,0.0,0.0,0.0,0.0,0.0,0.0
1609045356891349077,257,1609045356891349077,-0.0331546158017,0.0224386931175,-0.00341385692828,8.2134989673e-05,0.000512615823868,-0.000380718412165,0.999999792766,0.0,0.0,0.0,0.0,0.0,0.0
1609045356994805098,258,1609045356994805098,-0.0273011136624,0.0199158761597,-0.0278768747391,0.000456220977518,1.52450549194e-05,-5.06941394135e-05,0.99999989453,0.0,0.0,0.0,0.0,0.0,0.0
1609045357098414183,259,1609045357098414183,-0.0294317008671,0.0227372553849,-0.0234695446377,0.00104445401406,4.39685793237e-05,-0.000206800837513,0.999999432208,0.0,0.0,0.0,0.0,0.0,0.0
1609045357203110933,260,1609045357203110933,-0.0313956749221,0.0197796430588,-0.0314307798495,0.000655598527816,-0.000624079621701,3.26052053918e-05,0.999999589826,0.0,0.0,0.0,0.0,0.0,0.0
1609045357303617477,261,1609045357303617477,-0.0217325051105,0.0227952689057,-0.0160249189961,-0.000244439833466,0.000530422848512,-0.000234301724392,0.999999802002,0.0,0.0,0.0,0.0,0.0,0.0
1609045357406641722,262,1609045357406641722,-0.0284081284136,0.0227064000087,-0.0289154167934,0.000573304564292,-6.4855441537e-05,8.74628438333e-06,0.999999833519,0.0,0.0,0.0,0.0,0.0,0.0
1609045357510225773,263,1609045357510225773,-0.0249717810107,0.0194501535769,-0.00396111457987,0.000150856840571,0.000248126232232,2.36611134744e-05,0.999999957558,0.0,0.0,0.0,0.0,0.0,0.0
1609045357613339901,264,1609045357613339901,-0.0361805573182,0.0209239273405,-0.0110540381963,0.000213004577608,0.000431639130718,-0.000153677221651,0.99999987235,0.0,0.0,0.0,0.0,0.0,0.0
1609045357685277224,265,1609045357685277224,-0.0286327850945,0.0216373749917,-0.0115341278715,0.000571045279909,0.000267420697835,-6.91956779435e-05,0.999999798802,0.0,0.0,0.0,0.0,0.0,0.0
1609045357785776377,266,1609045357785776377,-0.0429554162057,0.019610036254,-0.0216520683245,0.000383914959406,0.000265453959538,0.000122227248932,0.999999883602,0.0,0.0,0.0,0.0,0.0,0.0
1609045357890298128,267,1609045357890298128,-0.0248949500087,0.0215252859719,-0.024214678748,0.000171792839675,0.000120540573778,-0.000193090601718,0.999999959336,0.0,0.0,0.0,0.0,0.0,0.0
1609045357992337465,268,1609045357992337465,-0.0275863092012,0.0223226280232,-0.021915346519,0.000233267130563,9.8720629301e-05,-0.000190692948518,0.999999949738,0.0,0.0,0.0,0.0,0.0,0.0
1609045358095392942,269,1609045358095392942,-0.0274642592507,0.0218677385294,-0.0213909877447,0.00139210574292,-2.87992817482e-05,-6.54855832982e-05,0.999999028461,0.0,0.0,0.0,0.0,0.0,0.0
1609045358198256016,270,1609045358198256016,-0.0293319364306,0.0221523899708,-0.0192197488264,0.000441278987897,-7.65423539079e-05,-5.63279391489e-05,0.99999989812,0.0,0.0,0.0,0.0,0.0,0.0
1609045358301453352,271,1609045358301453352,-0.0303855264522,0.0232868939525,-0.0199587417135,2.3273544684e-06,0.00019778167722,-0.000509107747982,0.999999850843,0.0,0.0,0.0,0.0,0.0,0.0
1609045358404467106,272,1609045358404467106,-0.0428286654433,0.0241412087815,-0.0227217503425,-0.000398891251694,-0.000359924247579,0.000244621439272,0.99999982575,0.0,0.0,0.0,0.0,0.0,0.0
1609045358507656813,273,1609045358507656813,-0.027706458329,0.0201414326568,-0.0205044939074,-0.00155272580625,7.17554032519e-05,-4.42632164249e-05,0.999998790966,0.0,0.0,0.0,0.0,0.0,0.0
1609045358610873222,274,1609045358610873222,-0.0285564369666,0.0205027977188,-0.016781262202,-0.00128749485759,0.000760145455167,-0.000220790683008,0.999998857893,0.0,0.0,0.0,0.0,0.0,0.0
1609045358714367390,275,1609045358714367390,-0.0359731122993,0.0234231630033,-0.0145509697675,-0.000979214087188,0.000266991203875,-7.10989645183e-05,0.9999994824,0.0,0.0,0.0,0.0,0.0,0.0
1609045358785602093,276,1609045358785602093,-0.029356443619,0.0223941283701,-0.00955188679257,-0.000187902540422,0.00054148552904,-0.000168240277912,0.99999982159,0.0,0.0,0.0,0.0,0.0,0.0
1609045358886066198,277,1609045358886066198,-0.0149190656922,0.0228380050651,-0.0259881499638,-0.000885538204182,5.47867678101e-05,-0.0003547919249,0.999999543471,0.0,0.0,0.0,0.0,0.0,0.0
1609045358989746809,278,1609045358989746809,-0.0290759583651,0.024175181119,-0.0236453800966,-0.00045619273731,0.000111680653444,-0.000147637997294,0.999999878809,0.0,0.0,0.0,0.0,0.0,0.0
1609045359092562914,279,1609045359092562914,-0.0426771864736,0.0221209112785,-0.0209000013487,-0.000809212352018,-0.000566924181298,-2.11128160227e-05,0.999999511663,0.0,0.0,0.0,0.0,0.0,0.0
1609045359195134640,280,1609045359195134640,-0.0337386751742,0.0201173643333,0.000846446035803,-0.000937618287854,0.00050354094839,-0.000209550997526,0.999999411703,0.0,0.0,0.0,0.0,0.0,0.0
1609045359298776627,281,1609045359298776627,-0.0395111210312,0.0216415241878,-0.00596507549329,-0.000913984137012,0.00038763846003,-1.97105396198e-05,0.99999950699,0.0,0.0,0.0,0.0,0.0,0.0
1609045359401714087,282,1609045359401714087,-0.0350803934447,0.0223393485565,-0.0190160246859,-0.00102035882982,-0.000269511789409,0.000181897368735,0.999999426572,0.0,0.0,0.0,0.0,0.0,0.0
1609045359505680561,283,1609045359505680561,-0.0370403683236,0.0205231475384,-0.0155788948119,-0.00202462311984,-0.000477411967835,0.000113606556855,0.999997830034,0.0,0.0,0.0,0.0,0.0,0.0
1609045359607685328,284,1609045359607685328,-0.0265676855775,0.0199463061155,-0.0182071302616,0.000117324173902,0.000561432255036,-0.000149790253405,0.999999824296,0.0,0.0,0.0,0.0,0.0,0.0
1609045359710628748,285,1609045359710628748,-0.0320834092943,0.0225063425992,-0.0209240973015,0.000535027111161,-3.16131049149e-05,-0.000299376763769,0.99999981156,0.0,0.0,0.0,0.0,0.0,0.0
1609045359813669920,286,1609045359813669920,-0.0224605806127,0.023140155489,-0.0273510518652,0.000180062342882,0.000326722805034,-5.06014092627e-05,0.999999929134,0.0,0.0,0.0,0.0,0.0,0.0
1609045359885546923,287,1609045359885546923,-0.0249900591402,0.0218331048402,-0.0139020217437,0.000412039578966,0.000518392328161,-3.34955998248e-05,0.999999780185,0.0,0.0,0.0,0.0,0.0,0.0
1609045359985692263,288,1609045359985692263,-0.0403463751274,0.0254274639575,-0.00378998099219,-0.000623432980362,0.000810844952781,0.000145940964849,0.999999466281,0.0,0.0,0.0,0.0,0.0,0.0
1609045360089148521,289,1609045360089148521,-0.0303689672312,0.0223249001827,-0.0183444839695,0.0001621638988,0.000164112768856,-0.000238892103619,0.99999994485,0.0,0.0,0.0,0.0,0.0,0.0
1609045360191984177,290,1609045360191984177,-0.0435067774509,0.0189188785881,-0.0163218571327,0.000515373721098,1.59787128733e-05,9.87776726798e-05,0.999999862189,0.0,0.0,0.0,0.0,0.0,0.0
1609045360295139313,291,1609045360295139313,-0.0392562791422,0.0220862310775,-0.0402881719685,0.0014409144273,-0.000817072652831,-2.57950318551e-05,0.999998627745,0.0,0.0,0.0,0.0,0.0,0.0
1609045360398455143,292,1609045360398455143,-0.0306359188289,0.0231550538405,-0.0325625859973,0.000175368681313,-0.000340001980343,-0.000244848473108,0.999999896847,0.0,0.0,0.0,0.0,0.0,0.0
1609045360501318932,293,1609045360501318932,-0.0238977675184,0.0238120270013,-0.0301314107116,0.000470551135968,0.000184528930166,7.68809973408e-05,0.99999986931,0.0,0.0,0.0,0.0,0.0,0.0
1609045360604439735,294,1609045360604439735,-0.0359859820998,0.023083759419,-0.0156588256984,0.000217292187817,8.05189282011e-05,-0.000248955830023,0.999999942161,0.0,0.0,0.0,0.0,0.0,0.0
1609045360707864761,295,1609045360707864761,-0.0469603213232,0.0200983456248,-0.0266901825674,-0.000738936517671,-0.000499466110147,-1.12595013162e-05,0.99999960219,0.0,0.0,0.0,0.0,0.0,0.0
1609045360810515404,296,1609045360810515404,-0.0229359379493,0.0225134059845,-0.0214680175678,0.000222266651625,3.84719346002e-05,-7.52802823224e-05,0.999999971725,0.0,0.0,0.0,0.0,0.0,0.0
1609045360913424969,297,1609045360913424969,-0.0429851927939,0.0205737938701,-0.0187114212713,0.00024400486141,6.95709133163e-05,-0.000119054308593,0.999999960724,0.0,0.0,0.0,0.0,0.0,0.0
1609045360985363960,298,1609045360985363960,-0.0380161454097,0.0227522660747,-0.0236610331613,0.00035758454698,-0.000148762867134,-0.000215491753101,0.999999901783,0.0,0.0,0.0,0.0,0.0,0.0
1609045361084968567,299,1609045361084968567,-0.0410853153027,0.0194215184174,-0.0209914468281,0.000670894421596,7.92388122799e-05,-0.000113167244517,0.999999765407,0.0,0.0,0.0,0.0,0.0,0.0
1609045361188250065,300,1609045361188250065,-0.0312687126076,0.0236837018425,-0.0201901411583,-0.000151500775634,0.000186590827917,-2.92469225077e-05,0.999999970688,0.0,0.0,0.0,0.0,0.0,0.0
1609045361291419268,301,1609045361291419268,-0.0232172871766,0.0221600186776,-0.0189692628275,0.00118696266752,-7.51662866609e-05,-0.000180483399308,0.999999276447,0.0,0.0,0.0,0.0,0.0,0.0
1609045361394993782,302,1609045361394993782,-0.0306204224797,0.0234230042336,-0.027392956156,-0.000115156009052,0.000248102543434,-0.000232067344661,0.999999935664,0.0,0.0,0.0,0.0,0.0,0.0
1609045361497907877,303,1609045361497907877,-0.025541687981,0.0208756083967,-0.0348703805261,0.000204013664106,-0.000131448875107,-9.34962009541e-05,0.999999966179,0.0,0.0,0.0,0.0,0.0,0.0
1609045361601370335,304,1609045361601370335,-0.0328276999037,0.0248299918753,-0.019568019625,0.000931057721075,0.000324124436796,-4.16614179899e-05,0.999999513169,0.0,0.0,0.0,0.0,0.0,0.0
1609045361704350233,305,1609045361704350233,-0.0270487595564,0.0216227323587,-0.0249403165916,0.000491946243606,0.000149319224895,-0.000142518366121,0.99999985769,0.0,0.0,0.0,0.0,0.0,0.0
1609045361808081150,306,1609045361808081150,-0.0455230055188,0.024189120285,-0.0124545739549,0.000374677424477,-4.57120856573e-06,3.25805472306e-05,0.999999929267,0.0,0.0,0.0,0.0,0.0,0.0
1609045361911165953,307,1609045361911165953,-0.0358710959664,0.0243375975023,-0.0188932708559,0.000333841254548,0.000542801921775,-0.000123335615377,0.999999789352,0.0,0.0,0.0,0.0,0.0,0.0
1609045362014353037,308,1609045362014353037,-0.0347311567066,0.0207595406266,-0.0218487108529,0.000665564869387,0.000171634271198,-3.19418888742e-05,0.999999763272,0.0,0.0,0.0,0.0,0.0,0.0
1609045362086021185,309,1609045362086021185,-0.0328305656944,0.0241466971551,-0.0273233203313,0.000549046281168,4.94464056802e-05,-0.000129033103438,0.999999839727,0.0,0.0,0.0,0.0,0.0,0.0
1609045362186335564,310,1609045362186335564,-0.0358164767522,0.0228800804751,-0.00664925491522,-0.00093205614987,0.000456231010746,-9.8802597956e-05,0.999999456681,0.0,0.0,0.0,0.0,0.0,0.0
1609045362289305449,311,1609045362289305449,-0.0380136672702,0.0222554619481,-0.0231931793388,-0.000752640782768,-0.000857049717573,6.83437700552e-05,0.999999347163,0.0,0.0,0.0,0.0,0.0,0.0
1609045362392181873,312,1609045362392181873,-0.0347650381872,0.0224364035743,-0.0263792787582,-0.000338852236973,-4.45820123991e-05,-2.25013096226e-05,0.999999941342,0.0,0.0,0.0,0.0,0.0,0.0
1609045362495346308,313,1609045362495346308,-0.0265231518445,0.023857553747,-0.0208652466726,-0.000502003143402,1.1552583806e-05,-0.000308775491098,0.999999826258,0.0,0.0,0.0,0.0,0.0,0.0
1609045362598932266,314,1609045362598932266,-0.0327884349953,0.0236034437521,-0.0236324945299,0.00122985499103,0.000180752425943,-2.07385118316e-05,0.999999227177,0.0,0.0,0.0,0.0,0.0,0.0
1609045362701308966,315,1609045362701308966,-0.0240298728512,0.0243631265392,-0.0259236892493,-0.000620126251131,0.000305574168082,-0.000196955472969,0.999999741638,0.0,0.0,0.0,0.0,0.0,0.0
1609045362804370880,316,1609045362804370880,-0.014309280417,0.0242990384286,-0.0193077639259,0.000987514773468,0.000294759906507,-0.000422975728274,0.999999379511,0.0,0.0,0.0,0.0,0.0,0.0
1609045362907835245,317,1609045362907835245,-0.0410079407771,0.023852531447,-0.0273338569766,-0.00123555899715,-0.000515779710248,3.63817010529e-05,0.99999910302,0.0,0.0,0.0,0.0,0.0,0.0
1609045363010697126,318,1609045363010697126,-0.0481375468149,0.0207123030926,-0.0191130429751,-0.00077872423618,-0.000261984082815,0.000113108359262,0.999999656079,0.0,0.0,0.0,0.0,0.0,0.0
1609045363114089727,319,1609045363114089727,-0.0334430323102,0.0261511808974,-0.024252934574,0.000288382304356,0.000134798985055,-3.80365434627e-05,0.999999948609,0.0,0.0,0.0,0.0,0.0,0.0
1609045363185819626,320,1609045363185819626,-0.044909688517,0.0209032124832,-0.0264521101493,0.00115427150888,-0.000411086949472,0.000112199856865,0.999999243037,0.0,0.0,0.0,0.0,0.0,0.0
1609045363285911560,321,1609045363285911560,-0.0265650476928,0.0290197830502,-0.0270419153458,0.00075710033715,0.000230935195621,-0.00014063947671,0.999999676844,0.0,0.0,0.0,0.0,0.0,0.0
1609045363388725996,322,1609045363388725996,-0.0268861384943,0.0230818468575,-0.0300895084776,0.000621065787068,-2.31951122759e-05,-0.000142649682908,0.999999796695,0.0,0.0,0.0,0.0,0.0,0.0
1609045363491708279,323,1609045363491708279,-0.0360314381076,0.0221943371387,-0.015828522003,0.00118066752148,6.08661066414e-05,7.42766218508e-05,0.999999298401,0.0,0.0,0.0,0.0,0.0,0.0
1609045363594733715,324,1609045363594733715,-0.0296218705153,0.0237764375886,-0.0218594663522,0.0016873259403,4.27882410809e-05,-0.000180116053098,0.999998559328,0.0,0.0,0.0,0.0,0.0,0.0
1609045363697615147,325,1609045363697615147,-0.0286035157798,0.0268544887745,-0.0226818999096,-5.94494494163e-06,0.000112535360386,-0.000359114094969,0.999999929169,0.0,0.0,0.0,0.0,0.0,0.0
1609045363800681114,326,1609045363800681114,-0.0166968818497,0.0255908376695,-0.0291195042521,0.000617735975988,0.000658911135148,-0.000444746906829,0.999999493219,0.0,0.0,0.0,0.0,0.0,0.0
1609045363903729200,327,1609045363903729200,-0.0387460278077,0.0228803559233,-0.0225615198534,-0.000520146263981,-0.000321236011495,0.000126284983891,0.999999805153,0.0,0.0,0.0,0.0,0.0,0.0
1609045364006941557,328,1609045364006941557,-0.0361550439072,0.0257447363754,-0.0162258823403,-0.00106363242403,-0.000334807959869,-7.16999146556e-05,0.999999375724,0.0,0.0,0.0,0.0,0.0,0.0
1609045364110129118,329,1609045364110129118,-0.0337742567474,0.0212061028906,-0.0234157385858,-0.00138743935498,-0.000397113061227,-0.000160724453434,0.99999894574,0.0,0.0,0.0,0.0,0.0,0.0
1609045364213710546,330,1609045364213710546,-0.0322482389064,0.0243959816976,-0.0180845171762,-0.00164763016699,0.000114661311582,2.62679063958e-05,0.999998635738,0.0,0.0,0.0,0.0,0.0,0.0
1609045364285082340,331,1609045364285082340,-0.0410545134806,0.0261532670638,-0.00720336282716,-0.00164390119125,0.000134359067951,-2.11333695641e-05,0.999998639544,0.0,0.0,0.0,0.0,0.0,0.0
1609045364386230946,332,1609045364386230946,-0.0369857601321,0.0224112074812,-0.021392650366,-0.00159878819385,-0.000499722663474,0.000221103268104,0.999998572632,0.0,0.0,0.0,0.0,0.0,0.0
1609045364489332438,333,1609045364489332438,-0.0338924997223,0.0279431000031,-0.0326650109364,-0.00157737534035,-0.000512109225059,-2.02574376414e-06,0.999998624812,0.0,0.0,0.0,0.0,0.0,0.0
1609045364592608929,334,1609045364592608929,-0.0274786844072,0.0191575288828,-0.0207582137696,-0.00181825221799,-5.64947543901e-05,-1.36202056758e-05,0.999998345289,0.0,0.0,0.0,0.0,0.0,0.0
1609045364695767164,335,1609045364695767164,-0.0321373803125,0.024823626697,-0.0285292516526,6.58529605241e-05,-0.000111229600206,-0.000266752829884,0.999999956067,0.0,0.0,0.0,0.0,0.0,0.0
1609045364798545837,336,1609045364798545837,-0.0252645230648,0.0208189876821,-0.0430135416914,-0.000740112413414,1.76802326867e-07,0.000121661277517,0.999999718716,0.0,0.0,0.0,0.0,0.0,0.0
1609045364901334524,337,1609045364901334524,-0.0476550936611,0.0198552177847,-0.0430552903373,0.000312231184607,-0.0009693272635,0.000126283044494,0.999999473484,0.0,0.0,0.0,0.0,0.0,0.0
1609045365004579544,338,1609045365004579544,-0.0403666826239,0.0249904484139,-0.0252715295665,-0.000512747724109,-0.000451447972164,-0.00038225101224,0.999999693584,0.0,0.0,0.0,0.0,0.0,0.0
1609045365107018471,339,1609045365107018471,-0.0360922339162,0.0188575276409,-0.0282173163083,-0.000598628626032,-0.000279364430087,-0.000320737663689,0.999999730363,0.0,0.0,0.0,0.0,0.0,0.0
1609045365210525513,340,1609045365210525513,-0.0280606310112,0.023769852582,-0.0178358445022,0.000597324685029,0.00050661863557,-3.87808183142e-05,0.999999692518,0.0,0.0,0.0,0.0,0.0,0.0
1609045365313696146,341,1609045365313696146,-0.0233903085082,0.0184687297918,-0.0320236331319,0.000843905025956,-0.000179450844901,-0.000172455887156,0.99999961294,0.0,0.0,0.0,0.0,0.0,0.0
1609045365385290861,342,1609045365385290861,-0.0399397177963,0.0235830890014,-0.0123257309731,0.000664796803356,0.000162182209504,-6.77078276725e-05,0.999999763579,0.0,0.0,0.0,0.0,0.0,0.0
1609045365485653162,343,1609045365485653162,-0.0374718089853,0.0235497872953,-0.0142514375101,0.000986098959743,8.79324272435e-05,-0.000116541159452,0.999999503147,0.0,0.0,0.0,0.0,0.0,0.0
1609045365588698149,344,1609045365588698149,-0.0332786138417,0.0219682137064,-0.0269388090088,-0.000598320115275,3.14144741658e-05,0.000108414498517,0.999999814636,0.0,0.0,0.0,0.0,0.0,0.0
1609045365692038536,345,1609045365692038536,-0.0308853466916,0.0273338675749,-0.0241302081203,0.000590890594751,0.00014406655979,-2.42166479632e-05,0.999999814753,0.0,0.0,0.0,0.0,0.0,0.0
1609045365794976950,346,1609045365794976950,-0.0367740944132,0.0220522986214,-0.0201213422986,-8.96553289334e-05,0.000195513809591,0.000245712266075,0.999999946681,0.0,0.0,0.0,0.0,0.0,0.0
1609045365898022175,347,1609045365898022175,-0.0287688306269,0.0196368635478,-0.0215514256878,-0.00147582093211,0.000282554261534,-0.000214852015501,0.999998847976,0.0,0.0,0.0,0.0,0.0,0.0
1609045366001049995,348,1609045366001049995,-0.0256690566388,0.0256722080548,-0.014516975746,-0.00188093766189,0.000696442741876,-0.000318514600852,0.999997937792,0.0,0.0,0.0,0.0,0.0,0.0
1609045366104153156,349,1609045366104153156,-0.0387806417801,0.0245585516056,-0.00096975574696,-0.00179699036122,1.79359322629e-05,-2.87749135937e-05,0.999998384836,0.0,0.0,0.0,0.0,0.0,0.0
1609045366207203865,350,1609045366207203865,-0.0371361990735,0.0243740699133,-0.0251039122719,-0.00118985850499,-0.000342571494363,-3.83299362652e-05,0.999999232706,0.0,0.0,0.0,0.0,0.0,0.0
1609045366310371399,351,1609045366310371399,-0.0357001882064,0.0263119333692,-0.0119878922591,-0.00184245730713,0.000362909120385,-0.000222420712389,0.999998212087,0.0,0.0,0.0,0.0,0.0,0.0
1609045366413498163,352,1609045366413498163,-0.0287258753018,0.0279250025997,-0.0217606043083,-0.00152740163289,0.000328147998125,-0.000224344751928,0.999998754515,0.0,0.0,0.0,0.0,0.0,0.0
1609045366485341072,353,1609045366485341072,-0.0368149578331,0.0227676370606,-0.00516579149337,-0.00230006413455,-0.000332505851199,-0.000119239232559,0.99999729246,0.0,0.0,0.0,0.0,0.0,0.0
1609045366585705042,354,1609045366585705042,-0.0274786175724,0.0264174185611,-0.0175054157229,-0.00132497092927,-3.97543381973e-05,-0.000102000143167,0.999999116233,0.0,0.0,0.0,0.0,0.0,0.0
1609045366688740969,355,1609045366688740969,-0.0342307277769,0.0214493328512,-0.0221846557227,0.000267538683781,-0.000176075897241,7.68588819733e-05,0.999999945756,0.0,0.0,0.0,0.0,0.0,0.0
1609045366791900158,356,1609045366791900158,-0.0216524425129,0.0213026495116,-0.0227615558633,0.000274525012708,6.88084801619e-06,-0.000250881748276,0.999999930823,0.0,0.0,0.0,0.0,0.0,0.0
1609045366894932985,357,1609045366894932985,-0.0342011413601,0.0267960037448,-0.0326265243554,1.99611848534e-05,-0.000255234698209,-7.05092354019e-05,0.999999964742,0.0,0.0,0.0,0.0,0.0,0.0
1609045366998120070,358,1609045366998120070,-0.0504420163036,0.0229228087084,-0.0223701801876,0.00145737219822,-0.000427239395178,-0.000159146517164,0.999998834102,0.0,0.0,0.0,0.0,0.0,0.0
1609045367100878000,359,1609045367100878000,-0.0427813539875,0.0231611342447,-0.0291895920019,0.000119026979092,-0.000414369695944,5.44909207641e-05,0.99999990558,0.0,0.0,0.0,0.0,0.0,0.0
1609045367203890800,360,1609045367203890800,-0.0440099944402,0.024647026737,-0.0215220334332,0.00011299082382,-7.73496686336e-05,-0.000201249829088,0.999999970374,0.0,0.0,0.0,0.0,0.0,0.0
1609045367306923628,361,1609045367306923628,-0.0381021676055,0.0246907028125,-0.0186548345389,0.000945992766151,9.68098781924e-05,5.09171280961e-05,0.999999546566,0.0,0.0,0.0,0.0,0.0,0.0
1609045367410000801,362,1609045367410000801,-0.027778852096,0.0269173124748,-0.0243263149731,0.00093637682485,6.5401760452e-05,7.6439735238e-06,0.999999559431,0.0,0.0,0.0,0.0,0.0,0.0
