%time,field.header.seq,field.header.stamp,field.pose.pose.position.x,field.pose.pose.position.y,field.pose.pose.position.z,field.pose.pose.orientation.x,field.pose.pose.orientation.y,field.pose.pose.orientation.z,field.pose.pose.orientation.w,field.twist.twist.linear.x,field.twist.twist.linear.y,field.twist.twist.linear.z,field.twist.twist.angular.x,field.twist.twist.angular.y,field.twist.twist.angular.z
1609045335758650541,46,1609045335758650541,-0.00518664615413,-0.0166319195361,0.000442222079077,-0.000305088847485,8.12113717326e-05,0.000236342017876,0.999999922234,0.0,0.0,0.0,0.0,0.0,0.0
1609045335861435890,47,1609045335861435890,0.00863414543443,-0.0154147170823,0.00292404319481,0.000412899611362,-2.27018001265e-05,0.0002413470164,0.999999885375,0.0,0.0,0.0,0.0,0.0,0.0
1609045335933333397,48,1609045335933333397,0.0068402074135,-0.0164173812312,-0.000246901117609,0.000153912414404,-3.50106111926e-05,-8.95609445151e-05,0.999999983532,0.0,0.0,0.0,0.0,0.0,0.0
1609045336033698797,49,1609045336033698797,0.00359767310754,-0.0155980341598,-0.000330034657805,-9.45564090403e-05,-4.1648180916e-05,0.000370857996349,0.999999925894,0.0,0.0,0.0,0.0,0.0,0.0
1609045336137942791,50,1609045336137942791,0.00155797148757,-0.0120442241456,0.00243581164899,0.000404271604721,-3.00769766983e-05,0.000277106934346,0.999999879436,0.0,0.0,0.0,0.0,0.0,0.0
1609045336240868330,51,1609045336240868330,0.00726452415011,-0.0137118082102,-0.000489914238678,0.000372651635353,-8.03948440503e-05,-0.00020383402949,0.99999990656,0.0,0.0,0.0,0.0,0.0,0.0
1609045336342889309,52,1609045336342889309,-0.00071401952581,-0.0185796599792,0.00125906268342,0.000129221489462,4.78376495265e-05,0.000177966654019,0.999999974671,0.0,0.0,0.0,0.0,0.0,0.0
1609045336445773840,53,1609045336445773840,-0.00210615895644,-0.0145736149307,0.00123608945498,0.000374909421599,-2.9427883986e-05,0.00024601079851,0.999999899028,0.0,0.0,0.0,0.0,0.0,0.0
1609045336550275326,54,1609045336550275326,0.00672172011179,-0.0108854982144,-0.00067284106288,-0.000101975376028,-1.99626046238e-05,-7.03297699413e-05,0.999999992128,0.0,0.0,0.0,0.0,0.0,0.0
1609045336652543783,55,1609045336652543783,0.0077387803878,-0.0122772101274,0.00194041202887,0.000203761463266,0.00011998702636,-1.62898132797e-06,0.999999972041,0.0,0.0,0.0,0.0,0.0,0.0
1609045336755619526,56,1609045336755619526,0.00176722317726,-0.00812607690111,0.00139260851281,-6.35517499058e-05,-0.000159111110717,8.51893093959e-05,0.999999981694,0.0,0.0,0.0,0.0,0.0,0.0
1609045336858505249,57,1609045336858505249,-0.00418654151152,-0.0140909569276,-2.8113199252e-05,-1.19321983562e-05,2.11497599771e-05,0.000137552783317,0.999999990245,0.0,0.0,0.0,0.0,0.0,0.0
1609045336961292505,58,1609045336961292505,0.0166794776859,-0.0203898136648,0.00086266080828,-9.16314932071e-05,-7.39018925714e-05,-0.000104077873775,0.999999987655,0.0,0.0,0.0,0.0,0.0,0.0
1609045337034416199,59,1609045337034416199,-0.00026479060632,-0.00971669301413,0.00150401058826,0.000233521199234,7.45738982697e-05,0.000270264144486,0.999999933432,0.0,0.0,0.0,0.0,0.0,0.0
1609045337133888721,60,1609045337133888721,0.00774827432405,-0.0116142041965,0.0009610327617,0.000255516164366,-6.18154127717e-05,-9.06298310105e-05,0.999999961338,0.0,0.0,0.0,0.0,0.0,0.0
1609045337237661123,61,1609045337237661123,0.00316085783404,-0.01432799995,0.00164191935426,0.000120035720846,-7.84863950001e-05,1.49393718232e-05,0.999999989604,0.0,0.0,0.0,0.0,0.0,0.0
1609045337339965105,62,1609045337339965105,-0.0115019056537,-0.0127362329614,0.000385798883677,6.88754093882e-05,7.9570889108e-05,8.93697419426e-05,0.999999990469,0.0,0.0,0.0,0.0,0.0,0.0
1609045337442790270,63,1609045337442790270,0.00197936313021,-0.010879167564,0.00281226038195,0.000528622491423,-0.000180773109484,6.81340447935e-05,0.999999841619,0.0,0.0,0.0,0.0,0.0,0.0
1609045337550874710,64,1609045337550874710,0.00250562028017,-0.0130292221108,0.00197100510421,-0.0001441112279,0.000250939384908,0.000146551493875,0.999999947392,0.0,0.0,0.0,0.0,0.0,0.0
1609045337653517008,65,1609045337653517008,0.00368722674842,-0.0152146458124,-0.00124075555845,-0.000333761337292,-0.000244548673248,0.000184082392966,0.999999897456,0.0,0.0,0.0,0.0,0.0,0.0
1609045337758701324,66,1609045337758701324,0.0198476025212,-0.0127590081267,0.000522809223454,-9.224036701e-06,-0.000120972494637,6.55865729819e-06,0.999999992619,0.0,0.0,0.0,0.0,0.0,0.0
1609045337861159325,67,1609045337861159325,-0.0018888277826,-0.0116262553063,0.00142583562938,3.38480671376e-05,-0.000154696616247,0.000316366971195,0.999999937418,0.0,0.0,0.0,0.0,0.0,0.0
1609045337964150190,68,1609045337964150190,0.00320933557203,-0.0106995734953,-0.000406784237459,-0.000115434576248,9.28493725869e-05,3.9645295275e-05,0.999999988241,0.0,0.0,0.0,0.0,0.0,0.0
1609045338033470154,69,1609045338033470154,0.0110698300635,-0.0126922783655,0.000248085963305,3.18353186522e-06,-0.000110972688472,8.12813190514e-05,0.999999990534,0.0,0.0,0.0,0.0,0.0,0.0
1609045338135342360,70,1609045338135342360,0.00642334367619,-0.0126521908077,-2.53794015257e-05,0.000394593761104,-5.49953714427e-05,9.795591688e-05,0.999999915838,0.0,0.0,0.0,0.0,0.0,0.0
1609045338240126610,71,1609045338240126610,0.00889056789667,-0.0154344886011,-0.000324177052472,0.000107781785661,-6.39814944908e-05,0.000143191490531,0.999999981893,0.0,0.0,0.0,0.0,0.0,0.0
1609045338341446161,72,1609045338341446161,0.00340497868824,-0.01318792939,0.00123453247458,0.000187988977223,0.000190310758611,-0.000115254723706,0.999999957579,0.0,0.0,0.0,0.0,0.0,0.0
1609045338446226358,73,1609045338446226358,0.00477482633413,-0.0145990526664,-0.00107582858225,0.000381916480999,-3.44336651059e-06,0.000175007110776,0.99999991175,0.0,0.0,0.0,0.0,0.0,0.0
1609045338552102089,74,1609045338552102089,0.00952429938757,-0.0141695250797,-0.000266262382373,-0.000143135727036,-0.000142667675494,3.040322107e-05,0.999999979117,0.0,0.0,0.0,0.0,0.0,0.0
1609045338655307293,75,1609045338655307293,0.00492668304034,-0.0078684816847,0.00141138252447,0.000298867644032,-0.000114067082805,-2.16614426411e-06,0.999999948831,0.0,0.0,0.0,0.0,0.0,0.0
1609045338758886337,76,1609045338758886337,0.00191120947052,-0.00754729348335,0.000398528503806,-0.000190572477606,8.34157721239e-05,1.16097547087e-05,0.999999978295,0.0,0.0,0.0,0.0,0.0,0.0
1609045338861420393,77,1609045338861420393,0.0139691122636,-0.00982450979718,-0.000100997859494,-0.000350759731088,0.000206151850143,3.42522151428e-05,0.999999916648,0.0,0.0,0.0,0.0,0.0,0.0
1609045338933745861,78,1609045338933745861,0.00476342084812,-0.00803144644921,-4.40182236219e-05,0.000143392496716,9.47737884368e-06,-5.28135309572e-05,0.99999998828,0.0,0.0,0.0,0.0,0.0,0.0
1609045339033212900,79,1609045339033212900,-0.00337504613271,-0.0100814423986,-0.00237713665401,-0.000153495371105,1.4575447886e-05,0.00022756430526,0.999999962221,0.0,0.0,0.0,0.0,0.0,0.0
1609045339136552095,80,1609045339136552095,0.00807277590849,-0.01836313966,0.000582866128743,0.000581374674236,-0.000126643782391,0.00021391136032,0.999999800103,0.0,0.0,0.0,0.0,0.0,0.0
1609045339239628792,81,1609045339239628792,-0.0038539494028,-0.0131371001459,-0.000596869456492,-0.000181101794803,-7.93153258923e-05,0.000469584174745,0.999999870201,0.0,0.0,0.0,0.0,0.0,0.0
1609045339343123674,82,1609045339343123674,-0.007456564078,-0.0103669488378,-0.00131912139504,5.2546170539e-05,-0.000127527321202,0.00014944445921,0.999999979321,0.0,0.0,0.0,0.0,0.0,0.0
1609045339445812225,83,1609045339445812225,0.0058852131996,-0.0112456090222,0.0021243474629,0.000173966169527,0.00022820108668,5.53760679742e-05,0.999999957297,0.0,0.0,0.0,0.0,0.0,0.0
1609045339548739910,84,1609045339548739910,0.00902995806446,-0.00698807349197,0.00193050554491,-0.000315630389592,0.000117841757738,7.57860289497e-05,0.999999940374,0.0,0.0,0.0,0.0,0.0,0.0
1609045339651870966,85,1609045339651870966,-0.000649721725333,-0.0105749419404,-0.000890819151386,2.31285152599e-05,-0.000179176267316,0.000169976484466,0.999999969234,0.0,0.0,0.0,0.0,0.0,0.0
1609045339758233547,86,1609045339758233547,-0.00150639919575,-0.0123649659339,-8.42375644307e-05,0.000107578955882,0.00020690411839,0.000220027995587,0.999999948603,0.0,0.0,0.0,0.0,0.0,0.0
1609045339858290434,87,1609045339858290434,0.00929913573852,-0.0137857930199,-0.00195622061263,7.24845898513e-05,-9.34251318469e-05,-0.000140237002217,0.999999983176,0.0,0.0,0.0,0.0,0.0,0.0
1609045339961101532,88,1609045339961101532,0.0137221961402,-0.0150053690284,0.000859053735699,0.000201892369791,-0.000122869542657,0.000298709315873,0.999999927458,0.0,0.0,0.0,0.0,0.0,0.0
1609045340032992601,89,1609045340032992601,0.0011029294146,-0.0110925613354,0.00172447806564,0.000474937952896,-2.92951933048e-05,0.000189291031705,0.999999868872,0.0,0.0,0.0,0.0,0.0,0.0
1609045340133539200,90,1609045340133539200,0.0053037165079,-0.0123584872958,-0.00181550754872,-0.000270309040575,-0.000117853762856,0.000216606385518,0.999999933063,0.0,0.0,0.0,0.0,0.0,0.0
1609045340237145424,91,1609045340237145424,0.00809465201441,-0.00964976525722,0.000200570918004,0.000236461063766,6.8603691851e-05,0.000278390783085,0.999999930939,0.0,0.0,0.0,0.0,0.0,0.0
1609045340339724779,92,1609045340339724779,-0.00212433462465,-0.0127488294164,0.00088913342086,0.000272228325564,-0.00027563045911,0.000277968937413,0.999999886326,0.0,0.0,0.0,0.0,0.0,0.0
1609045340442773342,93,1609045340442773342,0.0140483910394,-0.00896260854852,-0.000501753441245,-0.000320100089352,0.00017290253623,-1.04526952606e-05,0.999999933766,0.0,0.0,0.0,0.0,0.0,0.0
1609045340546105385,94,1609045340546105385,0.00945908491495,-0.00989067395212,0.000390826550148,0.000203794596229,-2.46037861222e-05,-4.97749947927e-06,0.999999978919,0.0,0.0,0.0,0.0,0.0,0.0
1609045340649161816,95,1609045340649161816,0.0214025112842,-0.00997549520828,-0.000361754381357,-0.000177126284981,0.000176014812898,-6.51569898505e-06,0.999999968801,0.0,0.0,0.0,0.0,0.0,0.0
1609045340754080534,96,1609045340754080534,0.0104048807231,-0.0103525083632,0.00307882483277,0.000474776029384,-4.10545125161e-05,6.95164000805e-05,0.999999884035,0.0,0.0,0.0,0.0,0.0,0.0
1609045340855360270,97,1609045340855360270,0.0176158816831,-0.0117452871904,-0.000464776971527,7.376179729e-05,0.000311493471852,3.11468290985e-05,0.99999994828,0.0,0.0,0.0,0.0,0.0,0.0
1609045340958522320,98,1609045340958522320,0.00609795741976,-0.0181456307431,-0.0013430662023,0.000176160921335,-0.000138469626687,-5.16356951077e-05,0.999999973564,0.0,0.0,0.0,0.0,0.0,0.0
1609045341062419653,99,1609045341062419653,0.0120585883476,-0.0129909937367,-0.00147751082755,-0.00035165524138,-6.88467278931e-05,-0.00011463389057,0.999999929229,0.0,0.0,0.0,0.0,0.0,0.0
1609045341133512735,100,1609045341133512735,0.0109707934925,-0.0116746174457,-0.0002476163642,8.7762414253e-06,-0.000153650398511,-8.23001120815e-06,0.999999988123,0.0,0.0,0.0,0.0,0.0,0.0
1609045341233565092,101,1609045341233565092,0.0118751393462,-0.0176281010583,-0.000981279086294,0.000260894192978,-8.06573888854e-05,0.00012639311719,0.999999954727,0.0,0.0,0.0,0.0,0.0,0.0
1609045341337487936,102,1609045341337487936,0.00448789552614,-0.0100138403124,-0.00127970221129,-4.85387892853e-05,5.6832698367e-05,0.000274111384693,0.999999959638,0.0,0.0,0.0,0.0,0.0,0.0
1609045341439461708,103,1609045341439461708,0.00840776505212,-0.0154467998758,-0.00160539772942,-0.000554743830867,2.28069545982e-05,0.000410287511578,0.999999761702,0.0,0.0,0.0,0.0,0.0,0.0
1609045341543758631,104,1609045341543758631,0.00494954220121,-0.0123224009472,-0.00244044380889,-0.000118120520558,7.78043189394e-05,0.000252005960443,0.999999958243,0.0,0.0,0.0,0.0,0.0,0.0
1609045341645858526,105,1609045341645858526,0.00461539161961,-0.0133722584081,0.000371864305287,-1.94707188944e-05,-2.42092713901e-05,0.000228710559366,0.999999973363,0.0,0.0,0.0,0.0,0.0,0.0
1609045341748830557,106,1609045341748830557,0.0127854391574,-0.0119922000453,-0.00154914486288,0.000255267812258,-0.000235065387124,0.000181429776081,0.999999923333,0.0,0.0,0.0,0.0,0.0,0.0
1609045341852291107,107,1609045341852291107,0.0140271334545,-0.0181509569511,-0.000566836618677,0.000342357702557,-0.000187653957595,-3.33717649188e-05,0.999999923232,0.0,0.0,0.0,0.0,0.0,0.0
1609045341954957247,108,1609045341954957247,0.00477016580025,-0.0126782572247,-0.00209050360887,-0.000302791528175,6.880036577e-05,0.000256352786067,0.999999918933,0.0,0.0,0.0,0.0,0.0,0.0
1609045342058225393,109,1609045342058225393,0.0093324315659,-0.0152788153808,-0.000123737650383,0.000589617931495,-0.000108415770583,0.000153860706218,0.999999808462,0.0,0.0,0.0,0.0,0.0,0.0
1609045342161844015,110,1609045342161844015,0.00280165716031,-0.015158707494,-0.000937445971757,0.000192502445589,-6.05894143527e-05,-2.15634372002e-05,0.999999979403,0.0,0.0,0.0,0.0,0.0,0.0
1609045342232941628,111,1609045342232941628,0.0149437874495,-0.0163987379587,-0.0009542234755,-4.19371551909e-06,-6.9474994487e-07,8.42008448076e-05,0.999999996446,0.0,0.0,0.0,0.0,0.0,0.0
1609045342333453655,112,1609045342333453655,0.00726364615786,-0.0105129477311,-0.00280189029483,-7.65287976723e-05,4.09584071545e-05,0.000191379665365,0.99999997792,0.0,0.0,0.0,0.0,0.0,0.0
1609045342436954975,113,1609045342436954975,0.0121121776562,-0.011971148532,-0.000680320692464,0.000230303669377,-8.7584400836e-05,0.000101319738827,0.999999964512,0.0,0.0,0.0,0.0,0.0,0.0
1609045342540521145,114,1609045342540521145,-0.000752679497318,-0.0166218494394,-0.000480568791646,0.000108070814005,9.73914570039e-05,0.000279747548797,0.999999950288,0.0,0.0,0.0,0.0,0.0,0.0
1609045342642505169,115,1609045342642505169,-0.00653188578904,-0.0152715478505,-0.00134156888762,0.000195197715247,0.000113270659042,0.000370890779569,0.999999905754,0.0,0.0,0.0,0.0,0.0,0.0
1609045342745962620,116,1609045342745962620,0.021801036273,-0.0133097813398,-0.000458049553893,2.29555210072e-05,-0.000241118667281,5.29072418335e-05,0.999999969268,0.0,0.0,0.0,0.0,0.0,0.0
1609045342849233866,117,1609045342849233866,0.00180663906192,-0.0136144499751,-0.00167813539345,5.77504907652e-05,-1.53172443342e-05,0.000541187582112,0.999999851773,0.0,0.0,0.0,0.0,0.0,0.0
1609045342954205513,118,1609045342954205513,0.00821054962446,-0.0123872403592,-0.00144995994137,2.97679937826e-05,0.00014357430743,4.27110460375e-05,0.999999988338,0.0,0.0,0.0,0.0,0.0,0.0
1609045343033104181,119,1609045343033104181,0.00613874780913,-0.0147398809976,-0.0013406228729,-5.09863060157e-05,6.71963475792e-05,0.000233933974395,0.99999996908,0.0,0.0,0.0,0.0,0.0,0.0
1609045343133380413,120,1609045343133380413,0.00159463312741,-0.0162337690979,-0.0030607276206,0.000274455431824,-0.000156103301563,0.000209203664851,0.99999992827,0.0,0.0,0.0,0.0,0.0,0.0
1609045343236848354,121,1609045343236848354,0.0233848583725,-0.0145541795354,0.00141554778269,0.000627007531408,-1.33296375808e-05,7.30858907745e-05,0.999999800671,0.0,0.0,0.0,0.0,0.0,0.0
1609045343339487314,122,1609045343339487314,0.00786668785879,-0.0129349516734,-0.00127715043523,0.000375937021593,-0.000218596260422,-7.63649994746e-05,0.999999902528,0.0,0.0,0.0,0.0,0.0,0.0
1609045343443235874,123,1609045343443235874,0.0118619527188,-0.00709093255432,-0.00236775070038,-0.000291320960831,7.57623568763e-06,5.19512131966e-05,0.999999956188,0.0,0.0,0.0,0.0,0.0,0.0
1609045343545778036,124,1609045343545778036,0.00757692617893,-0.013144900692,-0.00164560233497,0.000205932906417,-1.06455248696e-06,4.85412427222e-05,0.999999977617,0.0,0.0,0.0,0.0,0.0,0.0
1609045343648859739,125,1609045343648859739,0.0134672528638,-0.0131184109097,0.000611194511569,0.000373869555615,-0.000239902109187,-0.000137203714951,0.999999891922,0.0,0.0,0.0,0.0,0.0,0.0
1609045343753595114,126,1609045343753595114,0.00414118387023,-0.013883568775,-0.00454480967098,-6.38926103981e-05,0.000140548295557,0.000422261232342,0.99999989893,0.0,0.0,0.0,0.0,0.0,0.0
1609045343854918242,127,1609045343854918242,0.0112881826507,-0.0103095981735,-0.000863199103927,-0.000111242030235,0.000113673119682,0.000326462830572,0.999999934063,0.0,0.0,0.0,0.0,0.0,0.0
1609045343962770462,128,1609045343962770462,0.00804124096962,-0.00635405936278,-0.00229885369345,0.000262553788484,-7.32408589448e-05,0.000165311204464,0.999999949187,0.0,0.0,0.0,0.0,0.0,0.0
1609045344032965899,129,1609045344032965899,0.0106658579816,-0.0150997996855,-0.00122462651179,-2.2268599426e-06,1.72632208708e-05,2.88957520379e-05,0.999999999431,0.0,0.0,0.0,0.0,0.0,0.0
1609045344135595798,130,1609045344135595798,0.00834264867251,-0.014853903016,-0.000607523335549,0.000314314706513,2.14941352303e-05,4.83966272059e-05,0.999999949201,0.0,0.0,0.0,0.0,0.0,0.0
1609045344237783432,131,1609045344237783432,0.00832144309014,-0.00821780683372,-0.00100421543074,0.000567437151383,-0.000215318593685,7.47062657171e-05,0.999999813036,0.0,0.0,0.0,0.0,0.0,0.0
1609045344340911865,132,1609045344340911865,0.00474102450935,-0.0178279611684,-0.00204070549812,-0.000118518120109,8.46872806409e-05,4.16278802763e-05,0.999999988524,0.0,0.0,0.0,0.0,0.0,0.0
1609045344444251537,133,1609045344444251537,0.0143236533834,-0.00790558230073,-0.00340303312754,-8.70482330253e-05,-9.18630288086e-05,0.000173802161773,0.999999976888,0.0,0.0,0.0,0.0,0.0,0.0
1609045344547606468,134,1609045344547606468,-0.000864494047492,-0.0138668031847,-0.00165193519322,4.50725594012e-05,-0.000146575737623,0.000265440192794,0.999999953013,0.0,0.0,0.0,0.0,0.0,0.0
1609045344650313616,135,1609045344650313616,0.0215185267762,-0.0132081775227,0.000842586236419,6.70982275366e-05,0.000204017203829,0.000116243473516,0.999999970181,0.0,0.0,0.0,0.0,0.0,0.0
1609045344753411770,136,1609045344753411770,0.0122796591987,-0.00804659240219,-0.00207865003531,4.62599349976e-06,0.000110702760547,-0.000155414834621,0.999999981785,0.0,0.0,0.0,0.0,0.0,0.0
1609045344856489182,137,1609045344856489182,0.0137882277895,-0.0117618102771,-0.00316375677983,1.89615940211e-05,-5.50217597481e-05,0.000118097250365,0.999999991333,0.0,0.0,0.0,0.0,0.0,0.0
1609045344959580660,138,1609045344959580660,0.009424586293,-0.0134343301815,-0.00105833900764,-8.14255331915e-05,-8.16128596281e-05,3.12421902809e-05,0.999999992866,0.0,0.0,0.0,0.0,0.0,0.0
1609045345064862967,139,1609045345064862967,0.00775092064831,-0.0155687141359,0.000346512713392,0.000569372492117,0.000124890859306,-0.000103087450677,0.999999824795,0.0,0.0,0.0,0.0,0.0,0.0
1609045345133845091,140,1609045345133845091,0.00897101598131,-0.0131720700906,-0.00249723407912,0.00031666382585,-0.000173310134696,0.000137196160733,0.999999925432,0.0,0.0,0.0,0.0,0.0,0.0
1609045345235022068,141,1609045345235022068,0.00606823798565,-0.0126677616758,-0.00265910097914,-0.000159128921008,-0.000129441830026,9.7634130011e-05,0.999999974195,0.0,0.0,0.0,0.0,0.0,0.0
1609045345337998629,142,1609045345337998629,0.0117010776626,-0.0181908718015,-0.00184358389833,0.00035116785089,-1.76747634483e-05,-4.71448563426e-05,0.999999937073,0.0,0.0,0.0,0.0,0.0,0.0
1609045345441191435,143,1609045345441191435,0.013592783567,-0.0142989597538,-0.00119594513716,6.84472009297e-05,-5.85605580713e-05,0.000139446631183,0.99999998622,0.0,0.0,0.0,0.0,0.0,0.0
1609045345544755220,144,1609045345544755220,0.00807526619695,-0.0179905423104,-0.00314206918786,-0.000302380007576,0.000101393141321,2.94170874442e-05,0.99999994871,0.0,0.0,0.0,0.0,0.0,0.0
1609045345647147894,145,1609045345647147894,0.00404134987377,-0.0114526981813,-0.00151076042577,9.42279925871e-05,-4.12062775446e-05,0.000179906049511,0.999999978528,0.0,0.0,0.0,0.0,0.0,0.0
1609045345750727177,146,1609045345750727177,0.00640216175279,-0.016864662812,-0.00210473031655,0.000280983059659,5.16916616352e-05,8.78813985963e-05,0.999999955327,0.0,0.0,0.0,0.0,0.0,0.0
1609045345853605032,147,1609045345853605032,0.00269900374921,-0.0102760212489,-0.00276572920343,-0.000166666385011,6.72404753295e-05,0.000253063323972,0.99999995183,0.0,0.0,0.0,0.0,0.0,0.0
1609045345956710339,148,1609045345956710339,0.011728752192,-0.0111964573105,-0.000940772552812,0.000105169450384,0.000158528884597,8.60398306542e-05,0.999999978202,0.0,0.0,0.0,0.0,0.0,0.0
1609045346059508562,149,1609045346059508562,0.00166410732825,-0.0159161019483,-0.00216495549613,-0.000104267502973,-2.98010518008e-05,0.000226352210642,0.999999968502,0.0,0.0,0.0,0.0,0.0,0.0
1609045346162642956,150,1609045346162642956,0.0110063564744,-0.010292195046,-0.00259560694963,0.000121530979554,-0.000195337105927,9.36671145481e-05,0.99999996915,0.0,0.0,0.0,0.0,0.0,0.0
1609045346234099865,151,1609045346234099865,0.00704924024462,-0.0134790486964,-0.0014617075074,-1.2940925238e-06,-0.000172068811446,0.000313706942281,0.999999935989,0.0,0.0,0.0,0.0,0.0,0.0
1609045346336392879,152,1609045346336392879,0.0123936225604,-0.0123773927361,-0.00183773505395,-0.00022777394284,2.04478966862e-05,-2.48235254528e-05,0.999999973542,0.0,0.0,0.0,0.0,0.0,0.0
1609045346439334869,153,1609045346439334869,0.0126148127623,-0.00848524305176,-0.00234408431917,3.72254150346e-05,5.51467389593e-05,-0.000106980771524,0.999999992064,0.0,0.0,0.0,0.0,0.0,0.0
1609045346542101145,154,1609045346542101145,0.0189307693173,-0.0116625463041,-0.00196509231634,-9.88364880582e-05,-5.15663480687e-05,-1.3382987743e-05,0.999999993696,0.0,0.0,0.0,0.0,0.0,0.0
1609045346644128084,155,1609045346644128084,0.0088897093985,-0.0140790034754,-0.00100163498641,0.000243768729569,1.32431712803e-05,-0.000120791695713,0.999999962905,0.0,0.0,0.0,0.0,0.0,0.0
1609045346747210026,156,1609045346747210026,0.000980074774216,-0.0115880048175,-0.000930734221259,5.04767758058e-06,-5.17558845884e-05,0.000295494191229,0.999999954989,0.0,0.0,0.0,0.0,0.0,0.0
1609045346850270033,157,1609045346850270033,0.000729190054954,-0.0152058340342,-0.00221287656744,-6.17266008669e-05,0.000101506147745,0.000260431763545,0.999999959031,0.0,0.0,0.0,0.0,0.0,0.0
1609045346956470013,158,1609045346956470013,0.00747110544888,-0.0127166777231,-0.00209258296224,3.33052462024e-05,-0.000167220167967,0.00036505660067,0.999999918831,0.0,0.0,0.0,0.0,0.0,0.0
1609045347061722517,159,1609045347061722517,0.00983966046471,-0.0102143502304,-0.0046777668107,-0.000364210554226,5.79203055862e-05,7.62186335586e-06,0.999999931969,0.0,0.0,0.0,0.0,0.0,0.0
1609045347133174658,160,1609045347133174658,0.012746188263,-0.0102653633501,-0.00271098059797,-6.90399281593e-05,2.95953351681e-05,5.1329778309e-05,0.999999995861,0.0,0.0,0.0,0.0,0.0,0.0
1609045347233131170,161,1609045347233131170,0.00950212623202,-0.0157015884946,-0.00327238190807,-5.89086402282e-05,3.4646003589e-05,0.000176787629371,0.999999982038,0.0,0.0,0.0,0.0,0.0,0.0
1609045347336453676,162,1609045347336453676,0.0104541151245,-0.00897948252817,-0.00244134156813,0.000155847988057,-7.89750629505e-06,-6.64153888138e-05,0.999999985619,0.0,0.0,0.0,0.0,0.0,0.0
1609045347443693876,163,1609045347443693876,0.0201480000006,-0.0131458002759,0.00202705281518,0.000509559237125,-5.77229033769e-05,0.000280780918546,0.99999982909,0.0,0.0,0.0,0.0,0.0,0.0
1609045347545498610,164,1609045347545498610,0.00735081921069,-0.0101587703293,-0.00216845619552,-9.62939648203e-05,0.000197560028771,0.000314406658562,0.999999926423,0.0,0.0,0.0,0.0,0.0,0.0
1609045347648868322,165,1609045347648868322,0.00374863822989,-0.00895162253884,-0.000680415906953,-3.77307332665e-05,0.000119254614041,0.000195737528649,0.999999973021,0.0,0.0,0.0,0.0,0.0,0.0
1609045347752139330,166,1609045347752139330,0.00948665963875,-0.0116092165778,-0.00205514322233,0.000202698386238,1.38635392198e-05,0.000208504934575,0.999999957623,0.0,0.0,0.0,0.0,0.0,0.0
1609045347856669664,167,1609045347856669664,0.00831630198648,-0.011782935573,-0.00217137158298,0.000294562151529,-0.000219627407487,0.000239938567983,0.999999903713,0.0,0.0,0.0,0.0,0.0,0.0
1609045347957723379,168,1609045347957723379,0.00715272799323,-0.0129243964242,-0.00215141972844,0.000460093053001,-9.8196513891e-05,0.000210939382028,0.999999867088,0.0,0.0,0.0,0.0,0.0,0.0
1609045348061068296,169,1609045348061068296,0.0122412458877,-0.012716269154,-0.00226210482449,-4.15387665983e-05,-7.39001916036e-05,8.34962052454e-05,0.999999992921,0.0,0.0,0.0,0.0,0.0,0.0
1609045348133418560,170,1609045348133418560,0.0102797245528,-0.0133815958649,-0.00214767709633,9.59108637884e-06,6.73823553278e-05,2.33812883707e-05,0.99999999741,0.0,0.0,0.0,0.0,0.0,0.0
1609045348232813835,171,1609045348232813835,0.0121209662324,-0.0135104994265,-0.000374704957439,0.000828292798213,-8.66860851077e-05,0.000243664189533,0.999999623522,0.0,0.0,0.0,0.0,0.0,0.0
1609045348336083889,172,1609045348336083889,0.0147938878095,-0.0164489937559,-0.00307910946092,-0.00018423061702,-3.33821243271e-05,0.000168374782032,0.999999968297,0.0,0.0,0.0,0.0,0.0,0.0
1609045348439252377,173,1609045348439252377,0.00198195900367,-0.0176001587237,-0.00679220339586,6.93414864603e-05,4.81764217469e-05,0.000137441389274,0.99999998699,0.0,0.0,0.0,0.0,0.0,0.0
1609045348542086363,174,1609045348542086363,0.00693077403169,-0.0190988968018,-0.00241944731003,0.000341693653129,-9.89405974819e-05,0.000179383823105,0.999999920639,0.0,0.0,0.0,0.0,0.0,0.0
1609045348645901680,175,1609045348645901680,-0.00256024011474,-0.0159964592984,-0.00373650919551,-0.000370519058964,9.22521872649e-05,0.000224853469177,0.999999901823,0.0,0.0,0.0,0.0,0.0,0.0
1609045348748370647,176,1609045348748370647,0.00827476396878,-0.0163336363453,-0.0015882672349,0.000349842126352,2.74296985809e-05,3.18456848445e-05,0.999999937922,0.0,0.0,0.0,0.0,0.0,0.0
1609045348851533890,177,1609045348851533890,0.0122080080405,-0.0235363311228,-0.00500443055677,0.000178955736793,-5.88681020636e-05,2.17991906206e-06,0.999999982252,0.0,0.0,0.0,0.0,0.0,0.0
1609045348954504967,178,1609045348954504967,-0.00322549605684,-0.0149236573297,-0.00210206914965,9.71878902564e-06,0.000173472623752,9.76479823734e-05,0.999999980139,0.0,0.0,0.0,0.0,0.0,0.0
1609045349057685137,179,1609045349057685137,0.0075390876174,-0.0151562802752,-0.00236557948383,0.000213529117144,0.000129159277676,7.13087744327e-05,0.999999966319,0.0,0.0,0.0,0.0,0.0,0.0
1609045349160915375,180,1609045349160915375,0.0185893642748,-0.0146935763376,-0.00213133641302,-0.000100457528201,-9.03822444063e-05,3.58761050039e-05,0.999999990226,0.0,0.0,0.0,0.0,0.0,0.0
1609045349233337164,181,1609045349233337164,0.00269903637616,-0.010742322035,-0.00537191364989,-0.000622876266472,0.000166788833799,0.000300040176904,0.999999747091,0.0,0.0,0.0,0.0,0.0,0.0
1609045349332709789,182,1609045349332709789,0.00213847452565,-0.0153147558387,-0.00359986688673,2.43519648395e-05,-8.96821562753e-06,0.000239847542838,0.9999999709,0.0,0.0,0.0,0.0,0.0,0.0
1609045349435904264,183,1609045349435904264,0.00956790287617,-0.0219005612832,-0.00387878704129,0.000257329909932,-0.000123620871258,2.7402164093e-05,0.999999958874,0.0,0.0,0.0,0.0,0.0,0.0
1609045349538886309,184,1609045349538886309,0.00797019423757,-0.0148879743733,-0.00507387801444,-3.75944025009e-05,3.85162451414e-05,0.000164680450986,0.999999984991,0.0,0.0,0.0,0.0,0.0,0.0
1609045349646875381,185,1609045349646875381,-0.00400511800226,-0.0162719180844,-0.00534080280843,3.2464114422e-06,-0.000213707553706,0.000250570380602,0.999999945766,0.0,0.0,0.0,0.0,0.0,0.0
1609045349749678612,186,1609045349749678612,0.00702597012315,-0.0143517083237,-0.00479753514761,-0.00010801066271,5.34541107652e-05,6.35653214083e-05,0.999999990718,0.0,0.0,0.0,0.0,0.0,0.0
1609045349859791279,187,1609045349859791279,0.0102878301261,-0.0165169547151,-0.00355831165068,0.000128459249142,-7.87835224299e-05,-8.50388508021e-05,0.99999998503,0.0,0.0,0.0,0.0,0.0,0.0
1609045349934590340,188,1609045349934590340,0.00332683965752,-0.0233131340595,-0.00193013010264,0.000496802841907,-0.000185151978894,0.000279030332403,0.999999820524,0.0,0.0,0.0,0.0,0.0,0.0
1609045350035774231,189,1609045350035774231,0.000652540337795,-0.0152317128973,-0.00448030841677,0.000336110227191,-7.68899160089e-05,0.000247382993,0.999999909959,0.0,0.0,0.0,0.0,0.0,0.0
1609045350139122725,190,1609045350139122725,0.00331865214219,-0.0171771990898,-0.00514431695031,-0.000342416012434,0.000127842830304,2.396001725e-06,0.999999933201,0.0,0.0,0.0,0.0,0.0,0.0
1609045350242171288,191,1609045350242171288,0.0137603179785,-0.0181144090208,-0.00370613538305,0.000167506504119,-0.000102292290274,-3.38708369218e-05,0.999999980165,0.0,0.0,0.0,0.0,0.0,0.0
1609045350346286535,192,1609045350346286535,0.00795303339608,-0.0140174189242,-0.00314207380451,-3.48212964386e-05,-5.97246665228e-05,0.000206518151287,0.999999976285,0.0,0.0,0.0,0.0,0.0,0.0
1609045350448590040,193,1609045350448590040,0.00895617301881,-0.0177196009339,-0.00504340726033,-2.74056875971e-05,-0.000122898846043,9.6450145939e-05,0.999999987421,0.0,0.0,0.0,0.0,0.0,0.0
1609045350550964355,194,1609045350550964355,0.0136657780659,-0.0161951018261,-0.00494498762644,-0.00027109351541,-0.000129413847696,3.49269371983e-05,0.99999995427,0.0,0.0,0.0,0.0,0.0,0.0
1609045350654372215,195,1609045350654372215,0.000890037464186,-0.0160791967985,-0.00402667664981,0.000147597782389,-5.65562056736e-05,0.000142371495254,0.999999977373,0.0,0.0,0.0,0.0,0.0,0.0
1609045350757294893,196,1609045350757294893,0.00324062939845,-0.0160543851824,-0.00344815790465,0.000845205185884,-0.000176815974741,0.000219071544387,0.999999603186,0.0,0.0,0.0,0.0,0.0,0.0
1609045350832198620,197,1609045350832198620,0.0127986091122,-0.0176990365719,-0.00248407321642,0.000421118342401,-0.000100824408452,7.22585409749e-06,0.99999990622,0.0,0.0,0.0,0.0,0.0,0.0
1609045350935307264,198,1609045350935307264,0.00458710945628,-0.0176578167874,-0.00295900157511,-9.35950911832e-05,-4.4785108566e-05,0.000153050687973,0.999999982905,0.0,0.0,0.0,0.0,0.0,0.0
1609045351038373709,199,1609045351038373709,0.00181896292641,-0.0161836711441,-0.00615088854513,-0.000223984781291,3.6226460286e-05,3.0712707227e-06,0.999999974254,0.0,0.0,0.0,0.0,0.0,0.0
1609045351142492056,200,1609045351142492056,-0.00834473974413,-0.0186671808148,-0.00269709782383,0.000661442685591,-0.000202429725378,0.000414879333953,0.999999674695,0.0,0.0,0.0,0.0,0.0,0.0
1609045351246604443,201,1609045351246604443,0.00768840017917,-0.0147072842014,-0.00453584418105,7.59982141949e-05,-2.4536585692e-06,4.61939162079e-05,0.999999996042,0.0,0.0,0.0,0.0,0.0,0.0
1609045351352691650,202,1609045351352691650,0.0102205521567,-0.0174679674649,-0.00274542823548,0.000421388392338,-0.000142791879862,6.0972005919e-05,0.999999899162,0.0,0.0,0.0,0.0,0.0,0.0
1609045351455860376,203,1609045351455860376,0.00955761958699,-0.0230633768572,-0.00391140872019,0.000286833383418,-0.000154197504185,-0.000144326952936,0.999999936559,0.0,0.0,0.0,0.0,0.0,0.0
1609045351558960199,204,1609045351558960199,0.0105006993173,-0.0136647489685,-0.00311664711371,0.00043523644433,-0.000125243109171,8.80857746283e-05,0.999999893562,0.0,0.0,0.0,0.0,0.0,0.0
1609045351662139416,205,1609045351662139416,0.00898775629065,-0.015054220732,-0.00467547173446,-0.000251140930561,-0.000210377260393,-3.3323645494e-05,0.999999945779,0.0,0.0,0.0,0.0,0.0,0.0
1609045351733428001,206,1609045351733428001,-0.000248126442886,-0.0225607250341,-0.00509376454002,-0.000116252309892,0.000180907772202,0.000157466002889,0.999999964481,0.0,0.0,0.0,0.0,0.0,0.0
1609045351833963394,207,1609045351833963394,-0.0017368710009,-0.0111733409012,-0.0044683727672,-0.000113697974115,2.27413653716e-05,9.96257367363e-05,0.999999988315,0.0,0.0,0.0,0.0,0.0,0.0
1609045351937256813,208,1609045351937256813,0.0135218522227,-0.0194223871409,-0.00218514931479,0.000243783595945,0.000150129896219,-0.000174559847298,0.999999943779,0.0,0.0,0.0,0.0,0.0,0.0
1609045352041355848,209,1609045352041355848,0.00532312496512,-0.0188198745562,-0.00418956429925,-0.000109537734093,8.22733853231e-05,0.000221117262366,0.99999996617,0.0,0.0,0.0,0.0,0.0,0.0
1609045352143471479,210,1609045352143471479,0.000735840743191,-0.0205076300541,-0.00538965752141,-2.32150604882e-05,-0.000127845536191,0.000182116654357,0.999999974975,0.0,0.0,0.0,0.0,0.0,0.0
1609045352247821569,211,1609045352247821569,0.00771520324565,-0.0196235624775,-0.00439906329448,0.000115270425604,-0.000224722783735,0.000188835159914,0.999999950276,0.0,0.0,0.0,0.0,0.0,0.0
1609045352351258755,212,1609045352351258755,0.0139118820347,-0.0122271985172,-0.00394510582578,-8.93387753171e-05,-0.000263659764475,0.000260327312952,0.999999927366,0.0,0.0,0.0,0.0,0.0,0.0
1609045352453060389,213,1609045352453060389,0.0142652089422,-0.0208085715912,-0.00200030633071,0.00063774709572,-0.000217327591542,-0.000139604232159,0.999999763279,0.0,0.0,0.0,0.0,0.0,0.0
1609045352555871964,214,1609045352555871964,0.000420759268411,-0.0187856209436,-0.00540488364265,5.22011348599e-05,2.43975683909e-05,0.000288322389664,0.999999956775,0.0,0.0,0.0,0.0,0.0,0.0
1609045352658162355,215,1609045352658162355,0.00709583866548,-0.0195212003806,-0.00425258072329,0.000219161210214,-6.81703326997e-05,9.39006689051e-05,0.999999969252,0.0,0.0,0.0,0.0,0.0,0.0
1609045352761680603,216,1609045352761680603,-0.000110703842227,-0.0141837349658,-0.00409027486038,-2.74805439147e-05,-0.000137226935065,0.000257785839653,0.99999995698,0.0,0.0,0.0,0.0,0.0,0.0
1609045352831988335,217,1609045352831988335,0.00470664500111,-0.0164059238639,-0.00441686682727,-0.000104441393614,-2.75315561862e-05,0.0001454484627,0.999999983589,0.0,0.0,0.0,0.0,0.0,0.0
1609045352934341669,218,1609045352934341669,0.00182527565579,-0.0186846518283,-0.00474570087613,0.000134146218269,-0.000100864376965,4.73701266442e-05,0.999999984793,0.0,0.0,0.0,0.0,0.0,0.0
1609045353037779808,219,1609045353037779808,0.0088535687188,-0.0149622357884,-0.00279016848928,0.000434987343629,8.41280606553e-05,0.000236982788804,0.999999873773,0.0,0.0,0.0,0.0,0.0,0.0
1609045353140322447,220,1609045353140322447,-0.00246392503251,-0.0189979103738,-0.00517955972865,0.000410987573632,-0.000286157921099,0.000371409772152,0.999999805628,0.0,0.0,0.0,0.0,0.0,0.0
1609045353243667364,221,1609045353243667364,0.0138782934458,-0.0192575202586,-0.00336250431955,0.000157110800854,1.07259604294e-05,-0.000141466664763,0.999999977594,0.0,0.0,0.0,0.0,0.0,0.0
1609045353346687794,222,1609045353346687794,0.0025441775755,-0.0197517950071,-0.00307574358086,0.000259426775253,-8.75253822053e-06,0.000526687855758,0.99999982761,0.0,0.0,0.0,0.0,0.0,0.0
1609045353449728012,223,1609045353449728012,0.00778771756971,-0.0192187789092,-0.00507346494113,-0.000197561227308,6.96305008898e-06,0.000301287775373,0.999999935073,0.0,0.0,0.0,0.0,0.0,0.0
1609045353553205967,224,1609045353553205967,0.0151917778692,-0.0125895330344,-0.00377210959459,-0.00010712460417,0.000121773702415,-6.05858137743e-05,0.999999985012,0.0,0.0,0.0,0.0,0.0,0.0
1609045353655855894,225,1609045353655855894,0.0042431536654,-0.0156826834331,-0.00274903480019,7.03013167367e-05,0.00015495868646,-5.56591130748e-05,0.999999983973,0.0,0.0,0.0,0.0,0.0,0.0
1609045353758787870,226,1609045353758787870,0.00334323801125,-0.0209294759996,-0.00386738033416,-6.87089096553e-05,0.000124146821133,0.00033589511494,0.99999993352,0.0,0.0,0.0,0.0,0.0,0.0
1609045353862223864,227,1609045353862223864,0.00569756904456,-0.0168525464711,-0.00422405675629,-0.000279907370134,-8.59712867059e-05,0.000292200270057,0.999999914439,0.0,0.0,0.0,0.0,0.0,0.0
1609045353932296038,228,1609045353932296038,0.0053692611159,-0.0131642280412,-0.00416005381012,0.000100609498793,-5.14857366917e-05,0.000158231966548,0.999999981094,0.0,0.0,0.0,0.0,0.0,0.0
1609045354034006596,229,1609045354034006596,0.00100569116915,-0.0219560925706,-0.00347239931383,7.48597223665e-06,-0.000126700251317,0.000347802556208,0.999999931462,0.0,0.0,0.0,0.0,0.0,0.0
1609045354137630463,230,1609045354137630463,-0.000280261138619,-0.0193179630878,-0.00596839144456,-7.72261725535e-05,5.21680697554e-05,0.000288522742421,0.999999954034,0.0,0.0,0.0,0.0,0.0,0.0
1609045354240041018,231,1609045354240041018,0.00359931077908,-0.0187391465844,-0.00477889518944,0.000148239917582,-0.00013764999295,0.000362964807357,0.999999913666,0.0,0.0,0.0,0.0,0.0,0.0
1609045354345477819,232,1609045354345477819,0.0104996589806,-0.016691142641,-0.00688358356898,-0.000122077799126,-0.000112700929548,0.000338059742968,0.999999929055,0.0,0.0,0.0,0.0,0.0,0.0
1609045354446232080,233,1609045354446232080,0.00626207468005,-0.0178941033487,-0.00511963813906,0.000663650922577,-0.000253857124097,0.00017566972441,0.999999732132,0.0,0.0,0.0,0.0,0.0,0.0
1609045354549063683,234,1609045354549063683,0.0128163425263,-0.0170769554161,-0.005168949249,0.000165304072189,-0.000111418611267,0.000136477194261,0.999999970817,0.0,0.0,0.0,0.0,0.0,0.0
1609045354652084589,235,1609045354652084589,0.00837623339068,-0.0246902404612,-0.00280710245255,0.00071800147646,2.81895634582e-05,0.00012169685061,0.999999734434,0.0,0.0,0.0,0.0,0.0,0.0
1609045354755288363,236,1609045354755288363,0.00928650202064,-0.0173548183729,-0.00380129374559,0.000193879295894,-9.42794292591e-05,2.57219628709e-05,0.99999997643,0.0,0.0,0.0,0.0,0.0,0.0
1609045354862078667,237,1609045354862078667,0.00789783906937,-0.0148648464275,-0.00487418400067,-3.81754176472e-05,-0.000232571077697,0.000355361418674,0.999999909085,0.0,0.0,0.0,0.0,0.0,0.0
1609045354961490870,238,1609045354961490870,0.0191192129544,-0.0186786702168,-0.00470949276779,-0.000159281302119,0.000171751353276,3.33555252117e-05,0.999999972009,0.0,0.0,0.0,0.0,0.0,0.0
1609045355032277584,239,1609045355032277584,0.00251616419085,-0.0153062009316,-0.00649205928141,0.000101308968556,-0.000159774507775,0.000416181643563,0.9999998955,0.0,0.0,0.0,0.0,0.0,0.0
1609045355133394718,240,1609045355133394718,0.00950723491512,-0.013142710285,-0.00362449353111,0.000170543810985,-0.00012307950333,0.000113563482995,0.999999971434,0.0,0.0,0.0,0.0,0.0,0.0
1609045355237012386,241,1609045355237012386,0.00598372285113,-0.0183900623873,-0.00438603031719,-7.19384354875e-05,-5.99068157811e-05,0.000354351956963,0.999999932835,0.0,0.0,0.0,0.0,0.0,0.0
1609045355339962721,242,1609045355339962721,0.0078481451851,-0.0150921985795,-0.00690687743331,-0.000148354594018,-0.000137030631799,-5.13361581207e-05,0.999999978289,0.0,0.0,0.0,0.0,0.0,0.0
1609045355442709446,243,1609045355442709446,0.00503441455456,-0.0208206895011,-0.00444027276959,0.000159753577275,-0.000126499316032,0.000252239786445,0.999999947425,0.0,0.0,0.0,0.0,0.0,0.0
1609045355545970201,244,1609045355545970201,0.00975743526285,-0.0154589202265,-0.00465994442758,0.000298680165809,-0.000152815681232,0.000239844500059,0.999999914956,0.0,0.0,0.0,0.0,0.0,0.0
1609045355649053097,245,1609045355649053097,0.00711897220945,-0.0193145437949,-0.005365000398,4.98035708034e-05,-0.000149400467352,0.000394360779605,0.999999909839,0.0,0.0,0.0,0.0,0.0,0.0
1609045355752284527,246,1609045355752284527,0.0144254272969,-0.0178187422328,-0.00630035347132,-0.000107806575836,9.26680057059e-05,-2.09173767924e-05,0.999999989676,0.0,0.0,0.0,0.0,0.0,0.0
1609045355855209589,247,1609045355855209589,0.0139002022118,-0.0130562730219,-0.00582492471581,8.69317757694e-05,-0.000170981043298,0.000471444580251,0.999999870474,0.0,0.0,0.0,0.0,0.0,0.0
1609045355958298922,248,1609045355958298922,0.0045983431909,-0.0251581122462,-0.0039663018418,0.000182563154145,-5.88129307414e-05,8.00033329827e-05,0.999999978405,0.0,0.0,0.0,0.0,0.0,0.0
1609045356061547995,249,1609045356061547995,0.0207495754258,-0.0202182162187,-0.00580259792726,9.41090260195e-05,-0.000177654854172,-0.000324047089312,0.999999927287,0.0,0.0,0.0,0.0,0.0,0.0
1609045356131896019,250,1609045356131896019,0.00776276026708,-0.0164977465616,-0.00530419549831,9.47279926922e-05,5.42742524535e-05,0.000186604177735,0.999999976629,0.0,0.0,0.0,0.0,0.0,0.0
1609045356233950853,251,1609045356233950853,0.00791100438911,-0.015605476809,-0.00539343696441,0.000244206193561,-0.000103992392141,0.000337461236705,0.999999907834,0.0,0.0,0.0,0.0,0.0,0.0
1609045356337673187,252,1609045356337673187,0.00187976961667,-0.0175327632192,-0.00602525097837,0.000402723934186,-0.000262282124305,0.000433785139359,0.999999790425,0.0,0.0,0.0,0.0,0.0,0.0
1609045356439819813,253,1609045356439819813,0.00512130693177,-0.0209912826069,-0.00398688386883,-8.46450109162e-05,0.000272259904622,0.000255443601806,0.999999926729,0.0,0.0,0.0,0.0,0.0,0.0
1609045356542840481,254,1609045356542840481,0.00789061332216,-0.022203379926,-0.00615944139884,0.000343497657284,-0.000180414397821,0.000108908066017,0.999999918799,0.0,0.0,0.0,0.0,0.0,0.0
1609045356646822929,255,1609045356646822929,0.00399045728723,-0.017696531586,-0.00666550864214,7.1516350252e-05,0.000165959885509,0.00021042837055,0.999999961531,0.0,0.0,0.0,0.0,0.0,0.0
1609045356755345106,256,1609045356755345106,0.01121514007,-0.0173736304118,-0.00411980927652,0.000648916575458,7.10784401795e-05,-4.05827783084e-06,0.999999786919,0.0,0.0,0.0,0.0,0.0,0.0
1609045356858777046,257,1609045356858777046,-3.29061210433e-06,-0.0187699379429,-0.00726599166557,0.00023061224794,-8.9658816024e-05,0.000319666940437,0.999999918296,0.0,0.0,0.0,0.0,0.0,0.0
1609045356962072849,258,1609045356962072849,0.0103306107083,-0.0179618961947,-0.00721706995884,-0.000300092287553,-3.78020173004e-05,0.000236825946884,0.999999926214,0.0,0.0,0.0,0.0,0.0,0.0
1609045357031393528,259,1609045357031393528,0.0047218165905,-0.0152954753421,-0.00366068567364,0.000436451119664,6.74587840855e-05,0.000285195332466,0.999999861811,0.0,0.0,0.0,0.0,0.0,0.0
1609045357135710001,260,1609045357135710001,0.00905626612072,-0.0189124556226,-0.00751754400775,3.12852160246e-05,-8.47527706599e-05,0.000127830962132,0.999999987748,0.0,0.0,0.0,0.0,0.0,0.0
1609045357238911152,261,1609045357238911152,0.00385679077165,-0.0183780339855,-0.00628172749071,-0.000164209919306,4.52508645667e-05,7.66155729867e-05,0.999999982558,0.0,0.0,0.0,0.0,0.0,0.0
1609045357340174675,262,1609045357340174675,0.0062151696183,-0.0208233906277,-0.00367988420346,8.2137949902e-06,0.000259849791283,0.00037728986514,0.999999895031,0.0,0.0,0.0,0.0,0.0,0.0
1609045357443092585,263,1609045357443092585,0.0132328010752,-0.0230920679009,-0.00582976207089,0.000200219791529,-8.06252619444e-05,-8.29441407945e-06,0.999999976671,0.0,0.0,0.0,0.0,0.0,0.0
1609045357546181679,264,1609045357546181679,0.00657434087049,-0.0203579261548,-0.00433806529224,0.000378533564418,5.61407841616e-05,0.00018735098169,0.999999909229,0.0,0.0,0.0,0.0,0.0,0.0
1609045357649516582,265,1609045357649516582,0.00808652510854,-0.0187417749021,-0.00733754906274,0.000290040409908,-0.000160159045463,0.000271549367197,0.999999908243,0.0,0.0,0.0,0.0,0.0,0.0
1609045357752487183,266,1609045357752487183,0.00482079514823,-0.0180371223703,-0.00609363323448,0.000239501934362,2.99215042208e-05,0.000179708825656,0.999999954723,0.0,0.0,0.0,0.0,0.0,0.0
1609045357855449200,267,1609045357855449200,0.00775361609388,-0.0185153910391,-0.00514911207568,0.000313645188611,-6.54439635928e-05,0.000314847950285,0.999999899107,0.0,0.0,0.0,0.0,0.0,0.0
1609045357958674669,268,1609045357958674669,0.00941017181609,-0.0149217696341,-0.00855451107309,-0.000308526240909,-0.000174023631705,0.000277770221684,0.999999898685,0.0,0.0,0.0,0.0,0.0,0.0
1609045358061515808,269,1609045358061515808,0.00609543411136,-0.0242944016978,-0.00492545050163,-0.000120623831043,0.000191358603773,0.000279630736637,0.999999935318,0.0,0.0,0.0,0.0,0.0,0.0
1609045358131766319,270,1609045358131766319,-0.00202105287993,-0.0149444785207,-0.00609944805401,-0.000156937480389,-9.99523667266e-05,0.000433978431732,0.999999888521,0.0,0.0,0.0,0.0,0.0,0.0
1609045358233575821,271,1609045358233575821,0.0106270066718,-0.015709629986,-0.00530857578633,0.000189885949728,5.23426258594e-07,0.000351950924459,0.999999920036,0.0,0.0,0.0,0.0,0.0,0.0
1609045358336685419,272,1609045358336685419,0.0137041895171,-0.0190074564264,-0.00490742658734,0.000292363193385,-0.000141405011677,-3.02484627888e-05,0.999999946806,0.0,0.0,0.0,0.0,0.0,0.0
1609045358440450907,273,1609045358440450907,0.00737872917073,-0.0135241915054,-0.00463161049093,0.000196279598048,0.000140100902041,0.000129807810233,0.999999962497,0.0,0.0,0.0,0.0,0.0,0.0
1609045358542962074,274,1609045358542962074,-0.00352625237175,-0.0185678862946,-0.00798816146742,-1.21362449861e-05,-0.000215627583418,0.000483424096614,0.999999859829,0.0,0.0,0.0,0.0,0.0,0.0
1609045358646141052,275,1609045358646141052,0.00767990939988,-0.0212153881827,-0.00585468834461,0.000230818119573,8.33484651145e-05,0.000222802698066,0.999999945067,0.0,0.0,0.0,0.0,0.0,0.0
1609045358749271631,276,1609045358749271631,0.0121670865059,-0.0175374129135,-0.00649983121467,-0.000118066087769,-0.00018889845259,0.000104668000162,0.99999996971,0.0,0.0,0.0,0.0,0.0,0.0
1609045358852361679,277,1609045358852361679,0.00172769170965,-0.0212712824991,-0.00677078945535,0.000360663597155,-0.000217921784792,0.000203377786038,0.999999890534,0.0,0.0,0.0,0.0,0.0,0.0
1609045358955761433,278,1609045358955761433,0.0111718692423,-0.0180274623997,-0.00496620272289,0.000282509120522,5.51205579921e-05,0.000170438939067,0.99999994405,0.0,0.0,0.0,0.0,0.0,0.0
1609045359058362484,279,1609045359058362484,0.0119340472176,-0.0137205846346,-0.00699748540512,-9.51898756399e-05,-1.97280727426e-05,3.75406267748e-05,0.999999994569,0.0,0.0,0.0,0.0,0.0,0.0
1609045359160843372,280,1609045359160843372,0.00388262240738,-0.0161627905626,-0.00736624808262,0.000296933392609,-0.000185023959271,0.000196313546481,0.999999919528,0.0,0.0,0.0,0.0,0.0,0.0
1609045359231533289,281,1609045359231533289,0.00347292214352,-0.021804586381,-0.00469486635859,0.000737308653769,-0.000262336340943,0.000264490075131,0.999999658799,0.0,0.0,0.0,0.0,0.0,0.0
1609045359333363295,282,1609045359333363295,0.0192209147881,-0.0195898266972,-0.00477392833984,0.000303108990881,-0.000274908169574,-0.000109869751518,0.999999910239,0.0,0.0,0.0,0.0,0.0,0.0
1609045359436570168,283,1609045359436570168,0.00704184690767,-0.0163288069116,-0.00531611582952,0.00025428231586,7.954431534e-05,0.000499776727117,0.999999839617,0.0,0.0,0.0,0.0,0.0,0.0
1609045359539654970,284,1609045359539654970,0.00981870280349,-0.015327347332,-0.00460058459727,0.000310396221156,-9.66765517042e-05,2.95845452105e-05,0.999999946715,0.0,0.0,0.0,0.0,0.0,0.0
1609045359642843962,285,1609045359642843962,0.0090229821194,-0.0196862262656,-0.00665394800237,-8.12070673493e-05,-4.02116216374e-05,0.000127639456067,0.999999987747,0.0,0.0,0.0,0.0,0.0,0.0
1609045359745853186,286,1609045359745853186,0.00456268977515,-0.0168987246555,-0.00932144374953,-0.000487115264218,4.88746791097e-05,0.000310156460679,0.999999832066,0.0,0.0,0.0,0.0,0.0,0.0
1609045359849003315,287,1609045359849003315,0.0132401186766,-0.0205861876476,-0.00566914486773,0.000636699151647,-0.000229457601172,-0.000131506423358,0.999999762334,0.0,0.0,0.0,0.0,0.0,0.0
1609045359952252150,288,1609045359952252150,0.00394388321344,-0.0139836130937,-0.00878396165824,-0.000383405203139,-5.83070552435e-05,0.000403951996161,0.999999843211,0.0,0.0,0.0,0.0,0.0,0.0
1609045360055291891,289,1609045360055291891,0.0108667114753,-0.0179511626678,-0.00638908672371,-2.4864204999e-06,4.97393731821e-06,-4.30830309263e-05,0.999999999056,0.0,0.0,0.0,0.0,0.0,0.0
1609045360158235788,290,1609045360158235788,0.00910666469394,-0.0199308742003,-0.00567417755731,0.000102752133343,-6.96590272782e-05,0.000249615974949,0.99999996114,0.0,0.0,0.0,0.0,0.0,0.0
1609045360261337519,291,1609045360261337519,0.0126870602325,-0.0192886420426,-0.00596027772468,0.000302766081982,-0.000106635950017,-7.53877684798e-05,0.999999945638,0.0,0.0,0.0,0.0,0.0,0.0
1609045360331643343,292,1609045360331643343,0.0110037574863,-0.0201015473627,-0.0060267616183,-0.000495006507125,0.000307440859712,3.83307737308e-05,0.999999829489,0.0,0.0,0.0,0.0,0.0,0.0
1609045360433461189,293,1609045360433461189,0.0129071350611,-0.0201310639414,-0.00633825143253,6.75297327573e-05,-0.000175777870991,0.000264928229555,0.999999947177,0.0,0.0,0.0,0.0,0.0,0.0
1609045360536498308,294,1609045360536498308,0.00520189738442,-0.025468495158,-0.0032181241345,0.000396795733975,0.000107397140139,0.000288196830072,0.99999987398,0.0,0.0,0.0,0.0,0.0,0.0
1609045360639825583,295,1609045360639825583,0.00982407673875,-0.0190126257157,-0.00658828973147,-0.00010591060704,-6.33903159904e-05,4.45923098554e-05,0.999999991387,0.0,0.0,0.0,0.0,0.0,0.0
1609045360742610455,296,1609045360742610455,0.0148567403167,-0.0185172251661,-0.00409866375541,0.0002580896178,8.08100323751e-05,0.000196021550611,0.999999944217,0.0,0.0,0.0,0.0,0.0,0.0
1609045360845783234,297,1609045360845783234,0.0182943093319,-0.0173905521902,-0.00643875858107,5.44414859788e-06,-1.53421942351e-05,9.89121774245e-06,0.999999999818,0.0,0.0,0.0,0.0,0.0,0.0
1609045360948768616,298,1609045360948768616,0.00120098541147,-0.0133516885738,-0.00545486679957,-0.000443287488362,-9.21338150759e-05,-6.2198072957e-05,0.999999895569,0.0,0.0,0.0,0.0,0.0,0.0
1609045361051918030,299,1609045361051918030,0.00828241247228,-0.0166242628288,-0.00477160023933,2.22669884362e-05,-4.30906349878e-06,-7.58773494201e-05,0.999999996863,0.0,0.0,0.0,0.0,0.0,0.0
1609045361154649496,300,1609045361154649496,0.0145767751391,-0.0153016825735,-0.00770648167872,-0.000251929594343,-5.81756975489e-06,0.00018872921838,0.999999950439,0.0,0.0,0.0,0.0,0.0,0.0
1609045361257855892,301,1609045361257855892,0.0120733301939,-0.0230265952443,-0.00685001944566,0.000203714905096,7.12605770963e-05,-0.00011251124066,0.999999970381,0.0,0.0,0.0,0.0,0.0,0.0
1609045361360918045,302,1609045361360918045,0.0129159527433,-0.0172910570877,-0.00517327608046,0.00065072476362,-0.000379794007461,0.000281698474221,0.999999676479,0.0,0.0,0.0,0.0,0.0,0.0
1609045361431264877,303,1609045361431264877,0.0140310800345,-0.0173350388452,-0.00653205581122,1.38637698146e-05,-0.000186836603456,0.000135792290187,0.999999973229,0.0,0.0,0.0,0.0,0.0,0.0
1609045361533029079,304,1609045361533029079,0.00337683075511,-0.0196465396668,-0.00680463945101,-0.000171107131945,4.48519967482e-05,0.000307425736593,0.999999937099,0.0,0.0,0.0,0.0,0.0,0.0
1609045361636012554,305,1609045361636012554,0.0205829414054,-0.0196003478502,-0.00454303235991,0.00024067396014,-0.000183429352094,-8.99403377624e-05,0.999999950169,0.0,0.0,0.0,0.0,0.0,0.0
1609045361739068985,306,1609045361739068985,0.0100941029054,-0.013993630926,-0.00493138663666,0.000256163700847,-2.50962651474e-05,0.000210596856886,0.999999944699,0.0,0.0,0.0,0.0,0.0,0.0
1609045361842687130,307,1609045361842687130,0.0135906249164,-0.0212352984212,-0.00598807720837,0.000418358168068,-0.000170323501872,-0.000182258631125,0.999999881373,0.0,0.0,0.0,0.0,0.0,0.0
1609045361945674658,308,1609045361945674658,0.00765353215662,-0.0165157364544,-0.00616027249674,0.000454024418085,2.7374666562e-05,1.84952123842e-05,0.999999896384,0.0,0.0,0.0,0.0,0.0,0.0
1609045362048807859,309,1609045362048807859,0.0130721522297,-0.0181529334763,-0.00603804582647,0.000235740349441,-0.000176296233602,-3.99394662069e-05,0.999999955874,0.0,0.0,0.0,0.0,0.0,0.0
1609045362151858568,310,1609045362151858568,0.00500304294359,-0.0163927772521,-0.00878578961484,4.38936249976e-05,-0.000162695357805,0.000169441096446,0.999999971446,0.0,0.0,0.0,0.0,0.0,0.0
1609045362255241632,311,1609045362255241632,0.0113721366521,-0.0206957429982,-0.0068295963324,0.000112990489287,1.94048975212e-05,-1.24086218241e-05,0.99999999335,0.0,0.0,0.0,0.0,0.0,0.0
1609045362358287096,312,1609045362358287096,0.0105570652496,-0.0206551950289,-0.00495326922666,0.000108173459257,0.00039136426671,6.7981436236e-05,0.999999915254,0.0,0.0,0.0,0.0,0.0,0.0
1609045362461383820,313,1609045362461383820,0.00728521389355,-0.0202459802175,-0.00538722333276,0.000451372919386,-0.000103242286245,8.58629685155e-05,0.999999889115,0.0,0.0,0.0,0.0,0.0,0.0
1609045362531601667,314,1609045362531601667,0.00811756191972,-0.0184482478133,-0.00643269610873,8.73418636171e-05,-4.72868831613e-05,0.000250597145194,0.999999963667,0.0,0.0,0.0,0.0,0.0,0.0
1609045362633414268,315,1609045362633414268,0.0143258391066,-0.0200625598843,-0.00585713435225,0.000130675960329,-3.34860108198e-05,4.74724619255e-05,0.999999989773,0.0,0.0,0.0,0.0,0.0,0.0
1609045362736429691,316,1609045362736429691,-0.0103675760423,-0.0157225199522,-0.00713802316407,-0.000265395574868,-1.67418152521e-05,0.000338435976514,0.999999907372,0.0,0.0,0.0,0.0,0.0,0.0
1609045362839648485,317,1609045362839648485,0.00754947372079,-0.0204342223071,-0.00624983157677,0.000232214443462,-1.01443902517e-05,1.19073828885e-05,0.999999972915,0.0,0.0,0.0,0.0,0.0,0.0
1609045362942562819,318,1609045362942562819,0.0167416959843,-0.0212757345607,-0.00511599075593,9.23551152097e-05,-0.000273531770605,0.00036487497357,0.999999891758,0.0,0.0,0.0,0.0,0.0,0.0
1609045363045731306,319,1609045363045731306,0.00336654877908,-0.0171779267595,-0.00825505373338,-0.000510746008155,1.22495869482e-05,-7.23559932137e-05,0.999999866875,0.0,0.0,0.0,0.0,0.0,0.0
1609045363148877621,320,1609045363148877621,-0.00259974302493,-0.0184317207361,-0.0065774225453,-4.74832284872e-05,-1.90349426684e-05,0.000251079558714,0.99999996717,0.0,0.0,0.0,0.0,0.0,0.0
1609045363252388000,321,1609045363252388000,0.0158970936647,-0.0240242403323,-0.0071373232797,0.000364360867143,-9.56805545802e-05,0.000279738390769,0.999999889915,0.0,0.0,0.0,0.0,0.0,0.0
1609045363355829716,322,1609045363355829716,0.0120858531544,-0.0189501511411,-0.00595844850359,-1.67089790482e-05,-5.20996074699e-05,0.000170230183895,0.999999984013,0.0,0.0,0.0,0.0,0.0,0.0
1609045363457896709,323,1609045363457896709,0.0124716948814,-0.0200815701004,-0.00692430777536,0.000306142637543,-0.000110311238392,0.000300856991996,0.999999901795,0.0,0.0,0.0,0.0,0.0,0.0
1609045363561176062,324,1609045363561176062,0.0036419650834,-0.0182005147852,-0.00649824578566,0.000186615368309,-9.01070489076e-05,0.000384013486021,0.999999904793,0.0,0.0,0.0,0.0,0.0,0.0
1609045363631531000,325,1609045363631531000,0.0157783662551,-0.0203471703797,-0.00447115055121,0.000417950163517,-0.0002181977982,0.000220282993172,0.99999986459,0.0,0.0,0.0,0.0,0.0,0.0
1609045363733346224,326,1609045363733346224,0.00745436170634,-0.0202373202326,-0.00480927884531,0.000346472198578,-0.000155361025646,0.000235328655192,0.999999900219,0.0,0.0,0.0,0.0,0.0,0.0
1609045363836479187,327,1609045363836479187,0.0103458219945,-0.0211132150956,-0.0102406259659,-0.000439439287631,6.74698917126e-06,0.000271880162022,0.999999866463,0.0,0.0,0.0,0.0,0.0,0.0
1609045363939492702,328,1609045363939492702,0.0128115090273,-0.0214315171842,-0.00575302887209,0.00018994081552,-0.000128942377361,-0.000127233448391,0.999999965553,0.0,0.0,0.0,0.0,0.0,0.0
1609045364042618275,329,1609045364042618275,0.000587100904477,-0.0175621368616,-0.0061342162523,0.000285824083002,-9.20504217674e-05,0.00044621768032,0.999999855359,0.0,0.0,0.0,0.0,0.0,0.0
1609045364145671606,330,1609045364145671606,0.00168927684105,-0.0225669141585,-0.00706195829626,0.00020923898087,5.05018295507e-05,0.000125653647429,0.999999968939,0.0,0.0,0.0,0.0,0.0,0.0
1609045364248308420,331,1609045364248308420,0.014318858027,-0.0234457581357,-0.00539100185581,0.0003481397601,-0.000175092410402,6.29397619918e-05,0.999999922089,0.0,0.0,0.0,0.0,0.0,0.0
1609045364352055788,332,1609045364352055788,0.00846886694764,-0.0175635797705,-0.00808491561673,3.00627928944e-05,-0.00017080274912,4.69732578175e-05,0.999999983857,0.0,0.0,0.0,0.0,0.0,0.0
1609045364455469131,333,1609045364455469131,0.0121972893331,-0.0190789511894,-0.00615113462274,-3.0053042967e-05,-4.53796586651e-05,0.000133541478922,0.999999989601,0.0,0.0,0.0,0.0,0.0,0.0
1609045364558759212,334,1609045364558759212,0.00984001333424,-0.0211850952167,-0.0063435818642,0.000448802621709,-0.000218557424725,0.000110186636105,0.999999869333,0.0,0.0,0.0,0.0,0.0,0.0
1609045364661556721,335,1609045364661556721,0.00739996865971,-0.0189632414741,-0.00651827137248,8.14932882185e-06,9.84055442093e-05,0.000137052450496,0.999999985732,0.0,0.0,0.0,0.0,0.0,0.0
1609045364731485605,336,1609045364731485605,0.0169392883518,-0.0186702434418,-0.00327091202233,0.000606356161413,-0.000149927855022,-6.05976826968e-05,0.99999980309,0.0,0.0,0.0,0.0,0.0,0.0
1609045364833323240,337,1609045364833323240,0.00226278958505,-0.0191385458073,-0.00775977638395,-9.5451068651e-05,-6.68217773909e-05,1.72513605492e-05,0.999999993062,0.0,0.0,0.0,0.0,0.0,0.0
1609045364936540127,338,1609045364936540127,0.00863847469558,-0.0199923118537,-0.00584824539106,-1.59092494398e-05,3.1122924828e-05,7.68971208343e-05,0.999999996431,0.0,0.0,0.0,0.0,0.0,0.0
1609045365038934946,339,1609045365038934946,-0.00147587658963,-0.0247465340964,-0.00963970745814,0.000148307725795,8.36671018717e-05,0.000348762971407,0.999999924683,0.0,0.0,0.0,0.0,0.0,0.0
1609045365141975403,340,1609045365141975403,0.0123056180534,-0.0194190687009,-0.00873195886469,5.47065183678e-06,-0.000217820535926,6.69499829132e-05,0.99999997402,0.0,0.0,0.0,0.0,0.0,0.0
1609045365245730400,341,1609045365245730400,0.00598674719005,-0.023033705796,-0.00654667962237,0.000262089966813,-0.000265519411196,0.000256916325549,0.9999998974,0.0,0.0,0.0,0.0,0.0,0.0
1609045365348766327,342,1609045365348766327,0.00974777636206,-0.0206726674662,-0.00525116388015,0.00034152986222,-6.37701938334e-05,6.76451636499e-05,0.999999937356,0.0,0.0,0.0,0.0,0.0,0.0
1609045365452180862,343,1609045365452180862,0.0144351345731,-0.0194668409685,-0.00832107782843,5.68047545041e-05,-0.000150288474202,0.000249737957062,0.999999955908,0.0,0.0,0.0,0.0,0.0,0.0
1609045365555227280,344,1609045365555227280,0.00294215248084,-0.0164245090751,-0.00541387563482,0.000333407535152,8.37682296097e-06,0.000233465215111,0.99999991713,0.0,0.0,0.0,0.0,0.0,0.0
1609045365658289433,345,1609045365658289433,0.00818234820492,-0.0248418214381,-0.00559812759449,0.00050218762089,-0.000207688400706,0.000131824350466,0.999999843646,0.0,0.0,0.0,0.0,0.0,0.0
1609045365761258364,346,1609045365761258364,0.0191532715807,-0.0175497740736,-0.00769745813466,-1.94298821415e-05,4.59389022924e-06,6.89859283766e-05,0.99999999742,0.0,0.0,0.0,0.0,0.0,0.0
1609045365831453323,347,1609045365831453323,-7.42301305459e-05,-0.0154794408321,-0.00790854991075,-0.000116503809527,-0.000120499755621,0.000355741379232,0.999999922676,0.0,0.0,0.0,0.0,0.0,0.0
1609045365933325768,348,1609045365933325768,0.0115772602893,-0.0221889381795,-0.00639359847893,0.000317813619231,-0.000155150850756,-7.3881833332e-05,0.999999934731,0.0,0.0,0.0,0.0,0.0,0.0
1609045366036532164,349,1609045366036532164,0.00399977075331,-0.0214146915093,-0.00860083270888,0.000134948390934,1.35357808244e-05,0.000122675034185,0.999999983277,0.0,0.0,0.0,0.0,0.0,0.0
1609045366140005350,350,1609045366140005350,0.0101752452327,-0.0191978234015,-0.00667246627215,0.000333120332041,-0.000111233417564,8.83454465509e-05,0.999999934425,0.0,0.0,0.0,0.0,0.0,0.0
1609045366242765188,351,1609045366242765188,0.00698970636975,-0.0204202587596,-0.0075207709468,-8.81210211344e-05,2.62864958507e-05,5.71852433042e-05,0.999999994135,0.0,0.0,0.0,0.0,0.0,0.0
1609045366345786810,352,1609045366345786810,0.00802147826452,-0.0185234031644,-0.00954712826523,-0.000380422016149,-8.63113934934e-05,9.60289474796e-05,0.999999919303,0.0,0.0,0.0,0.0,0.0,0.0
1609045366448918104,353,1609045366448918104,-0.000455802850408,-0.0167001823147,-0.00714986539976,2.36068585415e-05,-4.35136432285e-05,0.000291111046045,0.9999999564,0.0,0.0,0.0,0.0,0.0,0.0
1609045366551988602,354,1609045366551988602,0.00990613766596,-0.0211761588364,-0.00785567696243,2.8042158343e-05,0.000109434325029,0.000326409668842,0.999999940346,0.0,0.0,0.0,0.0,0.0,0.0
1609045366655180216,355,1609045366655180216,0.00796657207213,-0.0157647116847,-0.00552410916095,0.000340380466406,-0.00029009333006,0.000261613890095,0.999999865771,0.0,0.0,0.0,0.0,0.0,0.0
1609045366758187532,356,1609045366758187532,0.0181110193756,-0.021258872659,-0.00687895172577,-0.000274447240306,0.000175335187277,0.000199982740039,0.99999992697,0.0,0.0,0.0,0.0,0.0,0.0
1609045366861323833,357,1609045366861323833,0.0122244073211,-0.015479491541,-0.0068204308887,-0.000306985996131,0.000272727748853,3.51793687526e-05,0.999999915069,0.0,0.0,0.0,0.0,0.0,0.0
1609045366931638479,358,1609045366931638479,0.00462322790734,-0.0230139441253,-0.00732133432001,0.000178472609367,7.53137930936e-05,-7.96921613489e-05,0.999999978061,0.0,0.0,0.0,0.0,0.0,0.0
1609045367033211946,359,1609045367033211946,0.00592735146811,-0.0191477623363,-0.00775669332475,-0.000216132641745,0.000102783380098,0.000141681753151,0.999999961323,0.0,0.0,0.0,0.0,0.0,0.0
1609045367136453152,360,1609045367136453152,0.00756192644119,-0.022559276838,-0.00699986899232,0.000160453615499,-8.02033876519e-05,0.000388188146538,0.999999908565,0.0,0.0,0.0,0.0,0.0,0.0
