%time,field.header.seq,field.header.stamp,field.pose.pose.position.x,field.pose.pose.position.y,field.pose.pose.position.z,field.pose.pose.orientation.x,field.pose.pose.orientation.y,field.pose.pose.orientation.z,field.pose.pose.orientation.w,field.twist.twist.linear.x,field.twist.twist.linear.y,field.twist.twist.linear.z,field.twist.twist.angular.x,field.twist.twist.angular.y,field.twist.twist.angular.z
1609055139084480762,48,1609055139084480762,0.000179560862898,-0.00693878716198,-0.00107923159305,0.000318823554834,7.49820862408e-06,0.000325896536141,0.999999896043,0.0,0.0,0.0,0.0,0.0,0.0
1609055139188335419,49,1609055139188335419,0.00599876074473,-0.00339293651445,-0.0026353747088,0.000347611243728,2.02942902314e-06,0.000117674770116,0.999999932657,0.0,0.0,0.0,0.0,0.0,0.0
1609055139289583921,50,1609055139289583921,0.00514572086428,-0.000774369324676,-0.00227007254441,-0.000218018469606,-5.67440869759e-05,-0.000260814403428,0.999999940612,0.0,0.0,0.0,0.0,0.0,0.0
1609055139392522335,51,1609055139392522335,0.0112364370153,-0.0137097743302,-0.00293224640842,0.000265939612728,0.000228744548877,7.44709726859e-05,0.999999935703,0.0,0.0,0.0,0.0,0.0,0.0
1609055139496001244,52,1609055139496001244,0.013484520841,-0.00724232269191,-0.00101544467377,-0.000303927984997,-6.37543761318e-05,0.000101767564738,0.999999946603,0.0,0.0,0.0,0.0,0.0,0.0
1609055139599014521,53,1609055139599014521,0.00429150961588,-0.0145599898153,-0.0011301629822,0.000321177301948,-0.000220734770857,0.000218558402834,0.999999900177,0.0,0.0,0.0,0.0,0.0,0.0
1609055139669296503,54,1609055139669296503,0.00428073355532,-0.00319028269372,-0.00179110839657,0.000144414874597,-9.49029738532e-06,0.000197906429011,0.999999969944,0.0,0.0,0.0,0.0,0.0,0.0
1609055139771072865,55,1609055139771072865,0.00688963643897,-0.0192758554498,0.000264223159148,0.000589644257461,-0.000166257095616,3.00636792149e-05,0.999999811887,0.0,0.0,0.0,0.0,0.0,0.0
1609055139874389648,56,1609055139874389648,0.00248545450315,-0.00857305308416,-0.000916174186925,0.000100016110956,7.51285050233e-05,0.000132661319334,0.999999983377,0.0,0.0,0.0,0.0,0.0,0.0
1609055139977259398,57,1609055139977259398,0.0127268398962,-0.00446589472848,-0.00262016561392,9.08967934716e-06,0.000491104447591,3.40922032949e-06,0.999999879361,0.0,0.0,0.0,0.0,0.0,0.0
1609055140080521584,58,1609055140080521584,-0.00139855665603,-0.00503935431846,-4.24427994778e-05,0.00016116566944,-6.37539308399e-05,0.000315848707173,0.9999999351,0.0,0.0,0.0,0.0,0.0,0.0
1609055140183890343,59,1609055140183890343,0.00615858569484,-0.0103693276996,-0.000625002251192,0.000175779175794,-0.00025484396245,0.000112635669559,0.999999945735,0.0,0.0,0.0,0.0,0.0,0.0
1609055140286782503,60,1609055140286782503,0.00276288368783,-0.000297741180032,-0.00263784492178,-0.000285900343701,0.000544435314805,0.000130345937635,0.999999802431,0.0,0.0,0.0,0.0,0.0,0.0
1609055140389881849,61,1609055140389881849,0.00321916045409,0.00596305881721,-0.00152146977101,-0.000119252472151,0.000400377890271,0.000154176421814,0.999999900853,0.0,0.0,0.0,0.0,0.0,0.0
1609055140493188143,62,1609055140493188143,0.00267203096543,-0.000892151752179,-0.00160037052613,-0.000139474907186,-0.000413403320707,0.000178863760498,0.999999888826,0.0,0.0,0.0,0.0,0.0,0.0
1609055140596115112,63,1609055140596115112,0.0111642340004,-0.0110203596436,-0.00088116912597,0.000119526073289,0.000310996836076,0.000177758081342,0.999999928698,0.0,0.0,0.0,0.0,0.0,0.0
1609055140700333834,64,1609055140700333834,-0.00425671174983,0.00152064652814,-0.00216785818809,0.000242363904766,0.000138958589845,0.000386036610395,0.999999886463,0.0,0.0,0.0,0.0,0.0,0.0
1609055140769939899,65,1609055140769939899,0.00419846978927,-0.0126461345505,-0.000292798928351,-0.000388542145285,8.75837037919e-05,0.000371812182809,0.99999985156,0.0,0.0,0.0,0.0,0.0,0.0
1609055140871591091,66,1609055140871591091,-0.0105553029454,0.00449179642427,-0.00312887111734,-0.000231281444657,-0.000286747477718,0.000494941911671,0.999999809659,0.0,0.0,0.0,0.0,0.0,0.0
1609055140974408627,67,1609055140974408627,-0.00736717526074,-0.00231300380194,-0.00243915442669,0.000269168938186,-0.000171505812527,0.000112439523025,0.999999942746,0.0,0.0,0.0,0.0,0.0,0.0
1609055141077489376,68,1609055141077489376,0.00230263927339,-0.00806569224688,-0.0024062151963,1.05584795315e-05,4.82493235507e-05,0.000211601431224,0.999999976393,0.0,0.0,0.0,0.0,0.0,0.0
1609055141181153059,69,1609055141181153059,0.00796712239353,-0.00752031541688,0.00114406279209,-5.10152052572e-05,-6.90832327386e-06,0.00015478090262,0.999999986696,0.0,0.0,0.0,0.0,0.0,0.0
1609055141283681631,70,1609055141283681631,-0.000647698255861,-0.0147639747248,-0.00296265661818,2.56740246361e-05,-0.000199617668384,0.000242790406297,0.999999950273,0.0,0.0,0.0,0.0,0.0,0.0
1609055141386656284,71,1609055141386656284,-0.000349707414058,0.000264375134415,-0.00174858092131,1.37171517409e-05,6.40866099998e-05,0.000197004331564,0.999999978447,0.0,0.0,0.0,0.0,0.0,0.0
1609055141489892244,72,1609055141489892244,0.00636790959383,-0.0107277677735,-0.0004017877716,0.000137083725486,3.42911173283e-05,-1.61639304801e-05,0.999999989885,0.0,0.0,0.0,0.0,0.0,0.0
1609055141592767477,73,1609055141592767477,0.00721639309175,-0.000284132830024,-0.00465243054035,-0.000145878301768,-9.58012703229e-05,9.86548185604e-05,0.999999979904,0.0,0.0,0.0,0.0,0.0,0.0
1609055141696143627,74,1609055141696143627,-0.00215283600091,-0.00333390242203,-9.01599296125e-05,-2.40712895027e-05,0.000378048796373,0.000187020887962,0.999999910761,0.0,0.0,0.0,0.0,0.0,0.0
1609055141799069166,75,1609055141799069166,-0.00487308466271,-0.00894889169674,-0.00231877965794,0.000226386572912,-0.0002487394566,-7.43606556713e-05,0.999999940674,0.0,0.0,0.0,0.0,0.0,0.0
1609055141869473696,76,1609055141869473696,0.00579526385478,-0.00712738025931,-0.00144279312724,0.00015131038019,-0.000130787278996,0.000145063532164,0.999999969478,0.0,0.0,0.0,0.0,0.0,0.0
1609055141971397400,77,1609055141971397400,0.00418253389059,-0.00817495356682,-0.00311461549672,-3.34830483949e-05,9.36905015327e-05,0.000292433022461,0.999999952292,0.0,0.0,0.0,0.0,0.0,0.0
1609055142074043036,78,1609055142074043036,0.00212877976186,-0.0142812679292,-0.0019965405934,0.000357944407037,-3.73684046094e-05,0.000284241517323,0.999999894843,0.0,0.0,0.0,0.0,0.0,0.0
1609055142177167416,79,1609055142177167416,0.00430662668866,-0.00847130886494,-0.00209290426478,0.000305344489591,2.2123543e-05,0.000199879433562,0.999999933162,0.0,0.0,0.0,0.0,0.0,0.0
1609055142280574322,80,1609055142280574322,0.00241371916466,0.00236192244478,-0.000785511989457,-1.42634318594e-05,0.000213474973917,0.000248362532965,0.99999994627,0.0,0.0,0.0,0.0,0.0,0.0
1609055142383740664,81,1609055142383740664,-0.0071520709696,-0.0125815653861,-0.000850081770271,4.89499637783e-05,-0.000247064878697,9.60852032879e-05,0.999999963665,0.0,0.0,0.0,0.0,0.0,0.0
1609055142487863302,82,1609055142487863302,-0.00309435425913,-0.00511185279858,-0.00206995575515,3.21035564823e-05,-7.4957220656e-05,0.000448310934662,0.999999896184,0.0,0.0,0.0,0.0,0.0,0.0
1609055142590128183,83,1609055142590128183,0.000204242776397,-0.0119560138173,-0.00274464178895,-0.00048185361923,2.60196265811e-05,6.18073515147e-05,0.99999988166,0.0,0.0,0.0,0.0,0.0,0.0
1609055142692801476,84,1609055142692801476,0.00514966024839,-0.00910064198008,-0.00199478318488,0.000236652752466,0.000731070078476,0.000316027558188,0.999999654829,0.0,0.0,0.0,0.0,0.0,0.0
1609055142795998096,85,1609055142795998096,0.005612894995,-0.0150260929716,0.000576352384773,0.000363596193251,-0.000130704079245,0.000288624824985,0.999999883705,0.0,0.0,0.0,0.0,0.0,0.0
1609055142898846149,86,1609055142898846149,-2.29356883019e-05,-0.001845753972,-0.00206298486438,-5.11877894986e-05,-8.2099867655e-05,9.68190255782e-06,0.999999995273,0.0,0.0,0.0,0.0,0.0,0.0
1609055142969356298,87,1609055142969356298,0.00353361156486,-0.00927112423889,-0.000895974639893,0.000551710339993,0.000150249295846,0.000276544322467,0.999999798282,0.0,0.0,0.0,0.0,0.0,0.0
1609055143073289394,88,1609055143073289394,-0.00545604864454,-0.0128318328347,-0.00160298226457,6.74899052748e-06,1.11480699894e-05,4.89388794311e-05,0.999999998718,0.0,0.0,0.0,0.0,0.0,0.0
1609055143173997879,89,1609055143173997879,-0.00213891236728,-0.00488935658705,-0.00239760608533,-0.000231111929498,-6.00853937206e-05,0.00031170705187,0.999999922908,0.0,0.0,0.0,0.0,0.0,0.0
1609055143277559042,90,1609055143277559042,-0.00208080877523,-0.00790113527504,-0.00174429329707,0.000616173480365,-0.000249819319034,0.000119028935919,0.999999771876,0.0,0.0,0.0,0.0,0.0,0.0
1609055143381267548,91,1609055143381267548,0.00339616862469,-0.0130660380037,-0.00121776811555,-2.97602906539e-05,0.000379453024853,0.000265261155938,0.999999892383,0.0,0.0,0.0,0.0,0.0,0.0
1609055143483867884,92,1609055143483867884,0.00642408947034,-0.0112482049742,-0.00225098221869,0.000125870486435,0.000261902609842,0.000139105075164,0.999999948107,0.0,0.0,0.0,0.0,0.0,0.0
1609055143586970091,93,1609055143586970091,0.0087682174095,-0.0122431709736,-0.000570096632224,-7.30343337875e-05,0.000464224449458,0.000196015963386,0.99999987037,0.0,0.0,0.0,0.0,0.0,0.0
1609055143690078497,94,1609055143690078497,-0.00507249439412,0.00122257457125,-0.0025286222641,-7.13988359953e-05,8.77064720317e-05,8.09847811699e-05,0.999999990326,0.0,0.0,0.0,0.0,0.0,0.0
1609055143793278456,95,1609055143793278456,0.00716504859247,-0.00645663860262,-0.000691403131121,-0.000139436167423,0.00034098732567,0.000113463590269,0.999999925706,0.0,0.0,0.0,0.0,0.0,0.0
1609055143896554947,96,1609055143896554947,-0.00694582720639,-0.0174500267893,0.000613605707011,0.000802530335807,-0.000494142564127,0.000553783833125,0.999999402546,0.0,0.0,0.0,0.0,0.0,0.0
1609055143999361992,97,1609055143999361992,0.00823870210404,-0.00416576670048,-0.00302434513056,-0.000249954385726,0.000354711074874,0.000121934077724,0.999999898417,0.0,0.0,0.0,0.0,0.0,0.0
1609055144069704533,98,1609055144069704533,0.00776850225576,-0.0143961962027,-0.00114205646804,-0.000209062517906,0.000720301642561,0.000294419172511,0.999999675388,0.0,0.0,0.0,0.0,0.0,0.0
1609055144171433449,99,1609055144171433449,0.0036992020692,-0.0129108689804,-0.00128828499148,-7.76363450231e-05,-0.00043052158208,0.000176180593111,0.999999888792,0.0,0.0,0.0,0.0,0.0,0.0
1609055144274325371,100,1609055144274325371,-0.00486628729617,-0.017299708875,-0.00149388153993,0.000388855590139,-0.000285757238974,0.000380032436261,0.999999811355,0.0,0.0,0.0,0.0,0.0,0.0
1609055144377553940,101,1609055144377553940,-0.0103955913428,-0.000463747684773,-0.00325502910131,-0.000105586365804,-0.000146947636288,0.0002566209032,0.999999950702,0.0,0.0,0.0,0.0,0.0,0.0
1609055144482353449,102,1609055144482353449,-0.00383022313201,-0.00729917490083,-0.00321369192046,7.99744791719e-05,-0.000373234092797,0.000189705805719,0.999999909156,0.0,0.0,0.0,0.0,0.0,0.0
1609055144584256411,103,1609055144584256411,0.00525201718403,-0.0111496732368,-0.00110967010773,0.000306809235019,-7.26017450398e-05,-6.77457546898e-05,0.999999948004,0.0,0.0,0.0,0.0,0.0,0.0
1609055144691246986,104,1609055144691246986,0.000486696972148,-0.00190992228617,-0.000825816919093,0.000258434710788,-0.000473033929829,0.000202048543233,0.999999834313,0.0,0.0,0.0,0.0,0.0,0.0
1609055144794765711,105,1609055144794765711,0.00576550052494,-0.0122055622878,-0.00208786546626,0.000365227962558,0.000124975493772,0.000359935817602,0.999999860718,0.0,0.0,0.0,0.0,0.0,0.0
1609055144897527456,106,1609055144897527456,0.0069275020336,-0.0118664244603,-0.00164626888272,0.000121580119818,2.67726701245e-05,9.45327088533e-05,0.999999987782,0.0,0.0,0.0,0.0,0.0,0.0
1609055144969637156,107,1609055144969637156,-0.000461046142347,-0.00545595128737,-0.000886811026391,-0.000361623282125,-0.000114258262046,0.000327953733472,0.99999987431,0.0,0.0,0.0,0.0,0.0,0.0
1609055145069844961,108,1609055145069844961,0.00375169874219,-0.00819240507276,-0.00213931466251,4.52422482235e-05,0.000196093925863,0.000238703113048,0.999999951261,0.0,0.0,0.0,0.0,0.0,0.0
1609055145172804356,109,1609055145172804356,0.0104523479695,-0.012261164096,-0.00259354598767,-9.92354499415e-05,0.000332387179589,0.000156101122309,0.999999927652,0.0,0.0,0.0,0.0,0.0,0.0
1609055145275603771,110,1609055145275603771,0.00974111152716,-0.00391371287323,8.32377596969e-05,-0.000173523805766,-0.000101786615726,0.000232036377838,0.999999952844,0.0,0.0,0.0,0.0,0.0,0.0
1609055145383765221,111,1609055145383765221,0.00290643738083,-0.013765125597,-0.000113154102733,0.000300500731017,4.79220572945e-06,0.000369566959715,0.999999886548,0.0,0.0,0.0,0.0,0.0,0.0
1609055145486662626,112,1609055145486662626,0.013510293992,-0.00843421094722,-0.00314108744361,-0.000251350536583,0.000193456561671,0.000254138304909,0.999999917406,0.0,0.0,0.0,0.0,0.0,0.0
1609055145589866638,113,1609055145589866638,0.00583745779902,-0.00958412378832,-0.00030630269708,6.39212886984e-05,0.000785825059253,0.000156075196296,0.999999677017,0.0,0.0,0.0,0.0,0.0,0.0
1609055145694107294,114,1609055145694107294,0.0117191023261,-0.00383679921607,-0.00255016061875,0.000121765707868,-0.000106718808629,9.48004305285e-05,0.999999982398,0.0,0.0,0.0,0.0,0.0,0.0
1609055145795924664,115,1609055145795924664,0.002209567377,-0.000357190746024,-0.00300570341034,0.000196201428668,-0.000248402911916,0.000187891093856,0.999999932249,0.0,0.0,0.0,0.0,0.0,0.0
1609055145899274349,116,1609055145899274349,0.00781145067701,-0.0139048573667,-0.000687767609043,0.000473581737101,-8.07743497471e-05,0.000372840642143,0.999999815093,0.0,0.0,0.0,0.0,0.0,0.0
1609055145969696045,117,1609055145969696045,0.015790787255,0.00179754000129,-0.00228199417201,-0.000304646164409,0.000160822405349,-5.02579851039e-05,0.9999999394,0.0,0.0,0.0,0.0,0.0,0.0
1609055146073385477,118,1609055146073385477,0.0139797690885,-0.0049193484372,-0.00212305508999,-0.000102744126474,0.000691213716503,0.000115833694722,0.999999749125,0.0,0.0,0.0,0.0,0.0,0.0
1609055146174312830,119,1609055146174312830,0.00920081414652,-0.0160811104512,-0.00240891498083,-0.000123054703755,-2.11291258444e-05,0.000131329216344,0.999999983582,0.0,0.0,0.0,0.0,0.0,0.0
1609055146277687550,120,1609055146277687550,-0.00242268163835,0.00255150392107,-0.00105882841311,-0.000179872644155,-1.27647168437e-05,4.04965521906e-05,0.999999982921,0.0,0.0,0.0,0.0,0.0,0.0
1609055146381156921,121,1609055146381156921,0.0058791827078,-0.0113926647323,-0.00262007348073,0.000440352660209,0.000129225996915,0.000234467795974,0.999999867207,0.0,0.0,0.0,0.0,0.0,0.0
1609055146483739853,122,1609055146483739853,0.00541573489943,-0.00572073361054,-0.00238190265229,-1.80767515195e-05,0.000324797179854,0.000177029419422,0.99999993142,0.0,0.0,0.0,0.0,0.0,0.0
1609055146587285757,123,1609055146587285757,0.00642425325276,-0.0189422432493,-0.000844346107293,0.000161526681741,-2.4355859849e-05,0.000406312395872,0.999999904113,0.0,0.0,0.0,0.0,0.0,0.0
1609055146690243244,124,1609055146690243244,0.00570986872287,-0.00936248994908,-0.000792714210509,0.000181823466973,-0.000171538277391,0.000381444825875,0.999999896007,0.0,0.0,0.0,0.0,0.0,0.0
1609055146792874336,125,1609055146792874336,0.0074354403376,-0.0168432958154,-0.00170143204123,0.000286984199944,-0.000343460007094,4.88021370405e-05,0.999999898647,0.0,0.0,0.0,0.0,0.0,0.0
1609055146895936966,126,1609055146895936966,0.0050334757649,-0.0139022347729,-0.00185791494467,3.50105744255e-05,0.000312300497752,0.000263042323124,0.999999916026,0.0,0.0,0.0,0.0,0.0,0.0
1609055146999186039,127,1609055146999186039,0.0078020579128,-0.00691875942005,-0.00363592043141,-0.000223343421124,0.00024068861786,5.36948877367e-05,0.999999944652,0.0,0.0,0.0,0.0,0.0,0.0
1609055147069931746,128,1609055147069931746,0.00865793949902,0.000356469658035,0.0012576625104,0.000125323398146,6.58646478402e-05,7.71141893989e-05,0.999999987005,0.0,0.0,0.0,0.0,0.0,0.0
1609055147171777487,129,1609055147171777487,0.00891819648741,-0.00494158930235,-0.00203746526082,-5.06475424322e-05,4.49543427127e-05,0.000334579533949,0.999999941735,0.0,0.0,0.0,0.0,0.0,0.0
1609055147273991585,130,1609055147273991585,0.0118632932697,0.0013049749746,-0.00327389872156,-8.23118956078e-05,3.98948514486e-05,-1.25016727025e-05,0.999999995738,0.0,0.0,0.0,0.0,0.0,0.0
1609055147377135992,131,1609055147377135992,0.0147826813407,-0.0144521979161,-0.00122998995392,-0.000269789443584,-5.20948484299e-05,0.000125212477575,0.999999954411,0.0,0.0,0.0,0.0,0.0,0.0
1609055147480468273,132,1609055147480468273,0.012117044264,-0.0125365041177,-0.00268165197003,-3.28447751928e-05,-0.000203109123795,0.000171562856039,0.999999964117,0.0,0.0,0.0,0.0,0.0,0.0
1609055147583860397,133,1609055147583860397,0.00780801153303,-0.00173831914121,0.000688306858472,9.3306139436e-05,1.06219865902e-05,6.60087616983e-05,0.999999993412,0.0,0.0,0.0,0.0,0.0,0.0
1609055147686503887,134,1609055147686503887,0.0121201104849,-0.0170067523592,-0.00460200091552,0.000553997670818,0.000241801178361,0.00016072903922,0.999999804392,0.0,0.0,0.0,0.0,0.0,0.0
1609055147789752007,135,1609055147789752007,0.0114175467836,-0.00916245481791,-9.49171088238e-05,-8.34270757445e-05,0.000352166743678,0.000263847894554,0.999999899701,0.0,0.0,0.0,0.0,0.0,0.0
1609055147892858028,136,1609055147892858028,0.0108260652057,-0.0134844492332,2.18935140053e-05,0.000671151607731,3.19526692469e-05,8.41703264762e-05,0.999999770725,0.0,0.0,0.0,0.0,0.0,0.0
1609055147997189045,137,1609055147997189045,0.00649164681919,-0.00474134120171,-0.00418216066111,0.000234084169198,-0.000455523445298,0.000274931637314,0.999999831058,0.0,0.0,0.0,0.0,0.0,0.0
1609055148099416494,138,1609055148099416494,0.0119060536131,-0.0136147522198,-0.00138827023755,0.000244395597952,-0.000306865226413,3.26435279067e-06,0.999999923047,0.0,0.0,0.0,0.0,0.0,0.0
1609055148169565439,139,1609055148169565439,0.0103699170285,-0.0183809614806,-0.000802984689621,-0.000225120082956,0.000333977333349,0.000201654470651,0.999999898558,0.0,0.0,0.0,0.0,0.0,0.0
1609055148271074057,140,1609055148271074057,0.00499089260711,-0.003572882413,-0.00134719411485,-0.000329611852744,0.000181629800083,0.000248798617805,0.999999898233,0.0,0.0,0.0,0.0,0.0,0.0
1609055148374405384,141,1609055148374405384,0.0113455137367,-0.0189326453323,-0.00155420269998,-1.77208213582e-05,0.000275000543671,0.000451012740346,0.999999860324,0.0,0.0,0.0,0.0,0.0,0.0
1609055148478417635,142,1609055148478417635,0.00417914995285,0.000211430957727,-0.00469029085767,0.00050059332408,-3.22375412245e-05,-2.87918773156e-05,0.999999873769,0.0,0.0,0.0,0.0,0.0,0.0
1609055148583073616,143,1609055148583073616,0.0138763064481,-0.0031394076335,-0.000625212459647,0.000319662299259,-0.000216874438031,-0.000105489370007,0.999999919827,0.0,0.0,0.0,0.0,0.0,0.0
1609055148683632374,144,1609055148683632374,0.0161259546668,-0.0173640589605,-0.00112207937703,-0.000288137263109,-0.000175403810117,0.000331282153976,0.999999888231,0.0,0.0,0.0,0.0,0.0,0.0
1609055148788128853,145,1609055148788128853,0.00771082274462,-0.0126756102726,3.33429013877e-05,0.000274708583478,0.000221672908246,0.000246717330561,0.999999907263,0.0,0.0,0.0,0.0,0.0,0.0
1609055148889712811,146,1609055148889712811,0.00222412164087,0.00020588612357,-0.00260347693399,-0.000160984089353,-0.000124714889766,0.000302672045998,0.99999993346,0.0,0.0,0.0,0.0,0.0,0.0
1609055148993099689,147,1609055148993099689,0.000545100663907,-0.0172212952704,-0.000972822058256,0.000217683839987,8.288782163e-05,0.000384287539315,0.999999899033,0.0,0.0,0.0,0.0,0.0,0.0
1609055149096170425,148,1609055149096170425,0.00273875285721,0.00176963102175,-0.0026039448322,0.000147973830848,-6.25145224762e-05,0.000260373953702,0.9999999532,0.0,0.0,0.0,0.0,0.0,0.0
1609055149199381351,149,1609055149199381351,0.00338404330466,-0.0120331022132,-0.0028524166911,0.000281139588676,-4.65126070008e-05,3.21201945553e-05,0.999999958883,0.0,0.0,0.0,0.0,0.0,0.0
1609055149269495249,150,1609055149269495249,0.00203540806142,-0.0079615543301,-0.00435621478431,-4.97292892156e-05,0.000148874340489,0.000276722822147,0.999999949394,0.0,0.0,0.0,0.0,0.0,0.0
1609055149371571064,151,1609055149371571064,0.000770160235773,-0.00321682689155,-0.00182527474565,-0.000451271611561,0.000202063715806,0.0002653028608,0.999999842569,0.0,0.0,0.0,0.0,0.0,0.0
1609055149474489212,152,1609055149474489212,-0.00180097061955,-0.00250477704423,-0.00239605488694,-0.00022609110818,-0.000364977952034,6.13019322152e-06,0.999999907818,0.0,0.0,0.0,0.0,0.0,0.0
1609055149578661919,153,1609055149578661919,-0.0069877136859,-0.00871741095755,-0.00254094911273,0.000119196403333,-0.000433464694001,0.000104891796388,0.999999893449,0.0,0.0,0.0,0.0,0.0,0.0
1609055149682505131,154,1609055149682505131,0.00856963255315,-0.00701311109071,-0.00135933671551,0.000114359053347,-0.000227806056014,0.000395161546965,0.999999889437,0.0,0.0,0.0,0.0,0.0,0.0
1609055149785044193,155,1609055149785044193,0.0153905583645,-0.00222398883165,-0.00166103811479,-8.25259360384e-05,0.000271803875761,0.000242133938703,0.999999930342,0.0,0.0,0.0,0.0,0.0,0.0
1609055149887864351,156,1609055149887864351,-0.000204650040486,1.29331339035e-05,-0.00133451343916,4.92671334251e-05,0.000465339415839,0.000116644630085,0.999999883713,0.0,0.0,0.0,0.0,0.0,0.0
1609055149991185665,157,1609055149991185665,0.00671862145932,-0.0260945179549,-0.00125287131013,0.000806204378657,-0.000287688118689,0.000377449380895,0.999999562401,0.0,0.0,0.0,0.0,0.0,0.0
1609055150094257116,158,1609055150094257116,0.0126772241492,0.00251492950999,-0.00424644270121,-6.63301163325e-05,0.00011094030089,-5.36736306125e-05,0.999999990206,0.0,0.0,0.0,0.0,0.0,0.0
1609055150198007345,159,1609055150198007345,-0.00221038567919,-0.0154148107423,-0.00265779787817,0.00021510640025,-0.000394788068598,0.000384299292834,0.999999825093,0.0,0.0,0.0,0.0,0.0,0.0
1609055150300303221,160,1609055150300303221,0.00778325866696,0.00261273923568,-0.00336110777122,-0.000431835603506,9.29933987624e-05,0.000232684176608,0.999999875364,0.0,0.0,0.0,0.0,0.0,0.0
1609055150370502949,161,1609055150370502949,0.0112492647773,-0.0139919566346,-0.00119712204697,0.000543974623237,0.000245502792033,0.000251928360201,0.999999790176,0.0,0.0,0.0,0.0,0.0,0.0
1609055150473219872,162,1609055150473219872,0.00840805122336,-0.00374114143126,-0.00363614036268,-0.000160432965263,5.17424934533e-05,0.000346258558943,0.999999925844,0.0,0.0,0.0,0.0,0.0,0.0
1609055150575227261,163,1609055150575227261,0.00663188629089,-0.00134706764231,-0.0032425372802,-0.000148231391588,-5.11257653688e-05,3.66773575226e-05,0.999999987034,0.0,0.0,0.0,0.0,0.0,0.0
1609055150678193092,164,1609055150678193092,0.00445422099363,-0.0024413563828,-0.00308445599604,-0.000123313605717,0.000108037940995,8.61019376246e-05,0.999999982854,0.0,0.0,0.0,0.0,0.0,0.0
1609055150781237364,165,1609055150781237364,0.0075676905631,-0.00823184946263,-0.00174635172777,2.4631762628e-05,0.000106602893613,0.00039480249553,0.99999991608,0.0,0.0,0.0,0.0,0.0,0.0
1609055150884617329,166,1609055150884617329,-0.00190585205398,-0.00973294451114,-0.00498776938862,-1.01203558188e-05,-0.000180323403074,0.000214858304246,0.999999960608,0.0,0.0,0.0,0.0,0.0,0.0
1609055150987571478,167,1609055150987571478,0.00406185212048,-0.00627918998239,-0.00187741831892,-0.000131862836142,-3.36376785244e-06,0.000131384339302,0.999999982669,0.0,0.0,0.0,0.0,0.0,0.0
1609055151090301037,168,1609055151090301037,0.00294567487371,-0.0123666249115,-0.00390647602199,0.000129471814836,-0.000374144508289,0.000100154526168,0.999999916611,0.0,0.0,0.0,0.0,0.0,0.0
1609055151193549871,169,1609055151193549871,-0.00299981690588,0.000618691461109,-0.0013600631439,-0.00018377757586,-3.48554995141e-05,0.000288275985978,0.999999940954,0.0,0.0,0.0,0.0,0.0,0.0
1609055151297317028,170,1609055151297317028,-0.00266087161836,-0.00343830418053,-0.00370512739926,-9.89468512987e-05,9.2811924893e-05,0.000102262833553,0.999999985569,0.0,0.0,0.0,0.0,0.0,0.0
1609055151399702311,171,1609055151399702311,0.00391941839307,-0.00201680893174,-0.00464593371929,8.11527822418e-05,-0.000301070237031,0.000169656907647,0.999999936994,0.0,0.0,0.0,0.0,0.0,0.0
1609055151470289946,172,1609055151470289946,-0.00355011947891,0.000870448277466,-0.0014057987745,0.000146148020454,-3.41670368596e-06,0.000177852417409,0.999999973499,0.0,0.0,0.0,0.0,0.0,0.0
1609055151572476864,173,1609055151572476864,0.01116247541,-0.00835521455497,-0.00269619916775,-0.000189368588663,0.000155643377565,0.00025651780746,0.999999937057,0.0,0.0,0.0,0.0,0.0,0.0
1609055151675107718,174,1609055151675107718,-0.0064788302991,-0.010020867462,-0.00261287656121,0.000540254566345,0.000261258241886,-3.92451484455e-05,0.999999819164,0.0,0.0,0.0,0.0,0.0,0.0
1609055151777958632,175,1609055151777958632,-0.00313634966981,-0.00728050359075,-0.00268893290756,-3.57748671657e-05,0.000260004354,9.60386796493e-05,0.999999960947,0.0,0.0,0.0,0.0,0.0,0.0
1609055151881113768,176,1609055151881113768,-0.00782364533404,-0.00134959769654,-0.00503265936918,8.60795202052e-05,-0.000265572848502,7.99233157947e-05,0.999999957837,0.0,0.0,0.0,0.0,0.0,0.0
1609055151984843493,177,1609055151984843493,1.79311252295e-05,-0.00176898140235,-0.00293567331029,7.74020141801e-06,-0.000249449952262,0.000204537408795,0.99999994794,0.0,0.0,0.0,0.0,0.0,0.0
1609055152087376595,178,1609055152087376595,0.00360031261097,-0.00522293295817,-0.00406565976885,0.000129717371947,0.000201305209897,0.0001060930312,0.999999965697,0.0,0.0,0.0,0.0,0.0,0.0
1609055152190477848,179,1609055152190477848,-0.00364574533743,-0.00888201872498,-0.00418081802527,-0.000150292878187,4.88672470842e-05,0.000203312457011,0.999999966844,0.0,0.0,0.0,0.0,0.0,0.0
1609055152293439150,180,1609055152293439150,-0.00244994014075,-0.0150723632007,-0.00385600925759,2.35531371633e-05,0.000352921203739,0.000219519735157,0.999999913351,0.0,0.0,0.0,0.0,0.0,0.0
1609055152396142006,181,1609055152396142006,-0.0117637098333,-0.0172636559603,-0.0014890108779,0.000352148716872,-9.14045773624e-05,3.42123895631e-05,0.999999933233,0.0,0.0,0.0,0.0,0.0,0.0
1609055152499129057,182,1609055152499129057,0.00208454839972,-0.00386988654861,-0.0054955723813,0.000404521058442,-0.000367750353964,0.000322843161425,0.999999798447,0.0,0.0,0.0,0.0,0.0,0.0
1609055152569576502,183,1609055152569576502,-0.0070460513665,-0.00641615771738,-0.00292649097843,-0.000535537652275,0.000302196640379,0.000275725073133,0.999999772926,0.0,0.0,0.0,0.0,0.0,0.0
1609055152671526194,184,1609055152671526194,-0.00367768966245,-0.0165640846403,-0.00473861208722,0.000249778440246,-0.000253476666837,0.000136471266821,0.999999927368,0.0,0.0,0.0,0.0,0.0,0.0
1609055152774578571,185,1609055152774578571,-0.0104513645785,-0.00980422729351,-0.00490434701416,3.69456051428e-05,0.000467847950437,0.00025145928662,0.999999858261,0.0,0.0,0.0,0.0,0.0,0.0
1609055152877686739,186,1609055152877686739,-0.0025230371173,-0.0165911729969,-0.00365095725268,6.59822679862e-05,-0.000325646761863,0.000108914564342,0.999999938869,0.0,0.0,0.0,0.0,0.0,0.0
1609055152980268955,187,1609055152980268955,-0.00402370516445,-0.00756223285975,-0.00172426929719,0.000769776125074,-0.000603342004315,0.000289036332555,0.99999947994,0.0,0.0,0.0,0.0,0.0,0.0
1609055153083885193,188,1609055153083885193,0.00714302805601,-0.0207400637501,-0.00455644357961,-0.000345639972567,0.000561993955274,0.000330891069584,0.999999727603,0.0,0.0,0.0,0.0,0.0,0.0
1609055153186609983,189,1609055153186609983,0.000385032911422,0.000952944400036,-0.00401145169849,-0.00011239140892,-0.000129393539345,0.000177822136781,0.999999969502,0.0,0.0,0.0,0.0,0.0,0.0
1609055153289673090,190,1609055153289673090,-0.00473087784024,-0.00357929912882,-0.00465328367592,-4.40319335889e-05,0.000215712363178,7.38241937989e-05,0.99999997304,0.0,0.0,0.0,0.0,0.0,0.0
1609055153392790794,191,1609055153392790794,0.0112476694918,-0.00763575684578,-0.00415671828344,-7.57678631862e-05,8.66543273457e-05,0.000285429555422,0.99999995264,0.0,0.0,0.0,0.0,0.0,0.0
1609055153496003389,192,1609055153496003389,-0.0128598846979,-0.00446103886802,-0.00394229506417,-7.48738815112e-05,-0.000340429098389,0.000318556747817,0.999999888512,0.0,0.0,0.0,0.0,0.0,0.0
1609055153598738670,193,1609055153598738670,0.000441744467406,-0.00831640333292,-0.00148008845066,-4.8421235743e-05,-0.000163085162493,0.000236352765578,0.999999957598,0.0,0.0,0.0,0.0,0.0,0.0
1609055153669197559,194,1609055153669197559,-0.00760333417836,-0.0169013953102,-0.00311776724532,0.000550465770497,-0.000340935338634,0.000285925365775,0.999999749498,0.0,0.0,0.0,0.0,0.0,0.0
1609055153771234274,195,1609055153771234274,0.0014391240143,-0.00409138004615,-0.00369293725444,-0.000245877968206,-0.000102247097918,-0.000205123425284,0.999999943507,0.0,0.0,0.0,0.0,0.0,0.0
1609055153873862982,196,1609055153873862982,-0.0021324740625,-0.0165551659041,-0.00121596339727,8.96092988459e-05,0.000297102044623,0.000513645042171,0.999999819935,0.0,0.0,0.0,0.0,0.0,0.0
1609055153976832151,197,1609055153976832151,0.00965961547995,-0.0142051953216,-0.0017335490117,-9.8797381337e-05,0.000396794523712,0.000261254517029,0.99999988227,0.0,0.0,0.0,0.0,0.0,0.0
1609055154079991341,198,1609055154079991341,0.00550804374555,-0.00425352341652,-0.00197137938018,-0.000129185546686,-0.000104309234006,0.000364199413324,0.999999919895,0.0,0.0,0.0,0.0,0.0,0.0
1609055154183711290,199,1609055154183711290,0.00793815441637,-0.00563224883147,-0.00240884223824,1.15259928357e-06,-9.58976652018e-05,-5.89970590456e-06,0.999999995384,0.0,0.0,0.0,0.0,0.0,0.0
1609055154286588192,200,1609055154286588192,-0.00167688550105,-0.024949035023,-0.00248274271595,0.000144617363095,-0.000177806151698,0.000415208421695,0.999999887536,0.0,0.0,0.0,0.0,0.0,0.0
1609055154389662981,201,1609055154389662981,0.00280851631121,-0.0131177189104,-0.00357898923625,-0.00012157453426,-1.40318786093e-05,0.000232804118323,0.999999965412,0.0,0.0,0.0,0.0,0.0,0.0
1609055154492826223,202,1609055154492826223,-0.00817809668575,0.00235749235884,-0.00241224506754,0.000173266425067,-0.00018021317259,-6.04161246959e-05,0.999999966926,0.0,0.0,0.0,0.0,0.0,0.0
1609055154596606731,203,1609055154596606731,-0.00802298264532,-0.00922097068361,-0.00290458005132,-9.66466997469e-05,-0.000101060175937,0.000330044050697,0.999999935759,0.0,0.0,0.0,0.0,0.0,0.0
1609055154698908806,204,1609055154698908806,0.0051545880911,-0.00869312140732,-0.00608509397806,7.25417539509e-05,-7.5018315687e-05,0.000254936245987,0.999999962059,0.0,0.0,0.0,0.0,0.0,0.0
1609055154769126177,205,1609055154769126177,-0.0122350376414,-0.00960814232249,-0.0045993402274,0.000361430826562,-0.000461184385314,0.000163421831466,0.999999814985,0.0,0.0,0.0,0.0,0.0,0.0
1609055154871373653,206,1609055154871373653,0.000387212840414,-0.00214017775151,-0.00148726926439,0.000591052485885,0.000324553822112,0.000246762655125,0.999999742215,0.0,0.0,0.0,0.0,0.0,0.0
1609055154974017859,207,1609055154974017859,0.00128993143103,-0.00699748761598,-0.00416273025535,-0.000137868729462,-9.92122085212e-05,0.000258762571345,0.999999952095,0.0,0.0,0.0,0.0,0.0,0.0
1609055155077124357,208,1609055155077124357,-0.0103020140501,-0.00565506883045,-0.00137614354287,0.000495528373865,-0.000338383880611,0.000165420860306,0.999999806292,0.0,0.0,0.0,0.0,0.0,0.0
1609055155180445671,209,1609055155180445671,-0.00314423649587,-0.0125501858971,-0.00382079797722,5.67060613253e-05,0.00022119142066,0.000320443137577,0.999999922587,0.0,0.0,0.0,0.0,0.0,0.0
1609055155283693552,210,1609055155283693552,-0.0104488104059,-0.00475638339258,-0.00331153698461,6.24001499905e-05,-0.000269642861569,0.000119413275297,0.99999995457,0.0,0.0,0.0,0.0,0.0,0.0
1609055155386423111,211,1609055155386423111,-0.00586415582231,-0.0104291268616,-0.00419834657577,2.37158249701e-05,3.52108700413e-05,0.000200747602952,0.999999978949,0.0,0.0,0.0,0.0,0.0,0.0
1609055155489398003,212,1609055155489398003,-0.00113013289772,-0.00522977505132,-0.00269308333018,-2.83415369917e-05,-8.55409497381e-05,0.00026624674617,0.999999960496,0.0,0.0,0.0,0.0,0.0,0.0
1609055155592817068,213,1609055155592817068,-0.00520500301305,-0.0108562472445,-0.00457571653315,0.000148302774517,-0.000386219746427,0.0003649520026,0.999999847825,0.0,0.0,0.0,0.0,0.0,0.0
1609055155696581841,214,1609055155696581841,-0.00546345580029,0.00215966545605,-0.00379666661064,6.20872084732e-05,-0.000245158869302,8.57160918047e-05,0.999999964347,0.0,0.0,0.0,0.0,0.0,0.0
1609055155798721790,215,1609055155798721790,0.0091945034577,-0.015966810445,-0.00233217765982,9.17143877718e-05,-0.000162728083349,2.85543809289e-05,0.999999982146,0.0,0.0,0.0,0.0,0.0,0.0
1609055155869126797,216,1609055155869126797,-0.00127965968089,-0.00759980163806,-0.0025309434958,0.000109633245471,-0.000296213336361,7.81273359148e-05,0.999999947067,0.0,0.0,0.0,0.0,0.0,0.0
1609055155971297264,217,1609055155971297264,-0.00446914201468,-0.00590634004543,-0.00417481602724,0.000127486256368,-0.000137328699511,0.000152825415482,0.999999970766,0.0,0.0,0.0,0.0,0.0,0.0
1609055156074017525,218,1609055156074017525,-0.00303543325002,-0.00144455906934,-0.00230089803485,-0.00010317413384,-0.00019272620192,0.000325917762191,0.999999922995,0.0,0.0,0.0,0.0,0.0,0.0
1609055156177234411,219,1609055156177234411,0.00272919873157,-0.0052775212855,-0.00457948398175,-0.000123788323079,0.000263824078228,5.21812008059e-05,0.999999956175,0.0,0.0,0.0,0.0,0.0,0.0
1609055156280258656,220,1609055156280258656,-0.00013224565184,-0.000885701404936,-0.0053751121907,-3.86592633167e-05,0.000129654526934,0.000116520150283,0.999999984059,0.0,0.0,0.0,0.0,0.0,0.0
1609055156383428812,221,1609055156383428812,-0.00531063251653,-0.00726700277006,-0.00332109063954,5.52195870781e-05,-0.00045706998953,0.000156821426323,0.999999881722,0.0,0.0,0.0,0.0,0.0,0.0
1609055156486276865,222,1609055156486276865,0.000757159243619,-0.00360197073294,-0.00465273018893,0.000408062237899,-0.000477510852458,0.000184216848261,0.999999785766,0.0,0.0,0.0,0.0,0.0,0.0
1609055156589553356,223,1609055156589553356,0.00211873510594,-0.00507621011665,-0.00235257038535,-5.96227687484e-05,0.000277668381976,0.000207871956157,0.999999938067,0.0,0.0,0.0,0.0,0.0,0.0
1609055156692684174,224,1609055156692684174,-0.000947715318813,-0.0119654809603,-0.00432644233993,-0.000434665349847,-0.000335849073708,0.000369178195319,0.999999780989,0.0,0.0,0.0,0.0,0.0,0.0
1609055156796438694,225,1609055156796438694,-0.000920139560399,-0.00830906475393,-0.00321549961221,-8.78041917092e-07,0.000192262759075,0.000285847312904,0.999999940663,0.0,0.0,0.0,0.0,0.0,0.0
1609055156898828983,226,1609055156898828983,0.00899521883031,-0.00843614057413,0.00010983048352,0.000241583680696,8.7345870803e-05,0.000191920070704,0.999999948587,0.0,0.0,0.0,0.0,0.0,0.0
1609055156969201326,227,1609055156969201326,0.00567379161625,-0.00287508994814,-0.00245048813509,0.000431424734333,-1.15710181209e-05,0.00031014682355,0.999999858774,0.0,0.0,0.0,0.0,0.0,0.0
1609055157071358204,228,1609055157071358204,0.0029914870525,-0.00671325996129,-0.00353463666021,4.98854029423e-05,-0.000349489925759,0.000167970465312,0.999999923577,0.0,0.0,0.0,0.0,0.0,0.0
1609055157173789263,229,1609055157173789263,0.00227671470574,-0.00159679743959,-0.00107702703652,0.000120983350259,2.10188742059e-05,6.73653539534e-05,0.999999990191,0.0,0.0,0.0,0.0,0.0,0.0
1609055157276909113,230,1609055157276909113,0.0163613553839,-0.018117546019,-0.00246549706284,0.000508589059016,-9.35718748966e-05,0.000278748882542,0.99999982744,0.0,0.0,0.0,0.0,0.0,0.0
1609055157379994154,231,1609055157379994154,0.00417612555346,0.00168947548225,-0.00268812870203,-1.55953202555e-05,-9.95093037492e-05,0.000109337011934,0.99999998895,0.0,0.0,0.0,0.0,0.0,0.0
1609055157483261347,232,1609055157483261347,0.0119299280845,-0.00728693073218,-0.00090945069046,-0.000210109857862,-4.15976119082e-05,0.000155897110406,0.99999996491,0.0,0.0,0.0,0.0,0.0,0.0
1609055157586686611,233,1609055157586686611,0.00606698128335,-0.00791397561941,-0.003136233978,-1.22062490259e-05,-0.000279433399492,7.37563326058e-05,0.999999958164,0.0,0.0,0.0,0.0,0.0,0.0
1609055157689653158,234,1609055157689653158,0.0190400422448,-0.0116506971483,-0.00129448765519,3.82494352046e-05,1.8508942096e-05,0.000257620531369,0.999999965913,0.0,0.0,0.0,0.0,0.0,0.0
1609055157792306662,235,1609055157792306662,0.00772481914876,-0.00923444886536,-0.00418630884869,-0.00020685387399,0.000152147848324,0.000412350334712,0.999999882015,0.0,0.0,0.0,0.0,0.0,0.0
1609055157895895958,236,1609055157895895958,-0.00630374146162,-0.0100921632949,-0.00200543767934,0.000443756617475,-0.000212007342329,0.00022526653346,0.999999853694,0.0,0.0,0.0,0.0,0.0,0.0
1609055157998662233,237,1609055157998662233,0.00982244531384,-0.0149774891815,-0.00273101021518,2.30514323451e-05,5.80774073678e-05,0.000235392113187,0.999999970343,0.0,0.0,0.0,0.0,0.0,0.0
1609055158069074392,238,1609055158069074392,0.00894030092597,-0.00627092242506,-0.00308712389754,-0.000157947384731,0.000365150063504,9.49957921168e-05,0.999999916347,0.0,0.0,0.0,0.0,0.0,0.0
1609055158170943975,239,1609055158170943975,0.00175126449603,-0.00226895189734,-0.00546877513722,-0.000265906308874,-9.05871227619e-05,0.000113644077405,0.999999954086,0.0,0.0,0.0,0.0,0.0,0.0
1609055158273988008,240,1609055158273988008,0.00208551895094,-0.0012466314946,-0.00133620877834,0.000212039592471,0.000277754227985,-3.76280877296e-05,0.999999938238,0.0,0.0,0.0,0.0,0.0,0.0
1609055158377055407,241,1609055158377055407,-0.00257701071122,0.0007704491181,-0.00400003629172,2.29687363564e-05,8.48308842857e-05,0.000308212477145,0.999999948641,0.0,0.0,0.0,0.0,0.0,0.0
1609055158480107546,242,1609055158480107546,0.00382980037827,-0.0116067785936,-0.0031224046617,4.1948773066e-05,-0.000260103409003,0.000304163196473,0.999999919036,0.0,0.0,0.0,0.0,0.0,0.0
1609055158583273649,243,1609055158583273649,0.00516574868841,-0.00754894302688,-0.0019155897662,-2.19230403573e-05,2.76896728211e-06,0.00016070320695,0.999999986843,0.0,0.0,0.0,0.0,0.0,0.0
1609055158686275244,244,1609055158686275244,0.00329088928285,-0.00683315945203,-0.00359303274522,-7.40206896284e-05,6.40965838337e-05,0.00022390339777,0.99999997014,0.0,0.0,0.0,0.0,0.0,0.0
1609055158789316893,245,1609055158789316893,0.00186915099789,-0.0141267603509,-0.000894247044914,0.000405998529531,-0.000170189781437,0.000320716538862,0.999999851671,0.0,0.0,0.0,0.0,0.0,0.0
1609055158892553091,246,1609055158892553091,0.0157488066122,-0.00371051776891,-0.00205498668533,2.65795210042e-05,0.00039026001182,0.000169509905029,0.999999909128,0.0,0.0,0.0,0.0,0.0,0.0
1609055158995902538,247,1609055158995902538,-0.00611549325427,-0.0100108337963,-0.00171964139166,2.32178288955e-05,-0.000110319149398,0.000249648912511,0.999999962483,0.0,0.0,0.0,0.0,0.0,0.0
1609055159098778725,248,1609055159098778725,0.00803590280551,-0.00903583082985,-0.000893152725426,3.08432065236e-05,0.00055085210363,8.13313802247e-05,0.999999844498,0.0,0.0,0.0,0.0,0.0,0.0
1609055159169205904,249,1609055159169205904,0.0104740536004,-0.0133898166935,-0.00338493593522,-0.000140679218545,0.000333015271457,0.000247345390362,0.999999904065,0.0,0.0,0.0,0.0,0.0,0.0
1609055159270748615,250,1609055159270748615,0.0101167478207,-0.00677346758304,-0.00448505617242,0.000243113852221,-5.88302750905e-05,0.000232472579133,0.999999941695,0.0,0.0,0.0,0.0,0.0,0.0
1609055159373700380,251,1609055159373700380,0.00979435804845,-0.00262611856201,-0.00125132409583,0.00034548039488,-0.000111783846134,0.000300402371142,0.999999888953,0.0,0.0,0.0,0.0,0.0,0.0
1609055159476822853,252,1609055159476822853,0.00632812066306,-0.0082412882239,-0.00259022395325,-4.15651437402e-05,8.02855003498e-05,0.000311811270281,0.9999999473,0.0,0.0,0.0,0.0,0.0,0.0
1609055159580052853,253,1609055159580052853,0.0112404127072,-0.00740863277871,-0.00287079790687,0.000142586840533,0.000162466475357,0.000148356228514,0.999999965632,0.0,0.0,0.0,0.0,0.0,0.0
1609055159683261871,254,1609055159683261871,0.0171234408004,-0.0054375300885,-0.00349027007314,3.5052381896e-05,0.000186789038917,0.000269810831369,0.999999945542,0.0,0.0,0.0,0.0,0.0,0.0
1609055159786355972,255,1609055159786355972,0.00869454168176,-0.00434167779808,-0.00239074145867,0.000167489305177,-0.000680911103867,0.000237599701136,0.999999725927,0.0,0.0,0.0,0.0,0.0,0.0
1609055159889343023,256,1609055159889343023,0.016888688926,-0.00298794959122,-0.000841107475502,-4.10248588465e-05,0.000470508493301,0.00022698382018,0.999999862708,0.0,0.0,0.0,0.0,0.0,0.0
1609055159992411137,257,1609055159992411137,0.0141998554993,-0.0130718680143,-0.000898057763522,-0.000448874565631,0.000500179743108,0.000353697857469,0.999999711615,0.0,0.0,0.0,0.0,0.0,0.0
1609055160095581532,258,1609055160095581532,0.00177023547303,-0.00357575699496,-0.0011065080811,0.000309320225876,-0.000190614967927,0.000282870811583,0.999999893985,0.0,0.0,0.0,0.0,0.0,0.0
1609055160198526144,259,1609055160198526144,0.00894379859451,-0.0111406211788,-0.00409269833633,-0.000262141883849,0.000326171115357,0.000127772212351,0.999999904284,0.0,0.0,0.0,0.0,0.0,0.0
1609055160268934727,260,1609055160268934727,0.00923676866051,-0.00181668892654,-0.00251108547608,-3.86435259668e-06,0.000107513418616,8.34613027029e-05,0.99999999073,0.0,0.0,0.0,0.0,0.0,0.0
1609055160370729685,261,1609055160370729685,0.0164516385982,-0.00663248692556,-0.00237643165153,-0.00011495293714,0.000484830529037,0.000149434521643,0.999999864697,0.0,0.0,0.0,0.0,0.0,0.0
1609055160473731995,262,1609055160473731995,0.00268208922998,-0.0110450480009,-0.00307144209277,0.000131349224036,0.000138718880552,0.000323910757588,0.999999929293,0.0,0.0,0.0,0.0,0.0,0.0
1609055160577017784,263,1609055160577017784,-0.00158959096662,-0.0185073505565,-0.00339615533573,0.000418042956587,-0.00028731636068,0.000503107584205,0.999999744786,0.0,0.0,0.0,0.0,0.0,0.0
1609055160680291653,264,1609055160680291653,4.88126960744e-05,-0.00881027018082,-0.000962322593013,0.000239003714033,-0.00024852649978,3.2836389064e-05,0.999999940017,0.0,0.0,0.0,0.0,0.0,0.0
1609055160783167839,265,1609055160783167839,0.00697589929725,-0.0176759233473,-0.00232955722134,-4.00069415965e-07,-0.000333042773952,0.000237535996442,0.999999916329,0.0,0.0,0.0,0.0,0.0,0.0
1609055160886071444,266,1609055160886071444,0.0117387661822,-0.00638717157108,-0.00152378673559,-0.000181224104678,-3.2233226986e-05,0.000239878411397,0.999999954288,0.0,0.0,0.0,0.0,0.0,0.0
1609055160989200354,267,1609055160989200354,0.0052625434513,-0.00241661298146,-0.00422164515879,4.63593791944e-05,-0.000261506280709,0.000226570218978,0.999999939065,0.0,0.0,0.0,0.0,0.0,0.0
1609055161092299223,268,1609055161092299223,0.0035987716848,-0.00372163653811,-0.00201558523907,0.000391182978285,0.000395347934924,0.000278428441553,0.999999806577,0.0,0.0,0.0,0.0,0.0,0.0
1609055161195332050,269,1609055161195332050,0.00342683954712,-0.0058245950556,-0.000973681667587,-9.17313751578e-05,0.000103219400176,0.000262661908227,0.99999995597,0.0,0.0,0.0,0.0,0.0,0.0
1609055161298496723,270,1609055161298496723,0.00986620693364,0.00304494125391,-0.00282151269154,-3.26678825329e-05,3.35313736072e-05,0.000170981253753,0.999999984287,0.0,0.0,0.0,0.0,0.0,0.0
1609055161368924141,271,1609055161368924141,0.0122323354901,-0.0133385206443,-0.00321907003201,-0.000334033657281,0.00030859179522,-3.66471251187e-06,0.999999896589,0.0,0.0,0.0,0.0,0.0,0.0
1609055161471105576,272,1609055161471105576,0.0153070572585,-0.00684511654385,-0.000791813154772,-5.71950389626e-05,0.000252074778313,0.000143438981981,0.999999956306,0.0,0.0,0.0,0.0,0.0,0.0
1609055161573607683,273,1609055161573607683,0.00846984406169,-0.00545072467849,-0.00284853768553,-0.000352079170829,0.000711207556143,0.000137198932106,0.9999996757,0.0,0.0,0.0,0.0,0.0,0.0
1609055161676759005,274,1609055161676759005,0.0141430647963,-0.0121475008839,-0.00128700789022,0.00019835332027,3.96466114957e-05,0.00024885672343,0.999999948577,0.0,0.0,0.0,0.0,0.0,0.0
1609055161779980659,275,1609055161779980659,0.00694128723057,-0.0109865212109,-0.00410635149573,0.000123381207693,-0.00026911930372,0.000280140687211,0.999999916936,0.0,0.0,0.0,0.0,0.0,0.0
1609055161883199692,276,1609055161883199692,-0.00244363193511,-0.00513852434987,-0.00210196921093,-0.000149549007902,3.15616854019e-05,0.000271722386939,0.999999951403,0.0,0.0,0.0,0.0,0.0,0.0
1609055161986642838,277,1609055161986642838,-0.00351401334469,0.0053671222265,-0.00222533236391,0.000210547869832,-0.000445300684582,0.000359452915989,0.999999814085,0.0,0.0,0.0,0.0,0.0,0.0
1609055162089151621,278,1609055162089151621,0.00255019121653,0.00219872023845,-0.00319835933141,-0.000527630258173,0.000760090602594,-0.000168210361955,0.999999557787,0.0,0.0,0.0,0.0,0.0,0.0
1609055162192154884,279,1609055162192154884,0.0199697838137,-0.0102217751625,-0.00276691050717,0.000519393728697,-0.000395686833329,0.000313821638529,0.999999737589,0.0,0.0,0.0,0.0,0.0,0.0
1609055162296276093,280,1609055162296276093,-0.00181254803563,-0.0141267418999,-0.00342814363954,0.000245439601577,-0.000332385640992,0.000364291806545,0.999999848285,0.0,0.0,0.0,0.0,0.0,0.0
1609055162398427248,281,1609055162398427248,0.00100525907105,-0.00909897371269,-0.00249616961728,8.11653346291e-05,0.0003605884002,-7.09098782277e-05,0.99999992918,0.0,0.0,0.0,0.0,0.0,0.0
1609055162468726158,282,1609055162468726158,0.0205868230598,-0.00957677534385,-0.000314990544955,-0.000398310018843,-8.42591406397e-06,0.000691128815656,0.999999681809,0.0,0.0,0.0,0.0,0.0,0.0
1609055162571559191,283,1609055162571559191,-0.00540290324792,-0.00652101000352,-0.00503614260498,0.000151491942588,-0.000482994393972,0.000108000320114,0.999999866051,0.0,0.0,0.0,0.0,0.0,0.0
1609055162673346281,284,1609055162673346281,0.00540447635806,-0.0155850922713,-0.0024112862887,-0.000440465274474,0.00025796509495,0.00010241286221,0.999999864478,0.0,0.0,0.0,0.0,0.0,0.0
1609055162776581764,285,1609055162776581764,0.0126278855406,-0.000665425350076,-0.002454100518,-0.000134572115028,0.000385063268825,0.000382597575223,0.999999843618,0.0,0.0,0.0,0.0,0.0,0.0
1609055162879585505,286,1609055162879585505,0.00803247349174,0.00160719705682,-0.00324898928249,-0.000325509185231,8.15881811684e-05,0.000327126244942,0.999999890188,0.0,0.0,0.0,0.0,0.0,0.0
1609055162982712030,287,1609055162982712030,-0.000104994593573,0.00228894448731,-0.00257968125274,0.000316631197143,7.92173791492e-05,3.04674193812e-06,0.99999994673,0.0,0.0,0.0,0.0,0.0,0.0
1609055163086351156,288,1609055163086351156,-0.00617883171436,0.00270386663097,-0.00339748528205,0.000107325246071,-0.000233644744646,0.000179452753942,0.999999950844,0.0,0.0,0.0,0.0,0.0,0.0
1609055163189177513,289,1609055163189177513,-0.00657382194582,-0.00722854139422,-0.00364595838696,-0.000278058403147,-0.000124495942463,0.000181869437754,0.999999937054,0.0,0.0,0.0,0.0,0.0,0.0
1609055163292199373,290,1609055163292199373,0.00212972508703,-0.00821259660668,-0.00394085638273,-0.000168280650149,-0.000112419621628,7.66580743013e-06,0.999999979492,0.0,0.0,0.0,0.0,0.0,0.0
1609055163395289660,291,1609055163395289660,0.00388146857484,0.000427753532569,-0.0038733095771,-0.000141074097751,0.00051107881833,0.000258180870717,0.999999826119,0.0,0.0,0.0,0.0,0.0,0.0
1609055163498400927,292,1609055163498400927,-0.00980027233908,-0.00213662243932,-0.00263957785486,-0.000147085474186,0.000204460698087,0.000137660840751,0.999999958805,0.0,0.0,0.0,0.0,0.0,0.0
1609055163568905830,293,1609055163568905830,-0.00833337257269,0.00438540771969,-0.00522785268877,0.000203015736508,0.000425940982521,5.66735882805e-05,0.999999887073,0.0,0.0,0.0,0.0,0.0,0.0
1609055163670442581,294,1609055163670442581,-0.00688011998008,-0.0190532997947,-0.003841863026,9.17675158831e-05,0.000157500783577,0.000341450182396,0.999999925092,0.0,0.0,0.0,0.0,0.0,0.0
1609055163773359299,295,1609055163773359299,-0.00582932099947,-0.0148268332945,-0.00791889761784,0.000466720317988,0.000236297389046,0.000140263547934,0.999999853331,0.0,0.0,0.0,0.0,0.0,0.0
1609055163876543760,296,1609055163876543760,-0.0118910062205,0.000636348204149,-0.00483379201114,-0.000299239890008,-0.00037803441253,0.000361512741553,0.999999818427,0.0,0.0,0.0,0.0,0.0,0.0
1609055163979641914,297,1609055163979641914,0.00652214991121,-0.00592564035332,-0.00808062064927,0.000251901061119,-0.000677592111581,0.000236932621253,0.999999710639,0.0,0.0,0.0,0.0,0.0,0.0
1609055164082920313,298,1609055164082920313,0.00984629966135,0.0057366509658,-0.00134048404099,-0.000162871356345,-0.00154450931592,8.40013542412e-05,0.999998790453,0.0,0.0,0.0,0.0,0.0,0.0
1609055164186211348,299,1609055164186211348,0.035589991867,-0.00772437634531,-0.00450527850728,0.000391411987397,-0.00011503612847,-0.000182823016913,0.999999900069,0.0,0.0,0.0,0.0,0.0,0.0
1609055164289117813,300,1609055164289117813,0.0374043998322,0.000550469803361,-0.00565931509375,0.000102713602929,0.000855325675209,-0.000354796994318,0.999999565993,0.0,0.0,0.0,0.0,0.0,0.0
1609055164392302990,301,1609055164392302990,0.0180520781685,0.000985669554825,-0.00311117496288,-0.000264740425734,0.000271572573901,3.57274826491e-05,0.999999927442,0.0,0.0,0.0,0.0,0.0,0.0
1609055164496070862,302,1609055164496070862,0.0127858337778,0.0133289937416,-0.0023516488697,-0.000696979236595,9.26000062937e-05,4.3595391339e-06,0.999999752813,0.0,0.0,0.0,0.0,0.0,0.0
1609055164598200321,303,1609055164598200321,0.0110166567903,0.00746077129442,-0.00484917850813,-3.58662986405e-05,0.000557608795988,-0.000290299061786,0.999999801756,0.0,0.0,0.0,0.0,0.0,0.0
1609055164668622971,304,1609055164668622971,0.000149906605614,0.0109430957372,-0.00811148467121,0.000522799724221,-9.33509713359e-05,-0.000475220605044,0.999999746066,0.0,0.0,0.0,0.0,0.0,0.0
1609055164770384073,305,1609055164770384073,0.00814210690691,0.00463744488657,-0.0102353764415,0.000296449204234,-0.000109873372938,-0.000209509633925,0.999999928076,0.0,0.0,0.0,0.0,0.0,0.0
1609055164873408556,306,1609055164873408556,-0.027912579698,0.0175557177402,-0.00891211421564,0.00146313407874,0.000768388210789,-0.000939977612898,0.999998192628,0.0,0.0,0.0,0.0,0.0,0.0
1609055164976708174,307,1609055164976708174,-0.0560425460462,0.0329205053447,-0.0108162341061,0.00306039079648,0.00554332133567,-0.00533922895159,0.999965698527,0.0,0.0,0.0,0.0,0.0,0.0
1609055165079728127,308,1609055165079728127,-0.107037562755,0.0468052964161,-0.0137319914678,0.00191528418757,0.00144428231377,-0.0102265530544,0.999944830152,0.0,0.0,0.0,0.0,0.0,0.0
1609055165183040380,309,1609055165183040380,-0.141033322073,0.0716645700521,-0.00741110887403,-0.00178892258682,0.000114239347244,-0.0181729360232,0.999833251648,0.0,0.0,0.0,0.0,0.0,0.0
1609055165286463022,310,1609055165286463022,-0.115739789225,0.0353213341982,-0.0229298579917,0.000233780045695,0.000814064137754,-0.0247557120259,0.999693171612,0.0,0.0,0.0,0.0,0.0,0.0
1609055165388955116,311,1609055165388955116,-0.119188881732,0.0534249875301,0.000983099874663,-8.11382458283e-05,-0.00393324752722,-0.0271602060348,0.999623352162,0.0,0.0,0.0,0.0,0.0,0.0
1609055165491592169,312,1609055165491592169,-0.057003691935,0.0568919045794,-0.00916884497687,-0.00196234858255,-0.00274867324047,-0.0253820430082,0.999672119185,0.0,0.0,0.0,0.0,0.0,0.0
1609055165595335245,313,1609055165595335245,-0.0261982951237,0.0157745946674,-0.0167449935539,-0.00269447913307,-0.00356194204725,-0.0217015277946,0.99975451789,0.0,0.0,0.0,0.0,0.0,0.0
1609055165697867870,314,1609055165697867870,-0.0189373564228,0.0195873727843,-0.00434251237947,0.000195942202529,-0.00109766949268,-0.0216837698356,0.99976425764,0.0,0.0,0.0,0.0,0.0,0.0
1609055165768328667,315,1609055165768328667,-0.0302526189978,0.0316959259694,-0.0118602066097,0.00170893812309,0.0014764389539,-0.0222833393645,0.999749144758,0.0,0.0,0.0,0.0,0.0,0.0
1609055165870173693,316,1609055165870173693,-0.0565399030375,0.035907588076,-0.0180011338166,0.00341347095824,-0.000238959565696,-0.02326475405,0.999723482936,0.0,0.0,0.0,0.0,0.0,0.0
1609055165973328590,317,1609055165973328590,-0.0529531787945,0.0833112317447,-0.0313345471721,0.0063646341781,-0.00154350111787,-0.0274262566872,0.999602375687,0.0,0.0,0.0,0.0,0.0,0.0
1609055166076450348,318,1609055166076450348,-0.0719591262881,0.107518465979,-0.046692245141,0.00608808797416,-0.001072769799,-0.0280885638848,0.9995863229,0.0,0.0,0.0,0.0,0.0,0.0
1609055166179520607,319,1609055166179520607,-0.0853648134585,0.151546423761,-0.057863757721,0.00503156360043,-0.0030512925281,-0.0279514300673,0.999591962022,0.0,0.0,0.0,0.0,0.0,0.0
1609055166282768011,320,1609055166282768011,-0.0982158393727,0.165756906216,-0.0546145598327,0.00154809941734,-0.0108283085522,-0.0280542552968,0.999546552133,0.0,0.0,0.0,0.0,0.0,0.0
1609055166385848761,321,1609055166385848761,-0.0827098216671,0.179517472584,-0.0614894276946,-0.000820716587529,-0.0116843738195,-0.0281768088964,0.99953432621,0.0,0.0,0.0,0.0,0.0,0.0
1609055166488936901,322,1609055166488936901,-0.086853101574,0.185185213147,-0.0516432830479,0.00574895866184,-0.0219664367327,-0.0293512281243,0.999311228066,0.0,0.0,0.0,0.0,0.0,0.0
1609055166592168093,323,1609055166592168093,-0.113188936059,0.174316810563,-0.1148198603,0.00786901066738,-0.0261475530437,-0.0293191673555,0.999197062929,0.0,0.0,0.0,0.0,0.0,0.0
1609055166695390463,324,1609055166695390463,-0.121588815038,0.190200757993,-0.154727219015,0.00898797527042,-0.0257317533303,-0.0291594147584,0.999203093321,0.0,0.0,0.0,0.0,0.0,0.0
1609055166798337936,325,1609055166798337936,-0.12108724544,0.219206175334,-0.184284399731,0.0090948383536,-0.0257386334027,-0.0288332086546,0.999211415439,0.0,0.0,0.0,0.0,0.0,0.0
1609055166868891478,326,1609055166868891478,-0.100144282436,0.237835901407,-0.211868815788,0.009988365507,-0.0280585945895,-0.0289970450516,0.999135686082,0.0,0.0,0.0,0.0,0.0,0.0
1609055166970364332,327,1609055166970364332,-0.0938426938159,0.316798666929,-0.230150137012,0.00474043770379,-0.0307220356616,-0.0291977060816,0.999090175477,0.0,0.0,0.0,0.0,0.0,0.0
1609055167073393345,328,1609055167073393345,-0.0932092396842,0.353164250075,-0.299381841353,-0.000779220301473,-0.0358639116093,-0.0293533484187,0.9989251992,0.0,0.0,0.0,0.0,0.0,0.0
1609055167176541567,329,1609055167176541567,-0.136195273933,0.395865981848,-0.277621331851,-0.0127839661404,-0.0447945300208,-0.0296676622546,0.998473760349,0.0,0.0,0.0,0.0,0.0,0.0
1609055167279684067,330,1609055167279684067,-0.128596396921,0.437050282238,-0.344226108954,-0.0186826556865,-0.0464436611978,-0.0312290798309,0.998257827058,0.0,0.0,0.0,0.0,0.0,0.0
1609055167382636547,331,1609055167382636547,-0.116177385466,0.502218578496,-0.382472372214,-0.0226643432419,-0.0465584531156,-0.0319524273356,0.998147123612,0.0,0.0,0.0,0.0,0.0,0.0
1609055167485815525,332,1609055167485815525,-0.0849186726288,0.519438108252,-0.427034855363,-0.0221966028241,-0.0443362363673,-0.0325379427134,0.998239896644,0.0,0.0,0.0,0.0,0.0,0.0
1609055167589457989,333,1609055167589457989,-0.098615501189,0.568490545722,-0.459754740904,-0.0215736658352,-0.0442144433198,-0.03214650269,0.998271637536,0.0,0.0,0.0,0.0,0.0,0.0
1609055167692022800,334,1609055167692022800,-0.0826095186509,0.591448853502,-0.49936001787,-0.0223569250619,-0.0446640319671,-0.03192844345,0.998241386964,0.0,0.0,0.0,0.0,0.0,0.0
1609055167795091391,335,1609055167795091391,-0.0588282507452,0.625510216993,-0.528695627028,-0.0207036305268,-0.0464460408301,-0.0311119559479,0.998221504062,0.0,0.0,0.0,0.0,0.0,0.0
1609055167898177624,336,1609055167898177624,-0.0114246681911,0.638603927333,-0.559085702986,-0.0214378205093,-0.0465677643295,-0.0310052087758,0.998203656678,0.0,0.0,0.0,0.0,0.0,0.0
1609055167968556166,337,1609055167968556166,0.0112042168853,0.67362021502,-0.632263163919,-0.0202854301628,-0.0484319380613,-0.0308450794326,0.998143992505,0.0,0.0,0.0,0.0,0.0,0.0
1609055168071106195,338,1609055168071106195,0.0949534647667,0.665500628089,-0.642222978462,-0.0179707129968,-0.0481445784211,-0.0303443520373,0.998217598193,0.0,0.0,0.0,0.0,0.0,0.0
1609055168173503637,339,1609055168173503637,0.159528467742,0.70801001219,-0.719577871917,-0.0161664744438,-0.049729366994,-0.0310975566345,0.998147572823,0.0,0.0,0.0,0.0,0.0,0.0
1609055168276779175,340,1609055168276779175,0.215530002193,0.718928787671,-0.775746228481,-0.0141306249216,-0.0485024191933,-0.0309296135826,0.998244058222,0.0,0.0,0.0,0.0,0.0,0.0
1609055168379848719,341,1609055168379848719,0.252135999344,0.770600082622,-0.844109790004,-0.0142060757936,-0.0451518439441,-0.0309792498947,0.998398610012,0.0,0.0,0.0,0.0,0.0,0.0
1609055168482652903,342,1609055168482652903,0.322879660432,0.766515736937,-0.92605876585,-0.0142589138115,-0.0424920174654,-0.0311600676075,0.998508969421,0.0,0.0,0.0,0.0,0.0,0.0
1609055168585685730,343,1609055168585685730,0.386713770471,0.781227546842,-0.978286897978,-0.0110047465583,-0.0381493496459,-0.0310591662067,0.998728617227,0.0,0.0,0.0,0.0,0.0,0.0
1609055168689079046,344,1609055168689079046,0.469795432419,0.776047941436,-1.04015631803,-0.0114396666317,-0.0324260315178,-0.0306489959598,0.998938599491,0.0,0.0,0.0,0.0,0.0,0.0
1609055168792130470,345,1609055168792130470,0.508941111102,0.805958610354,-1.06567764555,-0.0133729302896,-0.0295981863165,-0.0299930446355,0.999022286726,0.0,0.0,0.0,0.0,0.0,0.0
1609055168895235777,346,1609055168895235777,0.579502584798,0.803211419014,-1.13079030433,-0.0103231077555,-0.0257574230418,-0.0299276137228,0.999166816173,0.0,0.0,0.0,0.0,0.0,0.0
1609055168998229742,347,1609055168998229742,0.653542223115,0.805322692972,-1.18299238494,-0.00969299684474,-0.0249898665705,-0.0295855743332,0.999202805326,0.0,0.0,0.0,0.0,0.0,0.0
1609055169068821430,348,1609055169068821430,0.721243472304,0.811610842114,-1.20128871893,-0.00945472705815,-0.0257229856782,-0.0293480859886,0.999193487765,0.0,0.0,0.0,0.0,0.0,0.0
1609055169170395613,349,1609055169170395613,0.75715919955,0.834591869014,-1.20975892863,-0.0109398460113,-0.0297073829975,-0.0286599317263,0.999087783669,0.0,0.0,0.0,0.0,0.0,0.0
1609055169273409367,350,1609055169273409367,0.845454799082,0.817572459565,-1.22067898978,-0.011902220945,-0.0312446786174,-0.0299737545612,0.99899133191,0.0,0.0,0.0,0.0,0.0,0.0
1609055169376554251,351,1609055169376554251,0.898072593174,0.831877522962,-1.25222459887,-0.0136175554751,-0.0323092005787,-0.0301535846056,0.998930147245,0.0,0.0,0.0,0.0,0.0,0.0
1609055169479572773,352,1609055169479572773,0.973885890269,0.81290183986,-1.29460752548,-0.016005100551,-0.0340882502817,-0.0304911401016,0.998825369283,0.0,0.0,0.0,0.0,0.0,0.0
1609055169582808971,353,1609055169582808971,1.02483353331,0.857362669256,-1.33410424712,-0.0179394591267,-0.0422596485219,-0.0312230443625,0.998457520084,0.0,0.0,0.0,0.0,0.0,0.0
1609055169685728550,354,1609055169685728550,1.07198285645,0.857648719993,-1.35968447755,-0.0169921806993,-0.0530700846556,-0.0308865510303,0.997968362662,0.0,0.0,0.0,0.0,0.0,0.0
1609055169788963795,355,1609055169788963795,1.14816277485,0.854837817039,-1.37179648436,-0.0140520109312,-0.0627261040254,-0.0312698233679,0.99744181535,0.0,0.0,0.0,0.0,0.0,0.0
1609055169891989470,356,1609055169891989470,1.19971254134,0.847372803678,-1.37859018468,-0.0122793334295,-0.0729860613762,-0.0322462268183,0.996735889627,0.0,0.0,0.0,0.0,0.0,0.0
1609055169995791435,357,1609055169995791435,1.2880645966,0.840634702526,-1.44186419715,-0.0102081977515,-0.0764544240373,-0.0324977659878,0.996491048103,0.0,0.0,0.0,0.0,0.0,0.0
1609055170098069906,358,1609055170098069906,1.35485201034,0.851617398917,-1.48911205909,-0.00968208467483,-0.0672727245794,-0.0317801658602,0.997181357037,0.0,0.0,0.0,0.0,0.0,0.0
1609055170168601513,359,1609055170168601513,1.46643125582,0.85816239334,-1.54723273369,-0.0103381641104,-0.0551045563941,-0.0321790520097,0.997908371965,0.0,0.0,0.0,0.0,0.0,0.0
1609055170270894051,360,1609055170270894051,1.55318182164,0.858834409908,-1.61532867402,-0.00944789320182,-0.0423053878665,-0.0313676121079,0.998567506171,0.0,0.0,0.0,0.0,0.0,0.0
1609055170373339415,361,1609055170373339415,1.62094598584,0.84480490627,-1.67478790646,-0.0080521005111,-0.0307155899478,-0.0303073617395,0.999036125491,0.0,0.0,0.0,0.0,0.0,0.0
1609055170476449013,362,1609055170476449013,1.7414231924,0.831962451788,-1.72237246235,-0.00632861051139,-0.0249102265944,-0.0304987008405,0.999204312714,0.0,0.0,0.0,0.0,0.0,0.0
1609055170579489470,363,1609055170579489470,1.86631440976,0.799745090903,-1.72428788588,-0.00540717630329,-0.0247245526927,-0.0312789177023,0.999190216248,0.0,0.0,0.0,0.0,0.0,0.0
