%time,field.header.seq,field.header.stamp,field.pose.pose.position.x,field.pose.pose.position.y,field.pose.pose.position.z,field.pose.pose.orientation.x,field.pose.pose.orientation.y,field.pose.pose.orientation.z,field.pose.pose.orientation.w,field.twist.twist.linear.x,field.twist.twist.linear.y,field.twist.twist.linear.z,field.twist.twist.angular.x,field.twist.twist.angular.y,field.twist.twist.angular.z
1609055139025655746,48,1609055139025655746,0.00649272833132,-0.00126469211691,0.00560072021349,-0.00191709776147,-0.000249454373359,0.00068285194785,0.999997898109,0.0,0.0,0.0,0.0,0.0,0.0
1609055139128059149,49,1609055139128059149,0.026793813836,-0.00471492430737,0.0120289214367,-0.000930856692704,-0.000286804709869,0.0007007743984,0.999999280082,0.0,0.0,0.0,0.0,0.0,0.0
1609055139230719805,50,1609055139230719805,0.0113015728742,-0.000445606577632,0.0194896860445,5.67182690919e-05,-0.000337843912741,0.000705301946256,0.999999692597,0.0,0.0,0.0,0.0,0.0,0.0
1609055139333578110,51,1609055139333578110,0.0156983424198,-0.000610941286502,0.00603003624894,0.00125450336599,0.000101423751948,0.000410999059621,0.999999123507,0.0,0.0,0.0,0.0,0.0,0.0
1609055139436448574,52,1609055139436448574,0.0251063929623,-0.00190821829013,0.00874960769639,0.00152841782355,-0.00097781074435,0.000322285286394,0.999998301977,0.0,0.0,0.0,0.0,0.0,0.0
1609055139539830446,53,1609055139539830446,0.0239146985876,0.000952153896581,-0.011712136909,-0.00148183583233,-0.00119903367028,0.000566173942725,0.999998022962,0.0,0.0,0.0,0.0,0.0,0.0
1609055139642878771,54,1609055139642878771,0.0104390637353,-0.00148640175982,-0.0327929099048,-0.000122429434127,-0.000321785470731,0.00039455597362,0.999999862895,0.0,0.0,0.0,0.0,0.0,0.0
1609055139714159966,55,1609055139714159966,0.0218133395825,-0.00329360950792,-0.011983372088,-0.00385421038665,0.00130617843677,0.00063064586988,0.999991520587,0.0,0.0,0.0,0.0,0.0,0.0
1609055139814413786,56,1609055139814413786,0.0286883503422,-0.000980822789635,-0.0011836575875,0.000200129327409,-0.00147259621523,0.00055008280523,0.999998744408,0.0,0.0,0.0,0.0,0.0,0.0
1609055139917449236,57,1609055139917449236,0.0201882282274,-0.00099153933286,0.0102487558709,-0.0012123102713,0.000331897307298,0.000559731957071,0.999999053424,0.0,0.0,0.0,0.0,0.0,0.0
1609055140020951986,58,1609055140020951986,0.0380653882912,-0.00585288530843,0.00539098700532,-0.00230462753505,-0.000272971360293,0.000391830800881,0.99999723032,0.0,0.0,0.0,0.0,0.0,0.0
1609055140127297640,59,1609055140127297640,0.0284113048501,-0.00165079256316,0.0187607596144,0.000379033298852,-0.000887330593606,0.000395753637684,0.999999456178,0.0,0.0,0.0,0.0,0.0,0.0
1609055140226903677,60,1609055140226903677,0.0274408115496,-0.00632840558654,-0.00966343093918,0.000505181549086,-0.00121511502893,0.000669598342971,0.999998909962,0.0,0.0,0.0,0.0,0.0,0.0
1609055140334789515,61,1609055140334789515,0.0357123093686,0.00315003935357,0.00226950746954,-0.00132642223329,-1.94003172303e-06,0.000501210099611,0.999998994694,0.0,0.0,0.0,0.0,0.0,0.0
1609055140437967777,62,1609055140437967777,0.029373683474,-0.00146996365096,0.00445858682254,-0.000629198615085,-0.000383049896288,0.000446296108793,0.999999629101,0.0,0.0,0.0,0.0,0.0,0.0
1609055140541496038,63,1609055140541496038,0.032756107063,0.000311680063411,0.00543081229535,-0.000629093867924,-6.20892397669e-05,0.000359927988659,0.999999735419,0.0,0.0,0.0,0.0,0.0,0.0
1609055140644706488,64,1609055140644706488,0.0248091005912,0.00146293160177,-0.00812849900477,-0.00132023765707,8.39174789622e-05,0.000505732730659,0.999998997082,0.0,0.0,0.0,0.0,0.0,0.0
1609055140716351748,65,1609055140716351748,0.0110144957863,-0.00485624640925,-0.0215892929165,-0.000727760731637,0.000331629029435,0.000473414305797,0.999999568133,0.0,0.0,0.0,0.0,0.0,0.0
1609055140816403151,66,1609055140816403151,0.0150273829167,-0.00052022614629,-0.00882032081831,-0.00228070013411,0.00108907381279,0.000455937049326,0.999996702218,0.0,0.0,0.0,0.0,0.0,0.0
1609055140920365095,67,1609055140920365095,0.0393528132615,-0.00141532174523,0.0194073371046,-0.0015835535842,-0.000417693760213,0.000339814859493,0.999998601207,0.0,0.0,0.0,0.0,0.0,0.0
1609055141022758722,68,1609055141022758722,0.0148237551124,-0.00423849162577,-0.00360015705238,-0.000199457791036,0.000327765123359,0.000551479140263,0.999999774329,0.0,0.0,0.0,0.0,0.0,0.0
1609055141125457764,69,1609055141125457764,0.0089246701202,-0.000792931655173,-0.0127132401764,0.00140605406071,-0.000302933318519,0.000589344404609,0.999998791958,0.0,0.0,0.0,0.0,0.0,0.0
1609055141228677511,70,1609055141228677511,0.0244534607495,0.000140081362249,0.00749832149467,3.79351452249e-06,0.000651491153942,0.000294978378885,0.999999744266,0.0,0.0,0.0,0.0,0.0,0.0
1609055141331431150,71,1609055141331431150,0.0202204064563,0.00245981357783,-0.0239033640883,-0.000833028666911,-0.0010607136752,0.000437796435964,0.999998994641,0.0,0.0,0.0,0.0,0.0,0.0
1609055141434683084,72,1609055141434683084,0.0040201107784,-0.00070435217866,-0.011958119038,-0.000476072426972,0.000227260943328,0.000554203344999,0.999999707283,0.0,0.0,0.0,0.0,0.0,0.0
1609055141538855314,73,1609055141538855314,0.0144866115068,-0.0027102544848,-0.00699330964242,0.00161450916206,-0.00103754694577,0.000438288710094,0.999998062378,0.0,0.0,0.0,0.0,0.0,0.0
1609055141640964031,74,1609055141640964031,0.0290293669782,-0.00202027166559,-0.00524532350752,-0.0017917504252,-0.00105194272827,0.000308863139628,0.999997793823,0.0,0.0,0.0,0.0,0.0,0.0
1609055141744298697,75,1609055141744298697,0.00421017509796,-0.000683505408636,-0.027774307458,-0.00220776757622,0.000871433154703,0.000602373735344,0.999997001752,0.0,0.0,0.0,0.0,0.0,0.0
1609055141814506292,76,1609055141814506292,0.0150307564983,0.00114054591564,-0.0115855239344,-0.000572871819348,-0.000520758561696,0.000265274828414,0.999999665129,0.0,0.0,0.0,0.0,0.0,0.0
1609055141916404963,77,1609055141916404963,0.022283812803,0.000962939879112,0.00836033422147,-0.00205127421671,0.000982215055309,0.0003351677637,0.999997357592,0.0,0.0,0.0,0.0,0.0,0.0
1609055142020830631,78,1609055142020830631,0.0322260775921,0.00135868076824,-9.35193127147e-05,-0.00118981033861,-2.2673452953e-05,0.000640105016633,0.999999087051,0.0,0.0,0.0,0.0,0.0,0.0
1609055142122883081,79,1609055142122883081,0.01307712406,-2.5004871464e-05,-0.0185305833516,0.000829085278523,-0.000707564367373,0.000361457165463,0.999999340659,0.0,0.0,0.0,0.0,0.0,0.0
1609055142225504398,80,1609055142225504398,0.00608808443391,0.00269588505851,-0.0310973585703,-0.000157804335511,0.000389020755845,0.000512975745428,0.999999780308,0.0,0.0,0.0,0.0,0.0,0.0
1609055142328690767,81,1609055142328690767,-0.00446081245058,0.00156695163539,-0.0398723056361,0.00135063270297,-0.000155298858643,0.000702932099334,0.999998828779,0.0,0.0,0.0,0.0,0.0,0.0
1609055142431641340,82,1609055142431641340,0.0207737441656,0.00183960321916,-0.00889710517976,-0.000786799628997,8.12645936383e-05,0.000151896426732,0.999999675635,0.0,0.0,0.0,0.0,0.0,0.0
1609055142534592867,83,1609055142534592867,0.0194234294307,-0.00165060550845,-0.00398582119847,-0.00256987023015,-2.57600558947e-05,0.000487115543873,0.999996578905,0.0,0.0,0.0,0.0,0.0,0.0
1609055142638680458,84,1609055142638680458,0.0329904636568,-0.00345484897988,0.00667025028147,-0.00231610254867,-0.00061118317517,2.82708749258e-05,0.999997130658,0.0,0.0,0.0,0.0,0.0,0.0
1609055142740714788,85,1609055142740714788,0.0209332381493,-0.000633457919328,0.00166076630971,9.34845002822e-05,-0.000509745645378,0.000358210768932,0.999999801553,0.0,0.0,0.0,0.0,0.0,0.0
1609055142843720198,86,1609055142843720198,0.014179501155,-0.0014646288263,-0.00778867620178,-0.000366596419602,0.000244115300194,0.000247565921306,0.999999872363,0.0,0.0,0.0,0.0,0.0,0.0
1609055142913968563,87,1609055142913968563,0.0275317320727,0.0011214188848,-0.00614124360641,-0.00185280106251,-0.000381098903101,0.000646998726376,0.99999800164,0.0,0.0,0.0,0.0,0.0,0.0
1609055143015883923,88,1609055143015883923,0.02538355433,-0.00356529876098,-0.00104256149761,-0.00140982520129,-0.000914385700604,0.000444795932966,0.999998489223,0.0,0.0,0.0,0.0,0.0,0.0
1609055143119069576,89,1609055143119069576,0.0272616613086,-0.00244812031941,0.00868336874681,-0.00143398643399,9.74281080951e-05,8.68614569521e-05,0.999998963322,0.0,0.0,0.0,0.0,0.0,0.0
1609055143222742796,90,1609055143222742796,0.0344332492087,-0.00170945989061,0.012618005519,0.00145149193579,-0.000790694680212,0.000778570117596,0.999998330899,0.0,0.0,0.0,0.0,0.0,0.0
1609055143325811625,91,1609055143325811625,0.0248706935547,-0.000801930998437,0.00985638624201,-0.00204977305058,-0.000749085651574,0.000194894554567,0.999997599656,0.0,0.0,0.0,0.0,0.0,0.0
1609055143428938150,92,1609055143428938150,0.0400503709063,-0.00281885964209,0.0136659390277,-0.00106042353955,-0.00121011247626,0.000503405679328,0.999998578855,0.0,0.0,0.0,0.0,0.0,0.0
1609055143531965494,93,1609055143531965494,0.0153285185213,-0.00419191337148,0.0197087664424,-0.000982200164301,0.00161427170043,0.000618991288961,0.999998023128,0.0,0.0,0.0,0.0,0.0,0.0
1609055143635054588,94,1609055143635054588,0.0378655711196,0.00111641022747,-0.00174651264461,-0.000719867396931,-0.00118635887289,0.000275671613496,0.999998999174,0.0,0.0,0.0,0.0,0.0,0.0
1609055143742691994,95,1609055143742691994,0.0307010411688,6.72794119677e-05,-0.00564464244294,-0.00134097892379,-0.000890567960518,0.00059685443552,0.999998526213,0.0,0.0,0.0,0.0,0.0,0.0
1609055143814460754,96,1609055143814460754,0.0213913602848,0.000294191589051,-0.014721925453,-0.000679486495844,0.000689816266138,0.00070213235158,0.999999284731,0.0,0.0,0.0,0.0,0.0,0.0
1609055143914389372,97,1609055143914389372,0.0135089460826,0.00111183575798,-0.0367659332466,0.00121071851758,-2.44971041281e-05,0.000501914583177,0.999999140821,0.0,0.0,0.0,0.0,0.0,0.0
1609055144017629385,98,1609055144017629385,0.0212516897377,0.000247020017366,-0.0203045830986,-0.00170076517488,-0.000299835480395,0.000536881550548,0.999998364626,0.0,0.0,0.0,0.0,0.0,0.0
1609055144120949030,99,1609055144120949030,0.0234726788401,0.00258825400433,-0.0109732701842,0.00255870446624,-0.00130284638465,0.000575587925379,0.999995712151,0.0,0.0,0.0,0.0,0.0,0.0
1609055144223851919,100,1609055144223851919,0.0330132733779,-0.00270578141039,-0.00412414138161,-0.0021365015412,0.000296578507184,0.000698673353961,0.999997429626,0.0,0.0,0.0,0.0,0.0,0.0
1609055144327150822,101,1609055144327150822,0.0358598121287,0.00236119514535,0.00659170248762,0.00100891933928,-0.000719905454699,0.000525053317286,0.999999094068,0.0,0.0,0.0,0.0,0.0,0.0
1609055144430374384,102,1609055144430374384,0.0323049323457,0.00284346928766,0.00143411385348,0.00118968631711,-0.000586464282928,0.000442344167779,0.999999022518,0.0,0.0,0.0,0.0,0.0,0.0
1609055144533705950,103,1609055144533705950,0.0446352708246,0.000272472194671,0.00150153083438,-0.00196043556569,2.4101320972e-05,0.000514374600339,0.999997945763,0.0,0.0,0.0,0.0,0.0,0.0
1609055144636371374,104,1609055144636371374,0.0404844971356,0.00144390759806,0.0150332529546,-0.000584750203275,-0.000624488455676,0.000272035070011,0.999999597039,0.0,0.0,0.0,0.0,0.0,0.0
1609055144739159346,105,1609055144739159346,0.0338415137588,-0.00132565235651,0.0209173322455,-0.000456101182457,0.00021011170912,0.000745796934093,0.999999595806,0.0,0.0,0.0,0.0,0.0,0.0
1609055144842520237,106,1609055144842520237,0.0241373642246,0.000285539366405,-0.00143274829915,-0.00128499193165,-0.000793049516285,0.000645541513793,0.999998651571,0.0,0.0,0.0,0.0,0.0,0.0
1609055144914197683,107,1609055144914197683,0.022950552115,0.000884293475163,-0.00198557483122,0.00194932813832,-0.000569724479026,0.000597776898107,0.999997759096,0.0,0.0,0.0,0.0,0.0,0.0
1609055145014426231,108,1609055145014426231,0.0150806111809,0.00413853453472,-0.0205933385454,0.00318378094051,-0.000714595092864,0.000524452064794,0.999994538907,0.0,0.0,0.0,0.0,0.0,0.0
1609055145117524147,109,1609055145117524147,0.0215641431143,0.00260859272549,0.00220638387237,-0.000380171989071,0.000584614379411,0.000447766496029,0.9999996566,0.0,0.0,0.0,0.0,0.0,0.0
1609055145220365047,110,1609055145220365047,0.0366414292113,-0.000999473867683,-0.00344907550623,-0.00219296104775,-0.000965379828096,0.000557155196535,0.999996974266,0.0,0.0,0.0,0.0,0.0,0.0
1609055145323341131,111,1609055145323341131,0.0386119236241,-0.000328371111765,0.0186924019056,-0.00183090014296,0.000207989913453,0.000469266353699,0.999998192165,0.0,0.0,0.0,0.0,0.0,0.0
1609055145426139355,112,1609055145426139355,0.0192547594005,-0.00149988422265,-0.0296782587268,-0.00179140213028,0.000223813670503,0.000193649408643,0.999998351642,0.0,0.0,0.0,0.0,0.0,0.0
1609055145529444218,113,1609055145529444218,0.0277227085449,-0.0017496639747,0.00172184817396,0.000357475118447,-0.00105305319266,0.000369010047039,0.999999313561,0.0,0.0,0.0,0.0,0.0,0.0
1609055145632878065,114,1609055145632878065,0.0395221847066,-0.000776245828842,0.00620762354106,-0.00199941637674,-0.000248408440725,0.000247653306058,0.999997939646,0.0,0.0,0.0,0.0,0.0,0.0
1609055145735980749,115,1609055145735980749,0.0253359202133,0.000513698906114,0.00192861843502,-0.00165527164744,-0.000609014744325,0.000551853012913,0.999998292316,0.0,0.0,0.0,0.0,0.0,0.0
1609055145838836670,116,1609055145838836670,0.0139079433264,0.000727644279638,-0.0191034574359,0.00116883350668,-0.000402347234975,0.000685878179934,0.999999000758,0.0,0.0,0.0,0.0,0.0,0.0
1609055145942138672,117,1609055145942138672,0.0201861950656,0.00112941161711,-0.0224290402292,0.00218576749712,-0.00140135491925,0.000504573468292,0.999996502009,0.0,0.0,0.0,0.0,0.0,0.0
1609055146014492750,118,1609055146014492750,0.0291663382722,-0.00419182101607,0.00403062637958,-0.00109743501599,-0.000291090924414,0.000951209787599,0.999998903051,0.0,0.0,0.0,0.0,0.0,0.0
1609055146114297867,119,1609055146114297867,0.0106766686379,0.00100490023375,-0.0070504438141,0.000734597615034,-6.12930562127e-05,0.000516822090224,0.999999594752,0.0,0.0,0.0,0.0,0.0,0.0
1609055146217011690,120,1609055146217011690,0.0425018549059,-0.00168264585217,0.0168047999075,-0.00249668118275,-0.000991306211161,7.07750786478e-05,0.999996389436,0.0,0.0,0.0,0.0,0.0,0.0
1609055146320514202,121,1609055146320514202,0.0421703638303,-0.00282833582262,0.0215348227001,-0.00233460918924,0.000230741773636,0.000300619778026,0.999997202989,0.0,0.0,0.0,0.0,0.0,0.0
1609055146423123121,122,1609055146423123121,0.0303381943274,0.00116324945336,0.012265261986,0.000258230651325,-0.00112662162965,0.000648718707471,0.999999121602,0.0,0.0,0.0,0.0,0.0,0.0
1609055146526614666,123,1609055146526614666,0.016330077763,7.17867923395e-05,-0.00879037392792,0.000192722766595,-0.00122243366809,0.000542226682286,0.999999087252,0.0,0.0,0.0,0.0,0.0,0.0
1609055146629117727,124,1609055146629117727,0.0186355456471,7.15957078516e-05,-0.00901346742333,-0.000187492247629,-0.000774928276935,0.000339902156205,0.9999996244,0.0,0.0,0.0,0.0,0.0,0.0
1609055146732027054,125,1609055146732027054,0.0258559657914,0.000289385356529,0.00498742978982,-0.00106602680928,-0.000171852798708,0.000582087856195,0.999999247613,0.0,0.0,0.0,0.0,0.0,0.0
1609055146835142851,126,1609055146835142851,0.0180571179728,-5.23781307915e-05,9.13630049548e-06,-0.00129472172938,0.000397795536269,0.000517062765092,0.99999894905,0.0,0.0,0.0,0.0,0.0,0.0
1609055146938768387,127,1609055146938768387,0.0327717527461,-0.00207341469389,0.00198364229698,0.000716036254647,-0.00101001264891,0.0006098194499,0.999999047643,0.0,0.0,0.0,0.0,0.0,0.0
1609055147041479349,128,1609055147041479349,0.026044675998,-0.00384800533025,0.00829007076107,-0.000221218433251,-0.000476965498817,0.000727697064095,0.999999597012,0.0,0.0,0.0,0.0,0.0,0.0
1609055147113377810,129,1609055147113377810,0.0345702540844,0.000340172676433,-0.012993713487,-0.000573427389695,-0.00127007543426,0.000218888766862,0.999999005088,0.0,0.0,0.0,0.0,0.0,0.0
1609055147213561296,130,1609055147213561296,0.0177936184574,-0.000135804252283,-0.00138852634058,-0.00172716729401,-0.000188869886222,0.000573982266933,0.999998325881,0.0,0.0,0.0,0.0,0.0,0.0
1609055147316827536,131,1609055147316827536,0.0302774253648,0.000330824368042,0.0175447181876,-0.00149147783029,-0.000582773663674,0.00054245673937,0.999998570804,0.0,0.0,0.0,0.0,0.0,0.0
1609055147425654411,132,1609055147425654411,0.034430554474,-0.00246059936663,0.0128856198024,-0.000538033249629,-0.000945088041086,0.000445426346339,0.999999309462,0.0,0.0,0.0,0.0,0.0,0.0
1609055147524024963,133,1609055147524024963,0.0155900876511,0.00225340823368,-0.000768686058607,0.00206824271917,-0.000338619846503,0.000822563354678,0.999997465546,0.0,0.0,0.0,0.0,0.0,0.0
1609055147626479626,134,1609055147626479626,0.020691893526,0.00412611828042,-0.00448416425143,0.00206943791274,-0.000758569522677,0.000553176069544,0.999997417994,0.0,0.0,0.0,0.0,0.0,0.0
1609055147730268002,135,1609055147730268002,0.0307190497633,0.00140738258023,0.000469967058187,-0.000195305119523,-0.000433664676217,0.000219014102354,0.999999862912,0.0,0.0,0.0,0.0,0.0,0.0
1609055147832747936,136,1609055147832747936,0.010754989195,-0.000670065676698,0.0106633347911,0.0017517641968,0.000122767047919,0.000516230858342,0.999998324877,0.0,0.0,0.0,0.0,0.0,0.0
1609055147936282158,137,1609055147936282158,0.0346949375168,-0.00365370154413,0.00685980214461,-0.00101174528424,-0.000462021776727,0.000358893627285,0.999999317051,0.0,0.0,0.0,0.0,0.0,0.0
1609055148038895369,138,1609055148038895369,0.026726525733,-0.00147817787471,0.0134612630898,-0.000891087663337,0.000397512797713,0.000529136690855,0.99999938398,0.0,0.0,0.0,0.0,0.0,0.0
1609055148142020702,139,1609055148142020702,0.0247485124445,0.00396787891387,0.00389461531657,-0.00087473490806,-0.000662267445904,0.000518010156698,0.999999263953,0.0,0.0,0.0,0.0,0.0,0.0
1609055148214050293,140,1609055148214050293,0.0119202800931,-0.00409200002102,0.0146768885551,0.0034046118099,-0.00120908691547,0.000838625416791,0.999993121694,0.0,0.0,0.0,0.0,0.0,0.0
1609055148314085007,141,1609055148314085007,0.0341675197857,0.000286946939197,-0.00471877960802,-0.00309310884941,0.000910003958031,0.00053318463008,0.999994660128,0.0,0.0,0.0,0.0,0.0,0.0
1609055148417016506,142,1609055148417016506,0.0242908867772,0.00254585058669,0.00522059184347,-0.000395911629335,-0.000540271966098,0.000358364726898,0.999999711467,0.0,0.0,0.0,0.0,0.0,0.0
1609055148520582676,143,1609055148520582676,0.0273225125224,-0.000381354181868,0.00937158487748,-0.00067159053102,-0.000309227481328,0.000278186245605,0.999999687978,0.0,0.0,0.0,0.0,0.0,0.0
1609055148623268366,144,1609055148623268366,0.0450986083141,0.00296661327548,0.00311734534442,-0.00164605854971,-0.000888969194311,0.000252059366216,0.999998218344,0.0,0.0,0.0,0.0,0.0,0.0
1609055148726490498,145,1609055148726490498,0.0331661165564,0.00108607229454,-0.00307701356366,-0.00210962569735,0.000277589592214,0.000223213770441,0.999997711297,0.0,0.0,0.0,0.0,0.0,0.0
1609055148830091476,146,1609055148830091476,0.0247271182101,0.000910103613418,0.0123348799294,0.000409900709371,-0.000355651129866,0.000385029645966,0.999999778623,0.0,0.0,0.0,0.0,0.0,0.0
1609055148932959557,147,1609055148932959557,0.025645514939,0.00356026909104,-0.007471170381,0.000362225054876,6.40974631362e-05,0.000194840647982,0.999999913361,0.0,0.0,0.0,0.0,0.0,0.0
1609055149036030054,148,1609055149036030054,0.0197358911034,0.00152290234168,-0.00592837243997,-0.0010859363968,0.000928153950835,0.000383323732558,0.999998906167,0.0,0.0,0.0,0.0,0.0,0.0
1609055149139086008,149,1609055149139086008,0.0250860619083,-0.00170907812673,0.0106770993004,4.83525421448e-05,-8.65194053926e-05,0.000549300829651,0.999999844223,0.0,0.0,0.0,0.0,0.0,0.0
1609055149242789268,150,1609055149242789268,0.0288287666656,0.00254680771136,-0.000625076055234,-0.000313713491612,-0.000344356866086,0.000182892097168,0.999999874776,0.0,0.0,0.0,0.0,0.0,0.0
1609055149313380003,151,1609055149313380003,0.0383360855189,0.00283481444077,0.00787905484399,-0.000368193876521,-0.000143742989736,0.00035943444213,0.999999857289,0.0,0.0,0.0,0.0,0.0,0.0
1609055149413544178,152,1609055149413544178,0.0424674982892,-0.00398746733259,0.00588168042047,-0.00157281752538,-0.000789783346969,0.00028921289086,0.99999840942,0.0,0.0,0.0,0.0,0.0,0.0
1609055149518110037,153,1609055149518110037,0.0423496072002,0.000766572626756,0.0106074623336,-0.00124924717891,-1.06984147075e-05,0.000323871616988,0.999999167187,0.0,0.0,0.0,0.0,0.0,0.0
1609055149622687817,154,1609055149622687817,0.0413977979861,-0.00139565522828,0.00333966956622,-0.00289279586324,0.000450059645215,7.97783330668e-05,0.999995711398,0.0,0.0,0.0,0.0,0.0,0.0
1609055149726830244,155,1609055149726830244,0.0340566745073,-0.00159830063206,0.0200212148862,0.000939497417979,-0.0007031239089,0.000705068837915,0.999999062919,0.0,0.0,0.0,0.0,0.0,0.0
1609055149827682495,156,1609055149827682495,0.0316501803383,0.00247959418008,0.0229424683554,-0.00154081073856,1.35815864848e-05,0.000361700044183,0.999998747445,0.0,0.0,0.0,0.0,0.0,0.0
1609055149930499077,157,1609055149930499077,0.0406938376539,0.00320056108681,0.0158186308183,-8.43418404196e-05,-0.0015769480496,0.000542864109175,0.999998605709,0.0,0.0,0.0,0.0,0.0,0.0
1609055150033692360,158,1609055150033692360,0.0320577554335,0.00394141397007,-0.00396578254805,0.000984355257856,-0.000281346697234,0.000340606096267,0.999999417938,0.0,0.0,0.0,0.0,0.0,0.0
1609055150136876822,159,1609055150136876822,0.0471061520332,0.0019188658761,0.00354662195415,-0.000901807295737,-0.000291841718781,0.000200811597862,0.999999530623,0.0,0.0,0.0,0.0,0.0,0.0
1609055150239696026,160,1609055150239696026,0.0230170616969,-0.00328930052773,0.0124655699717,-0.000627412004965,0.000869793760421,0.000746917315171,0.999999145963,0.0,0.0,0.0,0.0,0.0,0.0
1609055150342724562,161,1609055150342724562,0.040655812214,-0.000159267282065,0.00639300721882,0.000405225444538,-0.00218665354775,2.37479949053e-05,0.999997526884,0.0,0.0,0.0,0.0,0.0,0.0
1609055150414378166,162,1609055150414378166,0.030418829857,-0.00203465209576,0.00418479440917,-0.000405032142694,0.00122316368644,0.000561712107308,0.999999012149,0.0,0.0,0.0,0.0,0.0,0.0
1609055150514224529,163,1609055150514224529,0.0408270579144,0.00183635394274,-0.00340744717114,0.000516185248309,-0.000874871381371,0.000333618581436,0.999999428426,0.0,0.0,0.0,0.0,0.0,0.0
1609055150617338896,164,1609055150617338896,0.0341869117753,-0.0035286736559,0.0199781374874,-0.000652374592375,-0.000325924126409,0.000813927986866,0.999999402851,0.0,0.0,0.0,0.0,0.0,0.0
1609055150720164299,165,1609055150720164299,0.0344915571764,0.00100165905573,-0.00100975834995,-0.000282381703213,-0.000731419778371,-0.000328758194703,0.999999638602,0.0,0.0,0.0,0.0,0.0,0.0
1609055150823152781,166,1609055150823152781,0.0232801589314,0.000821870358591,0.00196694727536,-0.000397603960062,0.000422352358032,0.000455872432769,0.999999727855,0.0,0.0,0.0,0.0,0.0,0.0
1609055150926352978,167,1609055150926352978,0.0309891531259,0.000452328950618,0.00506284514585,-0.00129661860914,-0.000636095495282,0.000433671881765,0.999998863045,0.0,0.0,0.0,0.0,0.0,0.0
1609055151029410362,168,1609055151029410362,0.0219377216078,0.00196629496833,-0.01931909569,-0.000732512037008,-0.000481780235826,0.000359112427789,0.999999551176,0.0,0.0,0.0,0.0,0.0,0.0
1609055151132587194,169,1609055151132587194,0.0201948212648,0.00158063444565,0.00358107168671,0.00074913545648,9.40911502909e-05,0.0007254157055,0.999999451857,0.0,0.0,0.0,0.0,0.0,0.0
1609055151236382484,170,1609055151236382484,0.00611735598215,0.00132259337061,-0.0172933589915,0.00245639128852,-0.000270642920259,0.000603006482814,0.999996764634,0.0,0.0,0.0,0.0,0.0,0.0
1609055151338823080,171,1609055151338823080,0.00961077431416,0.00422073110588,-0.0379584104177,0.00143313552852,-0.000828433935511,0.000403099659933,0.999998548664,0.0,0.0,0.0,0.0,0.0,0.0
1609055151441865206,172,1609055151441865206,0.0391742424809,-0.000750986267746,-0.0028186029687,-0.00141274094065,-0.000513734239437,0.000415964407288,0.999998783606,0.0,0.0,0.0,0.0,0.0,0.0
1609055151513671875,173,1609055151513671875,0.045988801141,0.00406842687764,0.00292469962981,-0.00198565831361,-9.48466626425e-05,0.000279248506987,0.999997985091,0.0,0.0,0.0,0.0,0.0,0.0
1609055151613961697,174,1609055151613961697,0.0505199023302,0.0041999905139,-0.00495415179832,-0.000527052436518,-0.000381258400394,6.5749426862e-05,0.999999786267,0.0,0.0,0.0,0.0,0.0,0.0
1609055151717077971,175,1609055151717077971,0.0417399425452,-0.00174276011272,0.000452138193329,-0.00109275034508,-0.000257247191804,0.000597378270533,0.99999919143,0.0,0.0,0.0,0.0,0.0,0.0
1609055151820232153,176,1609055151820232153,0.0588879181194,-0.00154711835041,0.00575222726157,-0.000264022164711,-0.000971029361456,0.000669499071207,0.999999269582,0.0,0.0,0.0,0.0,0.0,0.0
1609055151923230410,177,1609055151923230410,0.0434470220735,0.00543749321414,-0.0103116783035,-0.000185858108447,0.000667486059899,0.00041347205597,0.99999967448,0.0,0.0,0.0,0.0,0.0,0.0
1609055152026157618,178,1609055152026157618,0.0535468717537,0.0044475425677,0.000538117128069,0.00133441272318,-0.000628705149754,0.000563882004123,0.999998753054,0.0,0.0,0.0,0.0,0.0,0.0
1609055152129337549,179,1609055152129337549,0.0554439911881,-0.00021916119843,0.0102636020536,-0.00101336544603,-0.000613175194562,0.000845585785831,0.999998941045,0.0,0.0,0.0,0.0,0.0,0.0
1609055152232443571,180,1609055152232443571,0.0495416110166,0.00431675849475,-0.00568993454991,0.00117911622234,-0.000425281725325,0.000541867742949,0.999999067599,0.0,0.0,0.0,0.0,0.0,0.0
1609055152335853100,181,1609055152335853100,0.0489779903459,0.00512026247473,-0.0215885284539,0.00101240153961,-0.000570025239483,0.000722708947826,0.999999063903,0.0,0.0,0.0,0.0,0.0,0.0
1609055152439005613,182,1609055152439005613,0.0400044465081,0.00328383661229,-0.0127568661661,-0.00170359047696,0.0014246061989,0.000620245839528,0.999997341782,0.0,0.0,0.0,0.0,0.0,0.0
1609055152541596174,183,1609055152541596174,0.049262608231,0.00413789879122,-0.00607918848792,0.00145695071941,-0.000794472644319,0.000722079059505,0.999998362354,0.0,0.0,0.0,0.0,0.0,0.0
1609055152613724709,184,1609055152613724709,0.0468054285541,0.0010854223,-0.019098490496,-0.00169856981487,0.00019652444777,0.000417898119899,0.999998450799,0.0,0.0,0.0,0.0,0.0,0.0
1609055152713718891,185,1609055152713718891,0.0532032312497,0.00371368693092,-0.0141212778487,-0.00165130418302,-0.000798168304869,0.000932999694591,0.999997882815,0.0,0.0,0.0,0.0,0.0,0.0
1609055152816971779,186,1609055152816971779,0.0550498069148,0.00152247181285,-0.00152915228163,-0.00212641523121,-0.000276647384223,0.000694962676651,0.999997459422,0.0,0.0,0.0,0.0,0.0,0.0
1609055152919854403,187,1609055152919854403,0.0452369838174,-0.00289193483707,0.00247057572464,0.000882685708287,-0.000557883204226,0.000844264942867,0.999999098424,0.0,0.0,0.0,0.0,0.0,0.0
1609055153022563696,188,1609055153022563696,0.0596438498457,0.00416835124186,0.00498960628492,-0.00170983205729,-0.000138733714041,0.000407473640926,0.999998445595,0.0,0.0,0.0,0.0,0.0,0.0
1609055153126071692,189,1609055153126071692,0.0623489538821,0.00360641428385,-0.00266398162295,0.00053375117192,-0.00144481462644,0.000689945201918,0.999998575797,0.0,0.0,0.0,0.0,0.0,0.0
1609055153229015112,190,1609055153229015112,0.0494515736253,-0.000954103487946,0.00372425640637,0.000173575343351,0.000691580616897,0.000962795828202,0.999999282306,0.0,0.0,0.0,0.0,0.0,0.0
1609055153332001686,191,1609055153332001686,0.0599664774908,0.00401061999305,0.00988300109527,-0.00161751938869,-0.000410634189404,0.000391307788286,0.999998530943,0.0,0.0,0.0,0.0,0.0,0.0
1609055153435108900,192,1609055153435108900,0.0644581596524,0.00382281807935,0.00534757124327,-0.00241538193276,-1.90883748985e-05,0.000152528124934,0.999997071146,0.0,0.0,0.0,0.0,0.0,0.0
1609055153538350105,193,1609055153538350105,0.0595747765322,0.00161091858954,0.0223648761657,-0.000611512938216,-0.000594149487079,0.000468786149184,0.999999526639,0.0,0.0,0.0,0.0,0.0,0.0
1609055153641175270,194,1609055153641175270,0.0573805010727,0.00114059632038,0.0282111186095,-0.000466103318857,-0.00028695637759,0.000504216402901,0.999999723085,0.0,0.0,0.0,0.0,0.0,0.0
1609055153713190079,195,1609055153713190079,0.0474880577781,0.00404266884203,0.0192939124953,0.000966993525468,-0.000300451284732,0.000364040148343,0.999999421064,0.0,0.0,0.0,0.0,0.0,0.0
1609055153813747883,196,1609055153813747883,0.0537135765527,0.000589504413165,0.0107704916347,-1.00686418899e-06,-0.000340675011245,0.000462938145174,0.999999834814,0.0,0.0,0.0,0.0,0.0,0.0
1609055153916954041,197,1609055153916954041,0.0468128647298,0.00103769326813,0.0140590116254,-0.00102705938497,-0.000558280626751,0.000471806236047,0.999999205435,0.0,0.0,0.0,0.0,0.0,0.0
1609055154019996643,198,1609055154019996643,0.0480842918848,0.00322922688624,0.000788233009185,8.1339111039e-05,-0.000449163994073,0.000313261783914,0.999999846751,0.0,0.0,0.0,0.0,0.0,0.0
1609055154123107433,199,1609055154123107433,0.0369964486557,0.00172954682265,-0.00300662120542,3.33440111061e-05,0.000326654348193,0.000485429461908,0.999999828272,0.0,0.0,0.0,0.0,0.0,0.0
1609055154226102591,200,1609055154226102591,0.0420182783313,0.00143831278188,0.00763167155239,0.00257539577426,-0.000834294011969,0.000578791623594,0.999996168138,0.0,0.0,0.0,0.0,0.0,0.0
1609055154329762220,201,1609055154329762220,0.0331845173191,0.00916478294359,-0.00346013319952,0.00219025610042,-0.000162533572884,0.00061694497531,0.999997397867,0.0,0.0,0.0,0.0,0.0,0.0
1609055154432191133,202,1609055154432191133,0.05167247789,0.00269222618244,0.00788586415453,0.000986293089962,-0.000850572063644,0.000393126648675,0.999999074602,0.0,0.0,0.0,0.0,0.0,0.0
1609055154535300255,203,1609055154535300255,0.0494947925904,0.00368486652768,0.00335605935294,-0.000305223963305,-0.000287493128576,0.000526202665649,0.999999773648,0.0,0.0,0.0,0.0,0.0,0.0
1609055154638339281,204,1609055154638339281,0.0391781453494,0.00225435752377,-0.0362093957331,-0.000525890014047,-0.000585373341531,0.000340858898021,0.999999632296,0.0,0.0,0.0,0.0,0.0,0.0
1609055154741487026,205,1609055154741487026,0.0317084022852,0.00322245907441,-0.0162262745636,0.00337393050719,-0.000479183774753,0.000442473735542,0.999994095579,0.0,0.0,0.0,0.0,0.0,0.0
1609055154813583851,206,1609055154813583851,0.0315224810293,0.00329772581339,0.00408091806071,0.00109870479742,0.000200595826372,0.000527297432581,0.999999237283,0.0,0.0,0.0,0.0,0.0,0.0
1609055154913545847,207,1609055154913545847,0.0372685265435,0.00337761363102,-0.000982000575537,0.000362765959749,6.50403388245e-05,0.000640339697687,0.999999727068,0.0,0.0,0.0,0.0,0.0,0.0
1609055155016657352,208,1609055155016657352,0.050762205854,0.00555021844456,-1.56303368728e-05,-0.000375696959759,-0.00100170065593,0.000451872854819,0.999999325629,0.0,0.0,0.0,0.0,0.0,0.0
1609055155119784832,209,1609055155119784832,0.0530770130449,0.0018394567255,0.0205046372198,0.000577897329235,-0.000521334931356,0.000612655210795,0.999999509449,0.0,0.0,0.0,0.0,0.0,0.0
1609055155222986937,210,1609055155222986937,0.0442727711079,0.00121030129294,0.00487800978644,0.000189853385922,-0.000181876353486,0.000724660370079,0.999999702872,0.0,0.0,0.0,0.0,0.0,0.0
1609055155325912952,211,1609055155325912952,0.044099319297,0.00303284243465,0.0108682375614,0.00059592265965,-3.79753393339e-05,0.000690902092652,0.999999583044,0.0,0.0,0.0,0.0,0.0,0.0
1609055155429512501,212,1609055155429512501,0.0383095082649,0.000929589554769,0.0248652020413,0.000906133735351,4.78396574963e-05,0.000750610119931,0.999999306609,0.0,0.0,0.0,0.0,0.0,0.0
1609055155531948566,213,1609055155531948566,0.0490330082356,0.00739613932902,0.0127089501345,-0.000381509695953,-0.000595572315711,0.00029252466987,0.999999707087,0.0,0.0,0.0,0.0,0.0,0.0
1609055155635179758,214,1609055155635179758,0.0475397216415,0.00548141742923,0.0211732185264,0.000463627574681,-0.000147641737103,0.000677204528889,0.999999652323,0.0,0.0,0.0,0.0,0.0,0.0
1609055155738158464,215,1609055155738158464,0.0513808942299,0.000584481905464,0.0103364235489,-0.000377406767855,0.000293599272012,0.000499545996457,0.999999760909,0.0,0.0,0.0,0.0,0.0,0.0
1609055155841347933,216,1609055155841347933,0.0379442012725,0.0013843718784,0.00856008389627,-0.000333587862495,-0.000257381310198,0.000498720756919,0.999999786876,0.0,0.0,0.0,0.0,0.0,0.0
1609055155913217068,217,1609055155913217068,0.0276660782165,0.000540442529361,0.00237336909427,0.000759925696041,-0.000228094030406,0.000525201424536,0.999999547325,0.0,0.0,0.0,0.0,0.0,0.0
1609055156013435364,218,1609055156013435364,0.0379293806309,0.00432640377857,0.00817760774877,0.00182313918781,-0.000234956167518,0.000507359585818,0.999998181771,0.0,0.0,0.0,0.0,0.0,0.0
1609055156116581440,219,1609055156116581440,0.0454392539662,0.00375091952242,0.00545564279629,-0.000924956418537,-3.67643642972e-05,0.000407128522713,0.999999488675,0.0,0.0,0.0,0.0,0.0,0.0
1609055156219761610,220,1609055156219761610,0.0342233214463,0.00648547236211,-0.002497209565,0.00292303894183,-0.00124563761426,0.000337505344781,0.999994895147,0.0,0.0,0.0,0.0,0.0,0.0
1609055156322891951,221,1609055156322891951,0.0543349316412,0.000964942510588,-0.00630390251363,1.76951822461e-05,-0.000308383658467,0.00038176152521,0.999999879422,0.0,0.0,0.0,0.0,0.0,0.0
1609055156426126719,222,1609055156426126719,0.033793513567,0.00226248262253,0.000555809100246,-0.00128095685916,-0.000500428188736,0.000519060637511,0.999998919648,0.0,0.0,0.0,0.0,0.0,0.0
1609055156529160261,223,1609055156529160261,0.0545871666982,0.00110704947124,0.0236968122576,-0.001337358715,0.000943959649165,0.000620346622183,0.99999846779,0.0,0.0,0.0,0.0,0.0,0.0
1609055156632478476,224,1609055156632478476,0.0432126896045,0.00359343271472,0.00506094109882,-0.00105325281449,-0.000858886494673,0.000502968016874,0.999998949997,0.0,0.0,0.0,0.0,0.0,0.0
1609055156735728741,225,1609055156735728741,0.0609578515445,0.0007845865911,0.00793872984317,-0.00122371352269,-5.74995509895e-05,0.000187716103041,0.999999231991,0.0,0.0,0.0,0.0,0.0,0.0
1609055156838659286,226,1609055156838659286,0.0351651480457,0.00248472471595,0.00151825621425,-0.000537504152328,0.00020305279567,0.000784671416424,0.999999527075,0.0,0.0,0.0,0.0,0.0,0.0
1609055156941792011,227,1609055156941792011,0.0304123824746,0.0017475749716,-0.0175267718354,-0.001259589328,-0.000152434291337,0.000522986412007,0.999999058341,0.0,0.0,0.0,0.0,0.0,0.0
1609055157013621569,228,1609055157013621569,0.0318047630046,0.00170457670958,0.00246522963726,0.00066044041923,-0.000590200937531,0.000505121922003,0.999999480166,0.0,0.0,0.0,0.0,0.0,0.0
1609055157113714218,229,1609055157113714218,0.0316709372544,0.00534974742971,0.0106777549756,0.00050829697021,-0.000285402629051,0.000426435081528,0.999999739166,0.0,0.0,0.0,0.0,0.0,0.0
1609055157216989517,230,1609055157216989517,0.0320851683107,0.00474476741757,-0.00784539544947,0.00257000307112,-3.75098439263e-05,0.000242913061854,0.99999666733,0.0,0.0,0.0,0.0,0.0,0.0
1609055157319969177,231,1609055157319969177,0.0453404988384,0.00523771479594,-0.00584945268004,0.00123367612584,-0.000376778546089,0.00040867887559,0.999999084531,0.0,0.0,0.0,0.0,0.0,0.0
1609055157423083544,232,1609055157423083544,0.035822553614,0.00283082157176,0.0228746245504,-0.00161878724166,0.000297389306936,0.000707668511725,0.999998395145,0.0,0.0,0.0,0.0,0.0,0.0
1609055157525899649,233,1609055157525899649,0.0316407862252,0.00498728219496,-0.000680200305111,0.00360599960721,-0.000861978278163,0.000495311423684,0.999993004189,0.0,0.0,0.0,0.0,0.0,0.0
1609055157629338741,234,1609055157629338741,0.0168709576281,0.00685902449541,-0.022563745977,0.00139944597002,-0.000117727676732,0.000455038832003,0.999998910315,0.0,0.0,0.0,0.0,0.0,0.0
1609055157732028723,235,1609055157732028723,0.023068037027,0.00736985137014,-0.00644690587927,0.00247946094955,-0.000843533714418,0.00068851314772,0.99999633333,0.0,0.0,0.0,0.0,0.0,0.0
1609055157835368872,236,1609055157835368872,0.0295719418274,0.00649439144119,-0.00485547056552,0.00261194656691,-0.000369529797673,0.000401722666405,0.999996439895,0.0,0.0,0.0,0.0,0.0,0.0
1609055157938623667,237,1609055157938623667,0.0194811421832,0.00587843263558,-0.0274499187804,-7.9544319754e-05,-0.000389935634356,0.000399542818598,0.999999840994,0.0,0.0,0.0,0.0,0.0,0.0
1609055158041951418,238,1609055158041951418,0.0216907034158,0.00535467474631,-0.0130272351009,0.000676311249289,0.000207817718163,0.000390103819695,0.999999673617,0.0,0.0,0.0,0.0,0.0,0.0
1609055158113737583,239,1609055158113737583,0.0234396585329,0.000871731852578,-0.0266253917713,-1.35039594361e-05,0.000103501334772,0.000666006503232,0.99999977277,0.0,0.0,0.0,0.0,0.0,0.0
1609055158213875532,240,1609055158213875532,0.0368910961172,0.00582561024078,-0.00766436014213,0.00067654140547,-0.000293724188869,0.000360019784085,0.999999663202,0.0,0.0,0.0,0.0,0.0,0.0
1609055158317102671,241,1609055158317102671,0.0377827864721,0.00848984051612,0.00320077309888,-0.00043413608014,0.000960717611764,0.000283676430304,0.999999404037,0.0,0.0,0.0,0.0,0.0,0.0
1609055158420338869,242,1609055158420338869,0.0325252745462,0.00412068917347,-0.00662640638612,0.00201995759816,-0.000717622029384,0.000708694781815,0.999997451268,0.0,0.0,0.0,0.0,0.0,0.0
1609055158523173332,243,1609055158523173332,0.04134351097,0.00191028267372,-0.013434245451,-0.000334211762769,0.000563821273132,0.000413139279189,0.999999699862,0.0,0.0,0.0,0.0,0.0,0.0
1609055158625958920,244,1609055158625958920,0.0390215410916,0.00365882089678,-0.00358850282725,-0.00071780835712,-0.000560456240057,0.000458294660534,0.999999480303,0.0,0.0,0.0,0.0,0.0,0.0
1609055158729075909,245,1609055158729075909,0.0444337267756,0.00228894065137,0.006367953114,-0.000340357092221,-0.00138884644697,0.000480245085104,0.999998862313,0.0,0.0,0.0,0.0,0.0,0.0
1609055158832076550,246,1609055158832076550,0.0560029509933,0.00587809606289,0.0210953702368,-0.000405115645706,-0.000509009446278,0.000237003690953,0.99999976031,0.0,0.0,0.0,0.0,0.0,0.0
1609055158935256958,247,1609055158935256958,0.0434157628385,0.00188665459359,-0.00165524790666,-0.00183293338387,0.000171860668597,0.000239324916984,0.99999827677,0.0,0.0,0.0,0.0,0.0,0.0
1609055159038412571,248,1609055159038412571,0.0428824559523,0.00388815765948,0.00390729445387,-0.00181324842123,-0.000440077814993,0.000446487694517,0.999998159553,0.0,0.0,0.0,0.0,0.0,0.0
1609055159141624689,249,1609055159141624689,0.0342370921674,0.00448458822084,-0.0124305288694,0.000374436748264,-6.1394778927e-05,0.00042558501948,0.999999837453,0.0,0.0,0.0,0.0,0.0,0.0
1609055159213474751,250,1609055159213474751,0.0149262564051,0.00302305831298,-0.0252930079807,0.00045472271717,0.000981926577342,0.000249894944803,0.9999993833,0.0,0.0,0.0,0.0,0.0,0.0
1609055159313799381,251,1609055159313799381,0.0135647712067,0.00255663447643,-0.0318513792797,0.00207150398758,-0.00132641025382,0.000413948965369,0.999996889072,0.0,0.0,0.0,0.0,0.0,0.0
1609055159416936398,252,1609055159416936398,0.019387089688,0.0027553147967,-0.0275566079862,-0.000729433558806,0.00065679171324,0.000596700723253,0.99999934025,0.0,0.0,0.0,0.0,0.0,0.0
1609055159519903183,253,1609055159519903183,0.0276234050749,0.00557943773618,-0.01309056753,0.00246646567435,-0.00101669272611,0.000712352405943,0.999996187711,0.0,0.0,0.0,0.0,0.0,0.0
1609055159622967958,254,1609055159622967958,0.0342115888405,0.00397012950033,-0.0109025455425,0.00230008840744,-0.000362326446748,0.000200097854419,0.999997269133,0.0,0.0,0.0,0.0,0.0,0.0
1609055159726190090,255,1609055159726190090,0.0235467998336,0.00475891700741,-0.000237756936556,0.00314836168209,-0.000360253841001,0.00043926035228,0.99999488253,0.0,0.0,0.0,0.0,0.0,0.0
1609055159828963041,256,1609055159828963041,0.00819480482967,0.00398886098387,-0.0449402976032,0.00147961095057,-0.00100071214426,0.000475657935121,0.999998291537,0.0,0.0,0.0,0.0,0.0,0.0
1609055159932096958,257,1609055159932096958,0.01643063943,0.00528551624182,-0.024925136283,0.00216947577232,-0.000987756940301,0.000395790407012,0.999997080526,0.0,0.0,0.0,0.0,0.0,0.0
1609055160035209656,258,1609055160035209656,0.0234348366018,0.00304692384706,-0.00956150981845,0.00255498608439,-0.000359915243504,0.000727495926092,0.999996406622,0.0,0.0,0.0,0.0,0.0,0.0
1609055160138326645,259,1609055160138326645,0.0252105041695,0.0066250226654,-0.0199952748507,0.00222378716054,-0.00036794561337,0.000430300667015,0.99999736711,0.0,0.0,0.0,0.0,0.0,0.0
1609055160241590261,260,1609055160241590261,0.0138054013433,0.0050268082627,-0.0270252833554,-8.21742219981e-06,0.00032658023145,0.000377483323921,0.999999875392,0.0,0.0,0.0,0.0,0.0,0.0
1609055160313512325,261,1609055160313512325,0.0197632341399,0.00357512933603,-0.0170332966684,0.00334055054763,7.50731189203e-05,0.000583937945297,0.999994247035,0.0,0.0,0.0,0.0,0.0,0.0
1609055160413922071,262,1609055160413922071,0.0330703422599,0.00390095335203,-0.0132747457349,0.000680079421087,0.000248082504036,0.000689028973019,0.999999500593,0.0,0.0,0.0,0.0,0.0,0.0
1609055160517130613,263,1609055160517130613,0.0284140308957,0.00480352363905,-0.0182435417117,-0.000876931905746,0.000288700199939,0.000452076930356,0.999999471634,0.0,0.0,0.0,0.0,0.0,0.0
1609055160620431185,264,1609055160620431185,0.0238377530787,0.00466135332955,-0.0280570902079,0.000897406805811,0.000179335450115,0.000396249893563,0.999999502743,0.0,0.0,0.0,0.0,0.0,0.0
1609055160723454714,265,1609055160723454714,0.0370196797529,0.00302454959438,-0.00602442105831,-0.00082094866364,-0.000724095817648,0.000506849361288,0.999999272416,0.0,0.0,0.0,0.0,0.0,0.0
1609055160826587677,266,1609055160826587677,0.0383805051986,0.00290306410623,-0.0143918282653,0.000525624091536,0.0007385517612,0.000296330602518,0.999999545224,0.0,0.0,0.0,0.0,0.0,0.0
1609055160929427862,267,1609055160929427862,0.0297754871735,0.00370462654268,-0.00921387427161,-0.00164316674383,-0.000330447339958,0.000450537611298,0.999998493911,0.0,0.0,0.0,0.0,0.0,0.0
1609055161032514095,268,1609055161032514095,0.036873172675,0.000663576863298,-0.0251370419381,-0.00107577646317,0.000547733322021,0.000152672594577,0.999999259692,0.0,0.0,0.0,0.0,0.0,0.0
1609055161135504246,269,1609055161135504246,0.0455145960631,0.00360230365844,-0.00692366995382,-0.00117569467071,0.000482847447395,0.000573862585429,0.99999902764,0.0,0.0,0.0,0.0,0.0,0.0
1609055161238385677,270,1609055161238385677,0.0369279976029,0.00450930381656,-0.00908732998188,0.00158590464725,-0.000188995344282,0.00044522844734,0.999998625478,0.0,0.0,0.0,0.0,0.0,0.0
1609055161341360092,271,1609055161341360092,0.0422539546329,0.00231288010128,0.0123010213331,0.00122670861111,-0.000799637199852,0.000999100390666,0.999998428781,0.0,0.0,0.0,0.0,0.0,0.0
1609055161413223505,272,1609055161413223505,0.0408490114784,0.00144976138178,-0.0107892828044,0.000211764705725,-0.000680927070355,0.000599618396201,0.999999565976,0.0,0.0,0.0,0.0,0.0,0.0
1609055161513440371,273,1609055161513440371,0.0378487609944,0.00522337502739,-0.00594783563728,0.00105371780903,-5.02783311979e-05,0.000292684193073,0.999999400743,0.0,0.0,0.0,0.0,0.0,0.0
1609055161616692781,274,1609055161616692781,0.0411492487542,-0.00052736454377,0.00961822388772,0.00148410659487,-0.000132197533416,0.000391109381843,0.999998813492,0.0,0.0,0.0,0.0,0.0,0.0
1609055161719561100,275,1609055161719561100,0.0368070905675,0.00564525093984,-0.00457012408142,-9.99031205988e-06,6.37402401387e-05,0.000290548590921,0.999999955709,0.0,0.0,0.0,0.0,0.0,0.0
1609055161822639942,276,1609055161822639942,0.0396620695778,0.000386540789214,-0.00261945929726,0.000493826016315,-0.000507643558536,0.000539074086447,0.999999603916,0.0,0.0,0.0,0.0,0.0,0.0
1609055161925566912,277,1609055161925566912,0.0339989912194,-0.000307957407398,-0.0157590185114,-0.000622370557035,-5.95946005896e-05,0.000461299724417,0.999999698153,0.0,0.0,0.0,0.0,0.0,0.0
1609055162028631687,278,1609055162028631687,0.0279284084074,0.00257140603417,0.00360469845355,-0.000682237044617,0.000243651507883,0.000639172329755,0.999999533322,0.0,0.0,0.0,0.0,0.0,0.0
1609055162131711960,279,1609055162131711960,0.0424010435951,-0.00320947648377,0.0136100709646,0.000223869887514,0.000118479380109,0.00104457128733,0.999999422358,0.0,0.0,0.0,0.0,0.0,0.0
1609055162234942436,280,1609055162234942436,0.0302857721028,0.00119204968326,-0.0224440117832,-0.00294197303174,0.00101531007407,0.000474632255924,0.99999504432,0.0,0.0,0.0,0.0,0.0,0.0
1609055162338085890,281,1609055162338085890,0.0384588353901,-0.0024028390243,0.00603542141443,-0.00104404964665,-0.000102221942337,0.000543567290754,0.999999302022,0.0,0.0,0.0,0.0,0.0,0.0
1609055162441148281,282,1609055162441148281,0.0500071131021,0.00389527330572,0.00897741447871,0.000141536603328,-0.00115247288436,0.000630267075103,0.999999127268,0.0,0.0,0.0,0.0,0.0,0.0
1609055162513001680,283,1609055162513001680,0.0456965764414,0.00120456573995,-0.00765635697583,0.00023146186114,-8.18494568967e-05,0.000316683519265,0.999999919719,0.0,0.0,0.0,0.0,0.0,0.0
1609055162613955498,284,1609055162613955498,0.0396786048938,0.0003320772486,0.00030849983664,0.00191722726702,-0.000672201407234,0.00052222437117,0.999997799831,0.0,0.0,0.0,0.0,0.0,0.0
1609055162716055155,285,1609055162716055155,0.0441893920764,0.00339945854953,-0.0143344432741,-2.6955400177e-05,-0.000848578127179,0.00052278064431,0.999999502944,0.0,0.0,0.0,0.0,0.0,0.0
1609055162819464445,286,1609055162819464445,0.023532535744,0.00169944572328,-0.0023245340962,0.00059758944065,0.00165884263112,0.000640934991225,0.999998240163,0.0,0.0,0.0,0.0,0.0,0.0
1609055162922474861,287,1609055162922474861,0.0550255562487,0.000962322747841,-0.00220990522869,-0.0013176719639,0.000102677256179,0.000556267296515,0.999998971882,0.0,0.0,0.0,0.0,0.0,0.0
1609055163025520802,288,1609055163025520802,0.066202463053,0.0029401640432,0.00811740088947,-0.00127873395476,0.000194735583889,0.000632293495946,0.999998963561,0.0,0.0,0.0,0.0,0.0,0.0
1609055163128653765,289,1609055163128653765,0.0645645644218,0.00609640017573,0.00142062030636,-0.000105345495556,2.56890265283e-05,0.000683495431124,0.999999760538,0.0,0.0,0.0,0.0,0.0,0.0
1609055163231396675,290,1609055163231396675,0.0725474190151,0.00558064148895,0.0232635620037,-0.00178351429497,-0.00082668718434,0.00039176041038,0.999997991092,0.0,0.0,0.0,0.0,0.0,0.0
1609055163334579468,291,1609055163334579468,0.0763491027077,0.00455899510019,0.0203311395486,-0.00250506670542,0.000248977774915,0.000627797181619,0.999996634255,0.0,0.0,0.0,0.0,0.0,0.0
1609055163437693834,292,1609055163437693834,0.07284119294,0.00153801054577,0.0129675585322,0.000216492352292,-0.000167352465275,0.000921427164875,0.999999538048,0.0,0.0,0.0,0.0,0.0,0.0
1609055163540819645,293,1609055163540819645,0.0795346939246,0.00699190328746,0.0226844762204,0.000867322422233,-2.54589377901e-05,0.000627096062166,0.999999426927,0.0,0.0,0.0,0.0,0.0,0.0
1609055163612807512,294,1609055163612807512,0.0843782466048,0.00691120112527,0.0254310298308,0.00047697776496,-0.000235784230166,0.000853069357184,0.999999494585,0.0,0.0,0.0,0.0,0.0,0.0
1609055163713024855,295,1609055163713024855,0.095605577456,0.00814220236749,0.0156655505523,-0.000973537688972,-0.000163269419509,0.000800379995874,0.999999192479,0.0,0.0,0.0,0.0,0.0,0.0
1609055163816221952,296,1609055163816221952,0.0803567178186,0.00175828021811,0.010800403243,0.000418152048785,-0.000301999154307,0.000990709801503,0.999999376219,0.0,0.0,0.0,0.0,0.0,0.0
1609055163919521570,297,1609055163919521570,0.063519401007,-0.00181500325139,0.0215741205313,-0.00153833657607,0.000786470326986,0.000718540474921,0.999998249341,0.0,0.0,0.0,0.0,0.0,0.0
1609055164022711277,298,1609055164022711277,0.036019745169,-0.00581637015085,-0.0167164186484,0.000611521009632,-0.000811936284781,-0.00030535835939,0.999999436779,0.0,0.0,0.0,0.0,0.0,0.0
1609055164125595808,299,1609055164125595808,0.0276886647244,-0.004433936428,-0.0261069796179,0.0020679421787,0.000507602044496,-0.00191334530083,0.999995902524,0.0,0.0,0.0,0.0,0.0,0.0
1609055164228689909,300,1609055164228689909,0.0363020502146,-0.00480521688158,-0.0223645095804,0.000454965532719,-0.00148221162636,-0.00239194223139,0.999995937325,0.0,0.0,0.0,0.0,0.0,0.0
1609055164331591845,301,1609055164331591845,0.0376238930324,-0.000275635434073,-0.000646824157025,-1.65958964986e-05,-0.000364352074149,-0.00207938915599,0.999997771554,0.0,0.0,0.0,0.0,0.0,0.0
1609055164434673786,302,1609055164434673786,0.047054313056,-0.000916247180987,-0.0163829779006,-0.000537858680188,0.000458822450495,-0.00219493142922,0.999997341229,0.0,0.0,0.0,0.0,0.0,0.0
1609055164537598848,303,1609055164537598848,0.062202447616,0.00086764277317,-0.00711645189828,-0.000558548841041,0.000651166200491,-0.00196349631795,0.999997704341,0.0,0.0,0.0,0.0,0.0,0.0
1609055164640679836,304,1609055164640679836,0.0609170523624,0.00319492691487,-0.0133785040686,-0.00136230057105,-0.00150680394456,-0.00109898893404,0.999997332947,0.0,0.0,0.0,0.0,0.0,0.0
1609055164712335110,305,1609055164712335110,0.0648638209779,-0.00206911127487,0.00247789878063,-0.00203379384646,0.000447103915334,-0.000499997906464,0.999997706889,0.0,0.0,0.0,0.0,0.0,0.0
1609055164812909842,306,1609055164812909842,0.0668086163189,0.00466132693906,0.011709122278,-0.00575112560095,-0.000489851675259,-6.15275529549e-05,0.999983340268,0.0,0.0,0.0,0.0,0.0,0.0
1609055164915471315,307,1609055164915471315,0.0416435216705,0.00491101812532,-0.007979734727,-0.00469330248139,-0.00322758095036,0.00395404469971,0.999975960293,0.0,0.0,0.0,0.0,0.0,0.0
1609055165018491507,308,1609055165018491507,0.0118802785634,0.00870066889239,-0.00771109930561,-0.00122928739143,-0.00300435950606,0.00667794425403,0.999972433488,0.0,0.0,0.0,0.0,0.0,0.0
1609055165121599436,309,1609055165121599436,-0.0137555942817,0.0125031392195,-0.013921894607,-0.00331314271044,-0.00439226195515,0.00753628379302,0.999956466826,0.0,0.0,0.0,0.0,0.0,0.0
1609055165224780798,310,1609055165224780798,-0.0663923277143,0.0144150173203,0.0103301057884,-0.00130350798042,-0.00561520622019,0.0106292286977,0.999926892239,0.0,0.0,0.0,0.0,0.0,0.0
1609055165328274488,311,1609055165328274488,-0.13737048533,0.0227031061016,0.00233287602051,-0.000777806332331,-0.00467223062463,0.0124590422796,0.999911164826,0.0,0.0,0.0,0.0,0.0,0.0
1609055165431527138,312,1609055165431527138,-0.134299033445,0.0114047921051,0.0133119187454,0.000822833706464,-0.00162153040713,0.00552301372999,0.999983094808,0.0,0.0,0.0,0.0,0.0,0.0
1609055165534714937,313,1609055165534714937,-0.126643317288,0.00165204447086,0.0171019441209,1.03141897139e-05,-0.000639973756543,0.00338162418157,0.999994077455,0.0,0.0,0.0,0.0,0.0,0.0
1609055165637841225,314,1609055165637841225,-0.0923431847942,0.0138845589486,0.0240934165528,-0.00226791726025,0.000259773125416,-0.00114511052666,0.99999673889,0.0,0.0,0.0,0.0,0.0,0.0
1609055165740550756,315,1609055165740550756,-0.0942515615348,0.0118422362486,0.00809778787745,-0.000196146683641,-0.0013381892562,0.000164098299015,0.999999071923,0.0,0.0,0.0,0.0,0.0,0.0
1609055165813160181,316,1609055165813160181,-0.126105387601,0.0252066697167,0.00174798952403,-0.00298392835105,-0.000639674332211,0.00258913187295,0.99999199166,0.0,0.0,0.0,0.0,0.0,0.0
1609055165912503242,317,1609055165912503242,-0.125812269482,0.0119469629305,0.0170824330561,-0.00757844146616,-0.00206804727536,0.00326726477703,0.999963807038,0.0,0.0,0.0,0.0,0.0,0.0
1609055166015289783,318,1609055166015289783,-0.166605690438,-0.00300771882036,0.0159609094681,-0.00830078321971,-0.00198071809605,0.00124563665964,0.99996281038,0.0,0.0,0.0,0.0,0.0,0.0
1609055166118810415,319,1609055166118810415,-0.188996361673,-0.0151197679635,-0.0204634231168,-0.012330571069,-0.00262105743593,0.0015878554148,0.999919279637,0.0,0.0,0.0,0.0,0.0,0.0
1609055166221881866,320,1609055166221881866,-0.184928374491,-0.054269967784,-0.037799212856,-0.0210216646689,0.000248879152768,-0.0065758325557,0.999757363614,0.0,0.0,0.0,0.0,0.0,0.0
1609055166325320244,321,1609055166325320244,-0.158655344905,-0.109985930564,-0.0388222731552,-0.0222213026074,0.000268643360594,-0.0156878385427,0.999629948162,0.0,0.0,0.0,0.0,0.0,0.0
1609055166428340197,322,1609055166428340197,-0.144062904321,-0.139120692205,-0.031626997825,-0.0234773367038,0.00108408579249,-0.0254269878138,0.999400374079,0.0,0.0,0.0,0.0,0.0,0.0
1609055166531160355,323,1609055166531160355,-0.12773627515,-0.16812990562,-0.029500839324,-0.0174203360669,0.000564904160059,-0.0320851087298,0.999333156946,0.0,0.0,0.0,0.0,0.0,0.0
1609055166634181499,324,1609055166634181499,-0.109951014882,-0.199272986687,-0.0376744380796,-0.0221084337545,0.000842798626078,-0.0377529676446,0.999042151404,0.0,0.0,0.0,0.0,0.0,0.0
1609055166737598181,325,1609055166737598181,-0.0894296511674,-0.23316050062,-0.0208978197892,-0.0218867781644,0.000223129084894,-0.0431071003722,0.998830664854,0.0,0.0,0.0,0.0,0.0,0.0
1609055166840246677,326,1609055166840246677,-0.100283400576,-0.267891368609,-0.0119191433607,-0.0236692011689,0.00107165995414,-0.0475372075107,0.998588420904,0.0,0.0,0.0,0.0,0.0,0.0
1609055166912184000,327,1609055166912184000,-0.07443044881,-0.306073114291,0.0103762422618,-0.0227594184773,-0.000440439807488,-0.0549095036766,0.99823181741,0.0,0.0,0.0,0.0,0.0,0.0
1609055167012410879,328,1609055167012410879,-0.0801606108884,-0.332730303426,0.00600456073534,-0.0180208017251,0.00195836782035,-0.0613912946955,0.997949159244,0.0,0.0,0.0,0.0,0.0,0.0
1609055167115617037,329,1609055167115617037,-0.0787763042442,-0.36450447539,0.00070397872921,-0.00811017221217,-0.00160846465845,-0.0682085868874,0.997636821004,0.0,0.0,0.0,0.0,0.0,0.0
1609055167218698978,330,1609055167218698978,-0.107270134034,-0.392649905672,0.000374921327608,0.000538424729613,-0.00314831104092,-0.0699620506985,0.997544540208,0.0,0.0,0.0,0.0,0.0,0.0
1609055167321477652,331,1609055167321477652,-0.130934766321,-0.417991973827,0.0289117772379,0.00263946313851,-0.00229155652716,-0.0697412912865,0.997558987876,0.0,0.0,0.0,0.0,0.0,0.0
1609055167424343109,332,1609055167424343109,-0.151268048158,-0.443036546082,0.0497698670528,0.00208030663924,-0.00184267472416,-0.0653200908777,0.997860492555,0.0,0.0,0.0,0.0,0.0,0.0
1609055167527434587,333,1609055167527434587,-0.203340907017,-0.466917200082,0.035417419913,0.00330301834739,-0.00221497087438,-0.0609062813362,0.998135566377,0.0,0.0,0.0,0.0,0.0,0.0
1609055167630567551,334,1609055167630567551,-0.239498377705,-0.502969305093,0.0513383365324,0.00450251378427,-0.00174925583482,-0.0573949678753,0.998339864543,0.0,0.0,0.0,0.0,0.0,0.0
1609055167733904362,335,1609055167733904362,-0.292643368158,-0.550940726806,0.0402290779709,-0.000310284771003,-0.00194297104756,-0.0539103059131,0.998543843556,0.0,0.0,0.0,0.0,0.0,0.0
1609055167838145971,336,1609055167838145971,-0.349702114732,-0.604825115745,0.0567238680699,-0.0014154054754,0.000670979632126,-0.0558550939559,0.998437656988,0.0,0.0,0.0,0.0,0.0,0.0
1609055167940594435,337,1609055167940594435,-0.377461446412,-0.673530101482,0.0496320630176,-0.00183494840455,-0.0018091427527,-0.0582608972637,0.998298065618,0.0,0.0,0.0,0.0,0.0,0.0
1609055168012640476,338,1609055168012640476,-0.448690861213,-0.731369884094,0.0500077310524,0.00247664719426,-0.00380967851995,-0.0600259563788,0.998186474126,0.0,0.0,0.0,0.0,0.0,0.0
1609055168112578392,339,1609055168112578392,-0.499951048969,-0.782990610439,0.0553848764693,-0.00389169558637,-0.00261129162637,-0.0605595999915,0.998153580723,0.0,0.0,0.0,0.0,0.0,0.0
1609055168215576887,340,1609055168215576887,-0.554736175622,-0.838467448588,0.0902136314319,-0.0066835918921,-0.000949477166312,-0.06169554049,0.998072185954,0.0,0.0,0.0,0.0,0.0,0.0
1609055168318733931,341,1609055168318733931,-0.650954135788,-0.884571679011,0.0878429634393,-0.00556875438872,0.000118550573423,-0.058375195356,0.998279175124,0.0,0.0,0.0,0.0,0.0,0.0
1609055168421677828,342,1609055168421677828,-0.707292901188,-0.925537751769,0.0710336819582,-0.00751950933382,-0.00201566065061,-0.0538270831669,0.998519924292,0.0,0.0,0.0,0.0,0.0,0.0
1609055168524467945,343,1609055168524467945,-0.76997600441,-0.975599732955,0.0788814607795,-0.0083105196184,-0.00263205548767,-0.0480338101585,0.998807669488,0.0,0.0,0.0,0.0,0.0,0.0
1609055168628017664,344,1609055168628017664,-0.835676614314,-1.02405597213,0.0966399703875,-0.0108822500983,-0.0012309858565,-0.0426397994659,0.999030484424,0.0,0.0,0.0,0.0,0.0,0.0
1609055168731102228,345,1609055168731102228,-0.917624865963,-1.07069681997,0.0920650030906,-0.00672395888272,-0.0015783273017,-0.0390770957384,0.999212328711,0.0,0.0,0.0,0.0,0.0,0.0
1609055168834104538,346,1609055168834104538,-0.981513522458,-1.11832422077,0.106106348737,-0.00157567020127,-0.00321318994731,-0.0370795393451,0.999305909337,0.0,0.0,0.0,0.0,0.0,0.0
1609055168937374115,347,1609055168937374115,-1.04141337852,-1.15304336133,0.0988401289882,-0.00612664932334,-0.00288931425014,-0.0347929411608,0.999371586186,0.0,0.0,0.0,0.0,0.0,0.0
1609055169040517569,348,1609055169040517569,-1.11901288366,-1.19416262912,0.117806307613,-0.00787447034946,-0.00188213800564,-0.0334296530241,0.999408279219,0.0,0.0,0.0,0.0,0.0,0.0
1609055169112447500,349,1609055169112447500,-1.16736838623,-1.24304288075,0.117975718386,-0.00420257740528,-0.00372447879429,-0.0351636693514,0.999365790368,0.0,0.0,0.0,0.0,0.0,0.0
1609055169212625027,350,1609055169212625027,-1.21520303943,-1.28033431112,0.136116527437,-0.00672444106117,-0.00319059304341,-0.0387681117527,0.99922051396,0.0,0.0,0.0,0.0,0.0,0.0
1609055169315572739,351,1609055169315572739,-1.27594010234,-1.31612668136,0.157130708194,-0.00725095166218,-0.0028324227427,-0.042427837444,0.999069206657,0.0,0.0,0.0,0.0,0.0,0.0
1609055169418601990,352,1609055169418601990,-1.33363587591,-1.33484262066,0.171603390901,-0.00659025478335,-0.0029053318706,-0.043721473695,0.999017797802,0.0,0.0,0.0,0.0,0.0,0.0
1609055169521845102,353,1609055169521845102,-1.40736570625,-1.37369536049,0.149748479771,-0.00133805536951,-0.004133808042,-0.0478548471566,0.998844850235,0.0,0.0,0.0,0.0,0.0,0.0
1609055169625014067,354,1609055169625014067,-1.47608447823,-1.42947024381,0.164376546995,-0.00207590111429,-0.00363794356389,-0.0561340427442,0.998414455647,0.0,0.0,0.0,0.0,0.0,0.0
1609055169728895426,355,1609055169728895426,-1.53209288658,-1.46718249064,0.182805489775,-0.00286461601054,-0.00390617704766,-0.0661415680103,0.997798491047,0.0,0.0,0.0,0.0,0.0,0.0
1609055169831133842,356,1609055169831133842,-1.62388139947,-1.50679670609,0.205448865282,-0.00883332656053,-0.00233656861755,-0.0780364841703,0.996908631684,0.0,0.0,0.0,0.0,0.0,0.0
1609055169933799028,357,1609055169933799028,-1.67437483857,-1.53676819872,0.180119778999,-0.00589853957902,-0.00552719069753,-0.0867870600222,0.996194089325,0.0,0.0,0.0,0.0,0.0,0.0
1609055170036385059,358,1609055170036385059,-1.73420576332,-1.5329606787,0.218780769195,-0.0103124201403,-0.00494731590421,-0.084178274671,0.996385064184,0.0,0.0,0.0,0.0,0.0,0.0
1609055170139149189,359,1609055170139149189,-1.77949876539,-1.51586060561,0.225244545661,-0.0104362875337,-0.00739852590512,-0.0736645452014,0.997201023113,0.0,0.0,0.0,0.0,0.0,0.0
1609055170210781813,360,1609055170210781813,-1.88057904238,-1.52501057081,0.252025947945,-0.012452421885,-0.00431595975188,-0.0608490491291,0.998059969591,0.0,0.0,0.0,0.0,0.0,0.0
1609055170310999393,361,1609055170310999393,-1.98382414573,-1.55824292362,0.250243411438,-0.0124586167617,-0.00339317264073,-0.0464571408853,0.998836825166,0.0,0.0,0.0,0.0,0.0,0.0
1609055170414489985,362,1609055170414489985,-2.09059939205,-1.59801523787,0.2335091143,-0.00912588682542,-0.00429609552116,-0.0374228787395,0.999248612658,0.0,0.0,0.0,0.0,0.0,0.0
1609055170518277168,363,1609055170518277168,-2.20338668048,-1.66765821857,0.254605872797,-0.0104843006739,-0.0036819270062,-0.0326216029419,0.999406000519,0.0,0.0,0.0,0.0,0.0,0.0
1609055170621906996,364,1609055170621906996,-2.2955717262,-1.73009433395,0.269671001303,-0.015804831659,-0.00409330757086,-0.0349647446924,0.999255182002,0.0,0.0,0.0,0.0,0.0,0.0
1609055170725234270,365,1609055170725234270,-2.37945180445,-1.79874263275,0.275996717058,-0.015190556706,-0.00471489766817,-0.0432065789657,0.998939541844,0.0,0.0,0.0,0.0,0.0,0.0
1609055170828849077,366,1609055170828849077,-2.46684157581,-1.83144486615,0.297204365084,-0.0142074587611,-0.00381033301181,-0.0492625039863,0.998677543143,0.0,0.0,0.0,0.0,0.0,0.0
